County,State,Lat,Long_,Confirmed,Deaths
New York City,New York,40.7672726,-73.97152637,135572,13202
Nassau,New York,40.74066522,-73.58941873,29180,1109
Suffolk,New York,40.88320119,-72.8012172,26143,693
Westchester,New York,41.16278376,-73.75741653,23179,668
Cook,Illinois,41.84144849,-87.81658794,20395,860
Wayne,Michigan,42.28098405,-83.281255,13471,1070
Bergen,New Jersey,40.96010917,-74.07164325,12163,741
Los Angeles,California,34.30828379,-118.2282411,12021,576
Hudson,New Jersey,40.73766234,-74.07515667,9956,434
Essex,New Jersey,40.78681335,-74.24657979,9901,732
Rockland,New York,41.15027894,-74.02560498,9171,334
Miami-Dade,Florida,25.6112362,-80.55170587,9045,198
Philadelphia,Pennsylvania,40.00338507,-75.1379271,9014,342
Union,New Jersey,40.65835409,-74.30680092,8959,356
Middlesex,Massachusetts,42.48607732,-71.39049229,8297,294
Passaic,New Jersey,41.03238628,-74.29954144,7936,243
Suffolk,Massachusetts,42.3279514,-71.07850442,7696,188
Middlesex,New Jersey,40.43629879,-74.41426991,7624,313
Fairfield,Connecticut,41.26809896,-73.3881171,7363,432
Orange,New York,41.40337468,-74.30240757,6514,211
Oakland,Michigan,42.66090111,-83.38595416,6021,458
Orleans,Louisiana,30.06971951,-89.92660315,5953,324
Jefferson,Louisiana,29.74075478,-90.11115756,5543,275
Essex,Massachusetts,42.6687626,-70.94687179,4914,178
King,Washington,47.49137892,-121.8346131,4902,331
New Haven,Connecticut,41.4080325,-72.93620426,4743,241
Harris,Texas,29.86,-95.39,4653,71
Ocean,New Jersey,39.8895449,-74.28089251,4548,212
Monmouth,New Jersey,40.26549699,-74.22240686,4528,221
Macomb,Michigan,42.69158356,-82.92752801,4251,384
Morris,New Jersey,40.86095313,-74.5455371,3984,255
Broward,Florida,26.15184651,-80.48725556,3838,115
Norfolk,Massachusetts,42.16073095,-71.20530408,3659,195
Marion,Indiana,39.78163624,-86.13826325,3624,190
Hartford,Connecticut,41.80283011,-72.73103891,3196,289
Prince George's,Maryland,38.83070039,-76.8496441,3160,95
Worcester,Massachusetts,42.35026951,-71.90493363,2952,92
Clark,Nevada,36.21458855,-115.0130241,2882,133
Montgomery,Pennsylvania,40.21053671,-75.36652296,2781,106
Providence,Rhode Island,41.87064746,-71.57753536,2703,3
Plymouth,Massachusetts,41.94070556,-70.80802823,2688,105
Washington,D.C.,38.90417773,-77.01655992,2666,91
Maricopa,Arizona,33.34835867,-112.4918154,2491,70
Riverside,California,33.74314981,-115.9933578,2457,69
Montgomery,Maryland,39.13676329,-77.20358245,2404,86
Dallas,Texas,32.76670599,-96.7779605,2324,60
Delaware,Pennsylvania,39.91680171,-75.40243663,2317,77
Somerset,New Jersey,40.56465737,-74.61683016,2283,146
Hampden,Massachusetts,42.13440424,-72.63235561,2254,181
Mercer,New Jersey,40.28047017,-74.70479631,2215,110
Dutchess,New York,41.7648606,-73.74356679,2201,26
St. Louis,Missouri,38.6377004,-90.4458375,2163,80
San Diego,California,33.03484597,-116.7365326,2158,70
Lehigh,Pennsylvania,40.6154815,-75.59435245,2141,29
Palm Beach,Florida,26.64676272,-80.46536002,2138,114
Snohomish,Washington,48.04615983,-121.7170703,2093,91
Lake,Illinois,42.3224907,-88.00367925,2073,75
Milwaukee,Wisconsin,43.00486062,-87.96733172,2065,122
Fulton,Georgia,33.79216944,-84.46319413,2054,74
Erie,New York,42.76249024,-78.73063652,2023,115
Camden,New Jersey,39.80343818,-74.96388753,1918,73
Santa Clara,California,37.23104908,-121.6970462,1870,73
Berks,Pennsylvania,40.41570541,-75.92457766,1748,40
Luzerne,Pennsylvania,41.17823008,-75.98447579,1712,32
Bristol,Massachusetts,41.79228404,-71.10872211,1698,75
Bucks,Pennsylvania,40.33682119,-75.10836643,1689,75
Shelby,Tennessee,35.1864775,-89.89692423,1682,33
Baltimore,Maryland,39.45784712,-76.62911955,1664,45
DuPage,Illinois,41.85116968,-88.08642662,1642,82
Denver,Colorado,39.76018276,-104.8725695,1636,66
Fairfax,Virginia,38.83677558,-77.27565836,1633,37
Will,Illinois,41.44619267,-87.97862712,1603,94
Orange,California,33.70147516,-117.7645998,1556,32
Salt Lake,Utah,40.66616532,-111.9216011,1547,13
East Baton Rouge,Louisiana,30.53842039,-91.09777565,1476,72
Davidson,Tennessee,36.17007426,-86.78646056,1465,19
Burlington,New Jersey,39.87681124,-74.66927768,1456,57
Cuyahoga,Ohio,41.424119,-81.65918339,1453,52
Arapahoe,Colorado,39.64977461,-104.3353617,1419,58
Dougherty,Georgia,31.53328528,-84.21722377,1406,91
Franklin,Ohio,39.96995815,-83.01115755,1403,27
DeKalb,Georgia,33.76944049,-84.22396017,1396,24
Northampton,Pennsylvania,40.75182733,-75.30471829,1396,29
Baltimore City,Maryland,39.30211911,-76.61151012,1378,43
Minnehaha,South Dakota,43.67441641,-96.7910885,1276,3
Caddo,Louisiana,32.57991587,-93.88375652,1244,68
Tarrant,Texas,32.77143818,-97.29101614,1229,38
Genesee,Michigan,43.02244215,-83.70589709,1228,112
San Bernardino,California,34.84060306,-116.1774685,1219,57
New Castle,Delaware,39.57992638,-75.64054974,1205,32
Orange,Florida,28.51367621,-81.31799498,1180,23
Mecklenburg,North Carolina,35.24469268,-80.8317671,1153,24
San Francisco,California,37.75215114,-122.4385672,1137,20
Alameda,California,37.64629437,-121.8929271,1114,41
Lancaster,Pennsylvania,40.03904563,-76.24770128,1113,36
Cobb,Georgia,33.94243204,-84.5761255,1100,51
Lake,Indiana,41.41874274,-87.38277575,1095,43
Pierce,Washington,47.03892768,-122.1405958,1086,30
Travis,Texas,30.33432034,-97.7853562,1074,21
Gwinnett,Georgia,33.96044201,-84.02137802,1050,36
Allegheny,Pennsylvania,40.46809875,-79.98167747,1009,47
Monroe,New York,43.14638895,-77.69322942,1008,62
Anne Arundel,Maryland,39.00670238,-76.60329337,1005,41
St. Tammany,Louisiana,30.40942847,-89.95642711,987,67
Weld,Colorado,40.55499405,-104.3929621,986,61
Marion,Ohio,40.58610662,-83.15736305,983,1
Bexar,Texas,29.44928723,-98.52019748,959,37
Hillsborough,Florida,27.9276559,-82.32013172,943,19
Monroe,Pennsylvania,41.05934058,-75.34031025,943,34
Sacramento,California,38.45106826,-121.3425374,914,33
Jefferson,Colorado,39.58635604,-105.2517692,888,35
Sussex,Delaware,38.66143781,-75.39031349,886,25
Ulster,New York,41.89027881,-74.26252104,880,16
Hennepin,Minnesota,45.00761521,-93.47694895,875,69
Washtenaw,Michigan,42.253105,-83.83853204,870,29
Adams,Colorado,39.87432092,-104.3362578,860,31
Pima,Arizona,32.0971334,-111.7890033,856,56
San Mateo,California,37.4228808,-122.3275546,838,28
Duval,Florida,30.33225875,-81.66976468,835,15
Out of GA,Georgia,,,815,7
St. Louis City,Missouri,38.63555736,-90.24349225,808,30
Chester,Pennsylvania,39.97291773,-75.74768357,796,36
Yakima,Washington,46.45738486,-120.7380126,759,34
Fort Bend,Texas,29.52704478,-95.77219463,755,17
Lee,Florida,26.58410348,-81.88399313,739,25
Putnam,New York,41.42630093,-73.74965532,732,7
Lucas,Ohio,41.62101218,-83.65468618,724,31
El Paso,Colorado,38.83240149,-104.5251411,708,49
Hamilton,Ohio,39.19673558,-84.54502924,701,30
Prince William,Virginia,38.70916224,-77.48713689,700,1
Jefferson,Kentucky,38.18664655,-85.65931031,689,60
Contra Costa,California,37.91923498,-121.9289527,685,19
Gloucester,New Jersey,39.71581067,-75.13995546,683,23
Jefferson,Alabama,33.55554728,-86.895063,671,25
Albany,New York,42.60060306,-73.97723916,648,20
Mobile,Alabama,30.78472347,-88.20842409,637,25
St. John the Baptist,Louisiana,30.12597499,-90.4753503,637,53
Richland,South Carolina,34.01791263,-80.90267209,626,14
Sussex,New Jersey,41.13891592,-74.69118243,626,55
Lackawanna,Pennsylvania,41.43564672,-75.60379201,620,35
Kern,California,35.34329425,-118.7277796,610,3
Hall,Georgia,34.32207823,-83.81896936,607,6
Onondaga,New York,43.00491923,-76.19971155,598,17
Ada,Idaho,43.4526575,-116.2415516,593,9
Litchfield,Connecticut,41.7937534,-73.2451475,593,48
Barnstable,Massachusetts,41.72980578,-70.28854339,590,20
Washoe,Nevada,40.66562265,-119.6631594,588,16
Pinellas,Florida,27.93130349,-82.72239666,587,16
Denton,Texas,33.20521901,-97.11691153,585,15
Kane,Illinois,41.93842729,-88.42861412,582,29
Wake,North Carolina,35.78879266,-78.65249174,579,4
Mahoning,Ohio,41.01631101,-80.77287029,572,45
Hamilton,Indiana,40.07306535,-86.05244729,563,35
Lafourche,Louisiana,29.52470226,-90.40976986,560,22
Henrico,Virginia,37.53460572,-77.39326555,559,62
Frederick,Maryland,39.47296601,-77.39999394,557,31
Hillsborough,New Hampshire,42.91537785,-71.7200253,552,2
Michigan Department of Corrections (MDOC),Michigan,,,550,17
Warren,New Jersey,40.85951833,-74.99556527,543,39
Bernalillo,New Mexico,35.05163625,-106.6703554,527,23
Sullivan,New York,41.71579493,-74.76394559,524,11
Collin,Texas,33.18820114,-96.57264368,522,13
Arlington,Virginia,38.8767675,-77.10139853,520,16
Howard,Maryland,39.25305293,-76.93126208,508,12
Clayton,Georgia,33.54187245,-84.35594188,505,17
Oklahoma,Oklahoma,35.55140095,-97.40716948,497,22
Sumner,Tennessee,36.46824103,-86.45917204,497,29
Ascension,Louisiana,30.20406249,-90.9132841,496,30
Multnomah,Oregon,45.54747959,-122.4169351,493,28
St. Charles,Louisiana,29.90709658,-90.35555967,487,27
Greenville,South Carolina,34.89502264,-82.37295012,486,11
Ouachita,Louisiana,32.47645559,-92.15704172,483,12
Eagle,Colorado,39.62754308,-106.6933637,482,6
El Paso,Texas,31.76980765,-106.2363275,482,7
Blaine,Idaho,43.4085812,-113.9752658,475,5
Rockingham,New Hampshire,42.98499744,-71.12883377,466,1
York,Pennsylvania,39.9210089,-76.73040131,463,4
Kent,Michigan,43.03197711,-85.54934642,460,23
Lebanon,Pennsylvania,40.36680311,-76.45651841,458,4
Collier,Florida,26.11091986,-81.34687065,457,8
Navajo,Arizona,35.3997715,-110.3218983,452,11
Middlesex,Connecticut,41.45949668,-72.53714864,448,37
Tangipahoa,Louisiana,30.62888673,-90.40664996,440,18
Galveston,Texas,29.40167322,-94.90469073,438,14
St. Charles,Missouri,38.77875681,-90.66662425,438,18
Hendricks,Indiana,39.76719009,-86.51037283,435,17
Kent,Delaware,39.08646628,-75.56884914,417,10
Utah,Utah,40.1166722,-111.6657662,417,5
Lafayette,Louisiana,30.2049055,-92.06959876,414,17
Loudoun,Virginia,39.08990083,-77.63481877,413,8
Kansas City,Missouri,39.0997,-94.5786,412,13
Wyandotte,Kansas,39.11727348,-94.76378225,412,35
St. Bernard,Louisiana,29.87761636,-89.51887093,409,11
Lubbock,Texas,33.61008596,-101.8204789,407,28
Hall,Nebraska,40.87257079,-98.50218293,403,4
Osceola,Florida,28.06312234,-81.14882926,403,5
San Joaquin,California,37.93433732,-121.2730061,400,17
Durham,North Carolina,36.03638492,-78.87608331,399,4
Tulare,California,36.22026558,-118.8020203,397,17
Ventura,California,34.44465746,-119.0910613,396,13
Saginaw,Michigan,43.33433923,-84.0513121,394,24
Johnson,Indiana,39.48994426,-86.10149107,393,31
Hunterdon,New Jersey,40.56335249,-74.91284156,391,17
St. Joseph,Indiana,41.61756781,-86.29040834,388,8
Washington,Oregon,45.55972701,-123.0955257,387,7
Berkshire,Massachusetts,42.37428441,-73.20524838,385,24
Charleston,South Carolina,32.82487866,-79.96512315,385,3
Chittenden,Vermont,44.46322849,-73.08359212,384,23
Atlantic,New Jersey,39.47538693,-74.65848483,382,19
Honolulu,Hawaii,21.45803166,-157.9712182,382,6
Wayne,North Carolina,35.36438125,-78.00027268,378,4
Tulsa,Oklahoma,36.11939621,-95.94013939,376,21
Santa Barbara,California,34.65329488,-120.0188492,373,3
Montgomery,Texas,30.30079133,-95.50572772,370,7
Cumberland,Maine,43.8370751,-70.37226999,369,14
Johnson,Kansas,38.88548175,-94.82250877,369,25
Pulaski,Arkansas,34.77054088,-92.31355101,368,12
Manatee,Florida,27.47196942,-82.31831044,362,31
Dane,Wisconsin,43.06601594,-89.41733797,358,17
McKinley,New Mexico,35.5800772,-108.262245,356,5
Alexandria,Virginia,38.814003,-77.08183073,354,7
Douglas,Colorado,39.33133796,-104.930001,353,15
Henry,Georgia,33.4533428,-84.1481466,353,7
Charles,Maryland,38.51092331,-76.98580666,347,16
Dauphin,Pennsylvania,40.41377078,-76.77993242,343,9
McHenry,Illinois,42.32451172,-88.45248227,340,17
Summit,Ohio,41.12464734,-81.53123079,340,20
Williamson,Tennessee,35.89099229,-86.89281867,336,5
Marion,Oregon,44.90287942,-122.5815117,335,13
Linn,Iowa,42.07923082,-91.59809485,332,25
Boulder,Colorado,40.09313619,-105.3546767,327,15
Hinds,Mississippi,32.2656285,-90.44435448,325,5
Madison,Indiana,40.16143691,-85.71964711,323,30
Polk,Florida,27.95027105,-81.69732947,320,12
Summit,Utah,40.86688146,-110.9535882,316,0
New London,Connecticut,41.48896435,-72.10430976,315,10
Seminole,Florida,28.7158582,-81.24060348,315,4
Coconino,Arizona,35.83883429,-111.7707178,314,29
Fresno,California,36.75733899,-119.6466953,311,7
Sandoval,New Mexico,35.68862401,-106.8687803,311,6
Sumter,Georgia,32.03650571,-84.19821492,311,14
Chesterfield,Virginia,37.37373208,-77.5868014,310,0
Terrebonne,Louisiana,29.37343766,-90.82626855,310,21
Calcasieu,Louisiana,30.22931235,-93.35400434,309,18
Carroll,Maryland,39.56453592,-77.02373735,308,28
Benton,Washington,46.23946995,-119.5120834,306,34
Hampshire,Massachusetts,42.33997957,-72.65898478,306,7
Lee,Alabama,32.60154883,-85.35132246,305,14
Escambia,Florida,30.67652764,-87.37284571,304,8
Ingham,Michigan,42.59716886,-84.37472069,304,6
Brazoria,Texas,29.18757369,-95.44563172,302,3
Pickaway,Ohio,39.64170392,-83.0243386,302,4
Spokane,Washington,47.62113146,-117.4046494,302,17
Cleveland,Oklahoma,35.20413532,-97.32519562,301,21
Kent,Rhode Island,41.67106337,-71.57641596,299,0
Pike,Pennsylvania,41.33155042,-75.03208106,295,8
Rutherford,Tennessee,35.84591405,-86.4107263,295,6
Schenectady,New York,42.81668777,-74.05278291,295,14
Allen,Indiana,41.09194313,-85.06800636,293,16
Polk,Iowa,41.68679484,-93.57767461,293,13
Lorain,Ohio,41.29553751,-82.15083537,291,16
Volusia,Florida,29.05858895,-81.18263252,291,10
Westmoreland,Pennsylvania,40.3137798,-79.46615476,280,13
Cameron,Texas,26.14524221,-97.48140372,279,5
Sarasota,Florida,27.18546175,-82.33174248,279,23
Beaver,Pennsylvania,40.6825484,-80.34921611,278,31
Clark,Washington,45.77568046,-122.4829204,277,16
Cherokee,Georgia,34.24393976,-84.47431861,276,8
Livingston,Michigan,42.60302282,-83.91297209,276,10
Whatcom,Washington,48.82227976,-121.7490018,276,25
Cumberland,New Jersey,39.37199394,-75.10712559,272,4
Kankakee,Illinois,41.13746989,-87.86205334,272,12
Lee,Georgia,31.7793306,-84.14324253,272,15
Lexington,South Carolina,33.89665987,-81.27146426,271,9
Virginia Beach,Virginia,36.73285734,-76.04566934,271,6
Carroll,Georgia,33.58138199,-85.07976677,270,9
Iberville,Louisiana,30.25734305,-91.3499598,270,21
Tolland,Connecticut,41.85853803,-72.3308481,270,24
Jackson,Missouri,39.01002188,-94.34724536,268,11
Oneida,New York,43.24375382,-75.43710392,268,6
Douglas,Nebraska,41.29518299,-96.15085305,266,5
Johnson,Iowa,41.67169354,-91.58754744,265,3
St. Clair,Illinois,38.46996033,-89.93063427,265,17
San Juan,New Mexico,36.50838318,-108.320437,260,14
Out of TN,Tennessee,,,259,1
Waukesha,Wisconsin,43.01833055,-88.30431188,259,11
Richmond,Georgia,33.35777107,-82.07026432,258,10
Shelby,Alabama,33.26879845,-86.66232561,257,7
Schuylkill,Pennsylvania,40.70497338,-76.2150785,254,5
Webb,Texas,27.7610369,-99.33237355,253,11
Bartow,Georgia,34.23732119,-84.83887523,246,22
Rowan,North Carolina,35.64003916,-80.52446628,244,12
Saratoga,New York,43.10904162,-73.86653895,244,7
Hidalgo,Texas,26.39418217,-98.18299696,242,3
St. Clair,Michigan,42.92655373,-82.67937954,241,8
Chambers,Alabama,32.91360079,-85.39072749,240,11
Sedgwick,Kansas,37.6842718,-97.4608198,238,3
Kenosha,Wisconsin,42.57639354,-88.04051686,236,5
Pinal,Arizona,32.90525627,-111.3449483,235,6
Niagara,New York,43.19898042,-78.74777412,234,9
Harrisonburg,Virginia,38.43542574,-78.87536254,233,0
Jackson,Michigan,42.24807035,-84.42258681,232,9
Trumbull,Ohio,41.31735028,-80.76109643,231,16
Bossier,Louisiana,32.67932307,-93.60460152,230,11
Davis,Utah,40.99001837,-112.1139997,230,2
Montgomery,Ohio,39.75394919,-84.29050975,229,8
Douglas,Georgia,33.70291126,-84.77026156,226,6
Skagit,Washington,48.48171488,-121.766131,226,6
Larimer,Colorado,40.66671597,-105.4625784,224,10
Monroe,Michigan,41.92734151,-83.53749864,224,10
Clay,Florida,29.98319144,-81.85609986,223,9
Stark,Ohio,40.81482476,-81.36437305,221,23
Beaufort,South Carolina,32.39226291,-80.72619758,220,6
DeSoto,Mississippi,34.87625235,-89.99091418,220,3
Fayette,Kentucky,38.0368225,-84.45576892,218,7
St. James,Louisiana,30.02531716,-90.80212061,217,14
Montgomery,Alabama,32.2206831,-86.20969272,215,5
Mitchell,Georgia,31.22483255,-84.19381821,212,23
Muscogee,Georgia,32.50931999,-84.87142262,211,4
Richmond City,Virginia,37.53255773,-77.47966921,211,10
Spartanburg,South Carolina,34.92960077,-81.99225984,211,5
Brevard,Florida,28.29409504,-80.73091022,210,7
Cabarrus,North Carolina,35.3877799,-80.55267168,207,4
Stanislaus,California,37.55862499,-120.9970722,206,4
Alachua,Florida,29.67866525,-82.35928158,205,0
Brown,Wisconsin,44.4526553,-88.00411844,204,1
Lake,Florida,28.76202069,-81.7125123,203,6
Jackson,Mississippi,30.54020656,-88.64184064,201,6
Rapides,Louisiana,31.19778499,-92.52997303,201,7
Cape May,New Jersey,39.15008829,-74.80170244,199,14
Pasco,Florida,28.30810945,-82.40227529,198,3
Cass,North Dakota,46.93201724,-97.2444719,197,2
Madison,Alabama,34.76327133,-86.55069633,197,4
St. Lucie,Florida,27.37763908,-80.47106649,196,13
Harford,Maryland,39.55010644,-76.3077594,195,5
Kershaw,South Carolina,34.33988254,-80.58763164,195,8
Knox,Tennessee,35.99508821,-83.94635435,194,4
Bibb,Georgia,32.80904227,-83.70489165,192,1
Ramsey,Minnesota,45.01625271,-93.09872295,192,9
Lauderdale,Mississippi,32.40419769,-88.66229662,190,14
Forsyth,Georgia,34.22604035,-84.1231513,188,7
St. Johns,Florida,29.90096506,-81.43589967,188,4
Washington,Louisiana,30.85288548,-90.03866652,188,11
Canyon,Idaho,43.61970148,-116.7095499,187,5
Marin,California,38.07122463,-122.7210631,187,10
Rock Island,Illinois,41.46613806,-90.57042164,187,4
St. Martin,Louisiana,30.13112107,-91.61403569,187,12
Broome,New York,42.15903158,-75.81326086,186,9
Columbia,Pennsylvania,41.04821986,-76.40565017,184,4
Jefferson,Missouri,38.25926778,-90.53870896,183,4
Orange,North Carolina,36.06092947,-79.12167935,183,3
Washington,Rhode Island,41.45961631,-71.61435303,183,0
Steuben,New York,42.2689144,-77.3829924,181,21
Sumter,South Carolina,33.91826534,-80.37942316,181,6
Sonoma,California,38.52746429,-122.8862506,180,2
Tallapoosa,Alabama,32.86698258,-85.79833053,179,11
Chatham,Georgia,32.00043026,-81.12489526,177,5
Franklin,Massachusetts,42.58119713,-72.58602547,177,25
Franklin,Washington,46.53351425,-118.9018212,177,4
Louisa,Iowa,41.21842119,-91.26102611,177,2
Olmsted,Minnesota,44.00374114,-92.40209944,177,2
Cumberland,Pennsylvania,40.1625372,-77.26130755,176,4
Guilford,North Carolina,36.07959451,-79.78824948,176,13
Horry,South Carolina,33.9212828,-78.99555293,176,12
Iberia,Louisiana,29.86803617,-91.75871777,176,8
Muscatine,Iowa,41.48370744,-91.1121697,176,3
York,Maine,43.47808377,-70.71052375,175,6
Winnebago,Illinois,42.33641854,-89.16085327,172,4
Jefferson,Texas,29.8832777,-94.16434171,171,9
Wilson,Tennessee,36.15496772,-86.29775884,171,1
Upson,Georgia,32.87920671,-84.30024826,170,8
Apache,Arizona,35.39465006,-109.4892383,169,4
Brazos,Texas,30.6636448,-96.30205577,169,16
Leon,Florida,30.45955727,-84.27491114,169,1
Madison,Illinois,38.83042506,-89.90422563,169,5
Solano,California,38.26827353,-121.9357113,169,2
Portage,Ohio,41.16793482,-81.19735782,168,24
Porter,Indiana,41.45986947,-87.06848888,168,3
Black Hawk,Iowa,42.4704581,-92.30524729,166,1
Decatur,Indiana,39.30712658,-85.50087166,166,17
Early,Georgia,31.32155345,-84.90255207,165,8
Island,Washington,48.14713305,-122.5216407,165,8
Butler,Ohio,39.44012838,-84.57388716,164,2
Houston,Georgia,32.45802497,-83.66879087,164,10
Racine,Wisconsin,42.74753117,-88.05941254,164,8
Rensselaer,New York,42.71348136,-73.51089874,164,6
Columbiana,Ohio,40.76932373,-80.78094576,161,13
Butler,Pennsylvania,40.91152759,-79.91351055,160,5
Clark,Indiana,38.48015445,-85.70510334,160,11
Scott,Iowa,41.63935978,-90.61959493,159,3
Coweta,Georgia,33.35334302,-84.76129976,156,3
Plaquemines,Louisiana,29.42245447,-89.60322085,156,11
York,South Carolina,34.97281497,-81.18085944,156,3
Imperial,California,33.0393082,-115.3669042,155,3
Chesapeake,Virginia,36.67670048,-76.30545744,154,4
Clackamas,Oregon,45.18787398,-122.2179634,154,5
Kalamazoo,Michigan,42.24542231,-85.53038622,154,9
Berrien,Michigan,41.95447397,-86.4131308,153,8
De Soto,Louisiana,32.05457447,-93.74130302,152,8
Anchorage,Alaska,61.14998174,-149.1426986,151,4
Boone,Indiana,40.0509304,-86.46841646,151,8
Elkhart,Indiana,41.59761169,-85.85875695,148,3
Martin,Florida,27.0772071,-80.43109784,148,4
Williamson,Texas,30.64655664,-97.6004854,146,4
Terrell,Georgia,31.77527543,-84.44069698,145,14
Harrison,Mississippi,30.51359752,-89.12467576,144,5
Livingston,Louisiana,30.44143993,-90.73061664,144,8
Sumter,Florida,28.70181754,-82.0794267,144,11
Assumption,Louisiana,29.89946234,-91.06461642,143,1
St. Mary,Louisiana,29.69262097,-91.44702164,143,11
Stafford,Virginia,38.41758738,-77.45917053,143,0
Gallatin,Montana,45.54486106,-111.1692571,142,0
Lapeer,Michigan,43.09052506,-83.22153148,141,18
Randolph,Georgia,31.76622818,-84.75732369,141,12
Tuscaloosa,Alabama,33.28726072,-87.52556818,141,0
Union,North Carolina,34.98960527,-80.52955873,141,3
Grant,Washington,47.20753737,-119.4500749,140,2
James City,Virginia,37.31156958,-76.76950618,139,2
Charlotte,Florida,26.90131002,-81.92949121,138,9
Marshall,Alabama,34.36975964,-86.30486727,138,4
Wicomico,Maryland,38.37301947,-75.62705831,138,1
Floyd,Indiana,38.32117957,-85.90385377,137,7
Forrest,Mississippi,31.18961454,-89.25832496,137,3
Calhoun,Michigan,42.24633834,-85.00493569,136,5
Carbon,Pennsylvania,40.91545395,-75.7068525,136,8
Muskegon,Michigan,43.29123859,-86.15176712,136,5
Fayette,Georgia,33.41357794,-84.49089434,135,5
Hancock,Indiana,39.82304555,-85.77566351,135,6
Kendall,Illinois,41.59081014,-88.42869583,135,3
Kitsap,Washington,47.63479026,-122.6436061,135,1
Morgan,Colorado,40.2627981,-103.8093302,135,2
LaPorte,Indiana,41.54366008,-86.74072188,134,5
Anderson,South Carolina,34.51828081,-82.63959517,133,5
Crittenden,Arkansas,35.21247318,-90.30839406,133,4
Santa Rosa,Florida,30.6934145,-87.02458128,133,6
St. Landry,Louisiana,30.59724262,-92.00135806,133,20
Medina,Ohio,41.11770589,-81.8998621,132,10
Paulding,Georgia,33.91969522,-84.86848792,132,5
Bartholomew,Indiana,39.20744865,-85.89558181,131,6
Cecil,Maryland,39.56647682,-75.94627411,131,3
Lake,Ohio,41.69710807,-81.23676539,131,6
Placer,California,39.06167234,-120.7240569,131,8
San Luis Obispo,California,35.38822029,-120.4039028,131,1
Rankin,Mississippi,32.26469147,-89.94537876,130,2
Miami,Ohio,40.0543329,-84.22871271,129,22
Florence,South Carolina,34.02361754,-79.70189312,128,8
Kenton,Kentucky,38.93950319,-84.53241199,128,10
Madison,Mississippi,32.63389156,-90.03513564,127,3
Okaloosa,Florida,30.69143028,-86.59267105,127,1
Bell,Texas,31.03736027,-97.4785025,126,3
Forsyth,North Carolina,36.12859861,-80.25459052,126,5
Spalding,Georgia,33.26310031,-84.28013991,126,7
Taylor,Texas,32.30163422,-99.89007449,126,2
Yolo,California,38.68278902,-121.9018288,126,8
Berkeley,South Carolina,33.20222596,-79.94654523,124,3
Washington,Oklahoma,36.71380786,-95.90514104,124,6
Leavenworth,Kansas,39.20183497,-95.03620809,123,2
Tama,Iowa,42.07991767,-92.53266945,123,6
Floyd,Georgia,34.26268279,-85.21577392,121,8
Hays,Texas,30.05669873,-98.02944344,121,1
Johnston,North Carolina,35.51745004,-78.36622717,121,9
Newton,Georgia,33.55514538,-83.8454714,121,3
Colquitt,Georgia,31.18810588,-83.7677946,119,5
Delaware,Ohio,40.27942393,-83.00457058,119,3
Monterey,California,36.21862405,-121.2413397,119,3
Pearl River,Mississippi,30.77090935,-89.58677275,119,10
Rockdale,Georgia,33.65145002,-84.02202167,119,6
St. Mary's,Maryland,38.30058422,-76.6062928,119,4
Tompkins,New York,42.44945765,-76.47229843,119,0
Worth,Georgia,31.55162306,-83.85090513,119,5
Marion,Florida,29.21227113,-82.05803627,118,3
Madison,New York,42.91653905,-75.67266639,117,5
Smith,Texas,32.37474036,-95.2717568,116,2
Washington,Maryland,39.60835778,-77.82002295,116,3
Thomas,Georgia,30.86392347,-83.91847289,115,13
Crisp,Georgia,31.92289565,-83.76811843,114,2
Hamilton,Tennessee,35.17670231,-85.16652245,114,11
Jefferson,Arkansas,34.26767081,-91.92619839,114,6
Cumberland,North Carolina,35.04762133,-78.82623165,113,6
Dakota,Minnesota,44.67172617,-93.06299363,113,5
Monroe,Indiana,39.16130004,-86.52414358,113,4
Washington,Iowa,41.33577126,-91.71725711,113,5
Gunnison,Colorado,38.66611652,-107.0320729,112,3
Warren,Ohio,39.42581994,-84.16557457,112,8
Weber,Utah,41.27116049,-111.9145117,112,1
Morgan,Indiana,39.47899078,-86.44573375,111,3
Acadia,Louisiana,30.2950649,-92.41419698,110,7
Gaston,North Carolina,35.29373559,-81.17477045,110,3
Lincoln,Arkansas,33.95317155,-91.74002806,110,0
Potter,Texas,35.40133773,-101.893964,110,2
Twin Falls,Idaho,42.35440512,-114.6685381,110,9
Baldwin,Alabama,30.72774991,-87.72207058,109,2
Calvert,Maryland,38.53961642,-76.56820632,109,2
Clarendon,South Carolina,33.66610974,-80.21647898,109,6
Daviess,Kentucky,37.73028906,-87.0901948,109,3
Granville,North Carolina,36.30337451,-78.65184241,109,5
Hopkins,Kentucky,37.30939025,-87.54670406,109,9
Norfolk,Virginia,36.89934014,-76.26420872,109,2
Wasatch,Utah,40.33110236,-111.1691419,109,1
Wilson,North Carolina,35.70625477,-77.917978,109,4
Baldwin,Georgia,33.06882326,-83.24701748,108,2
Henderson,North Carolina,35.33788927,-82.4766782,108,11
Montgomery,Tennessee,36.49609412,-87.38550661,108,2
Ford,Kansas,37.69200114,-99.88825298,107,0
Wagoner,Oklahoma,35.96024096,-95.51911308,107,7
Berkeley,West Virginia,39.46704621,-78.02414609,106,1
Clarke,Georgia,33.95436462,-83.37124007,106,13
Franklin,Pennsylvania,39.92956518,-77.72157791,106,0
Garland,Arkansas,34.57692074,-93.14921604,106,0
Kanawha,West Virginia,38.33860077,-81.52857054,106,0
Scott,Mississippi,32.4067041,-89.53789439,106,0
Columbia,New York,42.24819348,-73.63089095,105,10
Robertson,Tennessee,36.52454807,-86.87346725,105,0
Salem,New Jersey,39.58719656,-75.3469663,105,4
Maui,Hawaii,20.86399628,-156.5689097,104,3
Clinton,Michigan,42.94400871,-84.60145248,103,6
Newport,Rhode Island,41.5642026,-71.26569799,103,0
Lincoln,Mississippi,31.53288662,-90.45391915,102,6
Newport News,Virginia,37.08166899,-76.51754109,102,1
Chatham,North Carolina,35.70394416,-79.25541492,101,1
Santa Cruz,California,37.05580291,-122.0066524,101,2
Rockingham,Virginia,38.51006137,-78.87260325,100,0
Grand Forks,North Dakota,47.92093639,-97.45450447,99,0
Moore,Texas,35.83769242,-101.8930281,99,0
Shelby,Indiana,39.52305623,-85.7915857,99,4
Broomfield,Colorado,39.95998787,-105.0566324,98,2
Geauga,Ohio,41.49952319,-81.17935342,98,4
Ottawa,Michigan,42.95996803,-85.9969107,98,5
St. Lawrence,New York,44.4976179,-75.06550039,98,0
Columbia,Georgia,33.54534185,-82.263524,97,1
Fairfield,Ohio,39.75107189,-82.63088163,97,2
Pike,Mississippi,31.17507789,-90.40392572,97,2
Randall,Texas,34.96585996,-101.8971322,97,3
Windham,Connecticut,41.82972709,-71.98182316,97,2
Kennebec,Maine,44.40759555,-69.76738544,96,4
Franklin,Missouri,38.41127108,-91.07522826,95,7
Davidson,North Carolina,35.79115496,-80.21256572,94,2
Licking,Ohio,40.09136236,-82.48185785,94,4
Putnam,Tennessee,36.14005459,-85.50646123,94,2
Warren,New York,43.56173026,-73.8433699,94,0
Boone,Missouri,38.99186229,-92.30723575,93,1
Champaign,Illinois,40.13919438,-88.20046615,93,4
Etowah,Alabama,34.04567266,-86.04051873,93,7
Moore,North Carolina,35.30885257,-79.48474178,93,4
Summit,Colorado,39.63803232,-106.1150762,93,1
Delaware,Indiana,40.22787247,-85.39732772,92,5
Merrimack,New Hampshire,43.29662971,-71.6811573,92,0
Strafford,New Hampshire,43.291833,-71.02336013,92,0
Washington,Minnesota,45.03864533,-92.88429635,92,3
Shiawassee,Michigan,42.953928,-84.14585902,91,2
East Feliciana,Louisiana,30.84425359,-91.04976723,90,7
Franklin,Vermont,44.85627605,-72.91249563,90,3
Shawnee,Kansas,39.04100763,-95.7557264,90,5
Suwannee,Florida,30.19746066,-82.9909967,90,6
Franklin,Indiana,39.4142482,-85.06062647,89,7
Hillsdale,Michigan,41.88753639,-84.59312019,89,11
Nueces,Texas,27.736286,-97.5433285,89,0
Pitt,North Carolina,35.59535426,-77.37353178,89,1
Thurston,Washington,46.9291895,-122.8290656,89,1
Victoria,Texas,28.79780988,-96.96813006,89,1
Walworth,Wisconsin,42.66858202,-88.54163073,89,4
Eaton,Michigan,42.59599185,-84.83740035,88,5
Greene,Missouri,37.2575872,-93.34230916,88,8
Nacogdoches,Texas,31.62017125,-94.61803994,88,6
Barrow,Georgia,33.99148694,-83.71436292,87,3
Genesee,New York,43.0022601,-78.19135193,87,2
Lowndes,Georgia,30.83568832,-83.27056716,87,3
Warren,Kentucky,36.99903045,-86.42672751,87,0
Lincoln,South Dakota,43.27841182,-96.7203905,86,0
Merced,California,37.18922369,-120.7209035,86,3
West Baton Rouge,Louisiana,30.46058217,-91.30989571,86,10
Adams,Nebraska,40.5244942,-98.50117804,85,0
Anoka,Minnesota,45.27476015,-93.24604565,85,2
Harrison,Indiana,38.19467379,-86.10948271,85,2
Yazoo,Mississippi,32.77890365,-90.39656148,85,1
Dorchester,South Carolina,33.0794369,-80.40502652,84,1
Hernando,Florida,28.55364461,-82.42700204,84,3
Jackson,Indiana,38.9091582,-86.03851889,84,0
Monongalia,West Virginia,39.63218457,-80.04766838,84,2
Wayne,Pennsylvania,41.64938475,-75.29956506,84,2
Ellis,Texas,32.34894117,-96.79371841,83,3
Indian River,Florida,27.69308961,-80.60556721,83,2
Isle of Wight,Virginia,36.90579348,-76.70842863,83,0
Madison,Tennessee,35.61181957,-88.84076036,83,0
Marshall,Iowa,42.03586837,-92.9990819,83,0
McLean,Illinois,40.48996987,-88.84621113,83,3
Walker,Alabama,33.80270512,-87.30027177,83,0
Citrus,Florida,28.84804315,-82.47614748,82,8
Greene,New York,42.275797,-74.12384884,82,0
Manassas,Virginia,38.7464321,-77.48509905,82,0
Santa Fe,New Mexico,35.50708973,-105.9774716,82,0
Tift,Georgia,31.45743864,-83.5236119,82,3
Troup,Georgia,33.03349196,-85.02812115,82,4
Washington,Wisconsin,43.36863664,-88.22974712,82,3
Frederick,Virginia,39.20172582,-78.25974949,81,0
Iredell,North Carolina,35.80950511,-80.8743128,81,3
Suffolk,Virginia,36.70155394,-76.63603554,81,0
Ripley,Indiana,39.10235626,-85.26212744,80,3
Vanderburgh,Indiana,38.02658833,-87.58763124,80,1
Ware,Georgia,31.05449097,-82.42224148,80,5
Wood,Ohio,41.36224827,-83.62285108,80,9
Allen,Louisiana,30.65385745,-92.82442028,79,9
Bay,Michigan,43.70639106,-83.98731479,79,2
Bolivar,Mississippi,33.79696941,-90.87372121,79,5
Christian,Kentucky,36.89267803,-87.49055367,79,3
Fairbanks North Star,Alaska,64.80726247,-146.5692662,79,1
Hampton,Virginia,37.03513786,-76.35879121,79,1
Hanover,Virginia,37.7583355,-77.49464673,79,0
Ozaukee,Wisconsin,43.38352225,-87.94625009,79,9
Washington,Pennsylvania,40.19208869,-80.24582867,79,2
Franklin,Louisiana,32.13675181,-91.67589857,78,2
Pueblo,Colorado,38.17359144,-104.5127437,78,6
Chenango,New York,42.49430041,-75.60887553,77,0
Lawrence,Indiana,38.84112637,-86.48361629,77,9
Washington,Utah,37.28003525,-113.504698,77,1
Wayne,Ohio,40.82925852,-81.88844833,77,12
McLennan,Texas,31.55255453,-97.20217694,76,4
Webster,Louisiana,32.70847669,-93.33121835,76,4
Coffee,Georgia,31.54892966,-82.8549206,75,3
Coryell,Texas,31.39078397,-97.79936155,75,1
Hardin,Texas,30.33364686,-94.38931817,75,2
Leflore,Mississippi,33.55545125,-90.29900733,75,6
Union,Louisiana,32.83121059,-92.3749373,75,5
Wayne,West Virginia,38.14901357,-82.42287994,75,0
Adams,Pennsylvania,39.87140411,-77.21610347,74,1
Boone,Kentucky,38.97065142,-84.72615357,74,2
Delaware,Oklahoma,36.40823634,-94.80325046,74,2
Out of MI,Michigan,,,74,2
West Feliciana,Louisiana,30.87882871,-91.4148538,74,0
Adams,Mississippi,31.47669768,-91.35326037,73,6
Centre,Pennsylvania,40.92058903,-77.82200624,73,1
Lancaster,South Carolina,34.68270843,-80.70513032,73,2
Monroe,Florida,25.20904673,-81.07812416,73,3
Chemung,New York,42.13891056,-76.7638805,72,1
Habersham,Georgia,34.63331566,-83.53094677,72,2
Spotsylvania,Virginia,38.18574462,-77.655399,72,0
Yavapai,Arizona,34.59933926,-112.5538588,72,1
Clermont,Ohio,39.04847534,-84.15375786,71,1
Allen,Ohio,40.77285242,-84.10802343,70,11
Cleburne,Arkansas,35.53864922,-92.02640019,70,4
Laramie,Wyoming,41.3070252,-104.6887497,70,0
Montrose,Colorado,38.40214114,-108.2639022,70,7
Northampton,North Carolina,36.41736238,-77.39769443,70,1
Washington,Mississippi,33.28392041,-90.94196237,70,3
Yellowstone,Montana,45.93955949,-108.2691486,70,1
Dooly,Georgia,32.15630737,-83.79746561,69,4
Franklin,North Carolina,36.081519,-78.28708884,69,7
Ontario,New York,42.85145728,-77.30874425,69,0
Randolph,North Carolina,35.71015088,-79.80570339,69,2
Avoyelles,Louisiana,31.07796211,-92.00079449,68,3
Belmont,Ohio,40.01625942,-80.9924051,68,3
Howard,Indiana,40.48527731,-86.11351892,68,4
New Hanover,North Carolina,34.25758282,-77.87075626,68,1
Rock,Wisconsin,42.67151616,-89.071479,68,4
Walker,Texas,30.73872995,-95.57440968,68,0
Aiken,South Carolina,33.54338026,-81.63645384,67,4
Chelan,Washington,47.87046092,-120.6173956,67,6
Dona Ana,New Mexico,32.35275771,-106.8329387,67,1
Northumberland,Pennsylvania,40.84785433,-76.70798222,67,0
Burke,North Carolina,35.74989637,-81.70755735,66,5
Calhoun,Alabama,33.77483727,-85.82630386,66,2
Fayette,Pennsylvania,39.92041012,-79.64291195,66,3
Flagler,Florida,29.45933576,-81.31508595,66,2
Fluvanna,Virginia,37.84157909,-78.27715475,66,0
Highlands,Florida,27.34254618,-81.34071957,66,6
Juniata,Pennsylvania,40.53358749,-77.3997513,66,0
Bienville,Louisiana,32.34569994,-93.05398492,65,9
Canadian,Oklahoma,35.5426055,-97.98465569,65,3
Dearborn,Indiana,39.14647946,-84.97333539,65,5
Garfield,Colorado,39.59921777,-107.902708,65,2
Portsmouth,Virginia,36.85914825,-76.35971629,65,4
Rutherford,North Carolina,35.40114178,-81.92112099,65,2
Ashtabula,Ohio,41.70860332,-80.74830218,64,4
Leake,Mississippi,32.7536828,-89.52402044,64,1
Mecklenburg,Virginia,36.67882005,-78.36131056,64,0
Pointe Coupee,Louisiana,30.71409502,-91.60209535,64,5
St. Francis,Arkansas,35.02201976,-90.74828138,64,0
Deschutes,Oregon,43.91570171,-121.2289121,63,0
Houston,Alabama,31.15197924,-85.29939599,63,2
Jennings,Indiana,38.99588883,-85.62710784,63,1
Jones,Mississippi,31.62257767,-89.168969,63,0
Lancaster,Nebraska,40.78416049,-96.68777155,63,1
Windham,Vermont,42.986982,-72.71268875,63,2
Benton,Arkansas,36.33644656,-94.25680817,62,0
Butler,Kentucky,37.20946153,-86.68748787,62,2
Fond du Lac,Wisconsin,43.75354908,-88.48885325,62,3
Lenawee,Michigan,41.89475156,-84.06603727,62,0
Monroe,Mississippi,33.89236763,-88.4808438,62,4
Teton,Wyoming,43.93522482,-110.5890801,62,0
Addison,Vermont,44.03217337,-73.14130877,61,2
Burleigh,North Dakota,46.97847375,-100.4645214,61,0
Hawaii,Hawaii,19.60121157,-155.5210167,61,0
Osage,Oklahoma,36.62888819,-96.39635704,61,8
Sangamon,Illinois,39.75836914,-89.65872023,61,3
Faulkner,Arkansas,35.14719007,-92.33717519,60,2
Jefferson,West Virginia,39.30776166,-77.86014147,60,0
Lawrence,Pennsylvania,40.99206278,-80.33393706,60,5
Marion,Alabama,34.13697363,-87.88704173,60,5
Richland,Ohio,40.77180308,-82.5379961,60,1
Saline,Missouri,39.13734288,-93.20259964,60,0
Shelby,Texas,31.79211404,-94.14550696,60,0
Darlington,South Carolina,34.33358335,-79.96027485,59,0
Lamar,Mississippi,31.20572971,-89.5077704,59,1
Linn,Oregon,44.48899494,-122.5373154,59,6
Susquehanna,Pennsylvania,41.82147784,-75.80071959,59,1
Tuscola,Michigan,43.46606813,-83.41897025,59,11
Creek,Oklahoma,35.90230551,-96.37086028,58,3
Ector,Texas,31.86898877,-102.5429428,58,4
Elmore,Alabama,32.59785413,-86.14415284,58,1
Erie,Pennsylvania,41.99253829,-80.03301954,58,0
Holmes,Mississippi,33.12345854,-90.08923538,58,4
Muhlenberg,Kentucky,37.21425819,-87.14632053,58,2
Walton,Georgia,33.78017694,-83.73552314,58,3
Wichita,Texas,33.98842886,-98.7041034,58,1
Bristol,Rhode Island,41.71018079,-71.28652315,57,0
Calhoun,Georgia,31.53169785,-84.62725131,57,2
Comanche,Oklahoma,34.65973764,-98.47195055,57,0
Gordon,Georgia,34.50487351,-84.87296253,57,5
Lyon,Kansas,38.45576156,-96.15275715,57,0
Mercer,Pennsylvania,41.30248872,-80.25816981,57,1
Washington,Ohio,39.45690571,-81.49121382,57,6
Winona,Minnesota,43.98772283,-91.78081305,57,8
Albemarle,Virginia,38.02080697,-78.55481085,56,0
Bowie,Texas,33.44626922,-94.41834132,56,1
Clay,Missouri,39.31132056,-94.41850862,56,1
Cumberland,Tennessee,35.95271721,-84.99840585,56,0
Campbell,Kentucky,38.94384345,-84.37875208,55,6
Coffee,Alabama,31.39932826,-85.98901039,55,0
Columbus,North Carolina,34.26744084,-78.65801424,55,2
Darke,Ohio,40.13412966,-84.6194517,55,10
Decatur,Georgia,30.87967778,-84.57619536,55,0
Goochland,Virginia,37.71714806,-77.90381514,55,0
Grant,Indiana,40.51587228,-85.65468702,55,2
Harnett,North Carolina,35.36731853,-78.87243571,55,3
Macon,Illinois,39.86064913,-88.96342505,55,7
Neshoba,Mississippi,32.75339664,-89.11726492,55,1
Putnam,Florida,29.60779729,-81.74230285,55,1
Tippecanoe,Indiana,40.38872739,-86.89413959,55,2
Tipton,Tennessee,35.501942,-89.73694895,55,0
Warrick,Indiana,38.08922676,-87.2716085,55,4
Wilkinson,Mississippi,31.16078225,-91.31018819,55,4
DeKalb,Illinois,41.89373302,-88.76958483,54,1
Lee,Mississippi,34.2918775,-88.68149954,54,4
Otsego,Michigan,45.02085831,-84.59898295,54,5
Randolph,Illinois,38.05095369,-89.82512254,54,1
Cass,Missouri,38.64789422,-94.353399,53,6
Guadalupe,Texas,29.58165339,-97.94786822,53,0
Jefferson Davis,Louisiana,30.26896765,-92.81210004,53,5
Nash,North Carolina,35.96575634,-77.98422508,53,1
Natchitoches,Louisiana,31.72321584,-93.09816516,53,1
Orange,Texas,30.11879481,-93.89412775,53,0
St. Clair,Alabama,33.71902176,-86.31029372,53,0
Box Elder,Utah,41.52106798,-113.0832816,52,0
Cass,Indiana,40.76135835,-86.34830753,52,1
Humboldt,California,40.69923009,-123.876044,52,0
Mohave,Arizona,35.70471703,-113.7577902,52,1
Monroe,Illinois,38.27594376,-90.17761038,52,7
Washington,New York,43.31153794,-73.43043448,52,2
Gregg,Texas,32.47940482,-94.81591935,51,0
Isabella,Michigan,43.64060976,-84.84664923,51,7
La Plata,Colorado,37.28632032,-107.8429014,51,0
Matagorda,Texas,28.81955746,-96.01230294,51,3
Pierce,Georgia,31.35928155,-82.21598442,51,2
Pitkin,Colorado,39.21720112,-106.9310027,51,2
Randolph,Alabama,33.29526734,-85.45708831,51,4
Turner,Georgia,31.71612656,-83.62069378,51,2
Vigo,Indiana,39.42944561,-87.39169027,51,4
Claiborne,Louisiana,32.82308512,-92.99526883,50,4
Greer,Oklahoma,34.93535801,-99.5605612,50,4
Hancock,Mississippi,30.41830223,-89.48851033,50,5
Jefferson,New York,44.04200959,-75.94653457,50,0
Kootenai,Idaho,47.67282258,-116.7020872,50,0
Putnam,Indiana,39.66437981,-86.84517605,50,4
Washington,Texas,30.21498498,-96.40946246,50,4
Delaware,New York,42.19837623,-74.96709306,49,4
Edgecombe,North Carolina,35.91230639,-77.59436892,49,1
Jackson,Oregon,42.43201126,-122.7289309,49,0
Lincoln,Louisiana,32.6003154,-92.6659741,49,2
Montour,Pennsylvania,41.03023987,-76.66345939,49,0
Scott,Missouri,37.05588075,-89.56474493,49,1
Wayne,New York,43.15494365,-77.02976528,49,0
Alamance,North Carolina,36.0434701,-79.39976137,48,0
Bay,Florida,30.26548745,-85.62122584,48,2
Bedford,Tennessee,35.51123746,-86.45549096,48,2
Caddo,Oklahoma,35.17364557,-98.37534464,48,2
Clay,Minnesota,46.89289518,-96.48761922,48,2
Clinton,New York,44.74530905,-73.67875352,48,3
Gadsden,Florida,30.57796289,-84.61915825,48,0
Glynn,Georgia,31.23279254,-81.53811412,48,0
Johnson,Missouri,38.74719601,-93.80691168,48,0
Oconee,Georgia,33.83749973,-83.43679568,48,0
Ogle,Illinois,42.04165196,-89.32184679,48,1
Sarpy,Nebraska,41.11314181,-96.11156432,48,0
Adair,Kentucky,37.10459774,-85.28129668,47,3
Buffalo,Nebraska,40.85486962,-99.07500296,47,1
Buncombe,North Carolina,35.61113393,-82.53305,47,3
Fremont,Wyoming,43.04183996,-108.6296893,47,0
Herkimer,New York,43.42034246,-74.96145307,47,3
Indiana,Pennsylvania,40.65241041,-79.08963285,47,4
Jackson,Georgia,34.13794553,-83.56814788,47,1
Macon,Georgia,32.35207048,-84.04234127,47,0
Napa,California,38.50735751,-122.332839,47,2
Otsego,New York,42.63492579,-75.03151402,47,4
Blount,Tennessee,35.68938198,-83.92847788,46,3
Coahoma,Mississippi,34.22772299,-90.60415045,46,1
Coffey,Kansas,38.2365018,-95.73379515,46,6
Kay,Oklahoma,36.81799745,-97.14421435,46,4
Lane,Oregon,43.93727035,-122.847753,46,1
Routt,Colorado,40.48596505,-106.9905548,46,1
St. Louis,Minnesota,47.6048407,-92.46879855,46,8
Sunflower,Mississippi,33.60192578,-90.58882684,46,2
Tippah,Mississippi,34.76872156,-88.90988194,46,7
Washington,Tennessee,36.29472368,-82.4945472,46,0
Dallas,Iowa,41.68560356,-94.04127625,45,0
Federal Correctional Institution (FCI),Michigan,,,45,0
Grafton,New Hampshire,43.93779815,-71.82057197,45,0
Morgan,Alabama,34.45500589,-86.85475946,45,0
Oswego,New York,43.42778894,-76.14635194,45,2
Sullivan,Tennessee,36.51240691,-82.30412917,45,1
Washington,Arkansas,35.976844,-94.21800746,45,0
Wilcox,Alabama,31.98773215,-87.30891118,45,0
Clinton,Illinois,38.60704876,-89.42385254,44,0
Cole,Missouri,38.50455671,-92.27860244,44,1
Fayette,Tennessee,35.19615831,-89.41399032,44,1
Jerome,Idaho,42.68891267,-114.2655033,44,2
San Benito,California,36.60308176,-121.069975,44,2
Talladega,Alabama,33.37823223,-86.16886178,44,1
Wyoming,New York,42.70145109,-78.22199579,44,3
Catawba,North Carolina,35.66211129,-81.2132617,43,1
Comal,Texas,29.80811278,-98.27647225,43,6
Douglas,Kansas,38.88503636,-95.2925121,43,0
Dubuque,Iowa,42.46815349,-90.88181925,43,1
Evangeline,Louisiana,30.72985248,-92.39915924,43,0
Jackson,Kentucky,37.41866422,-83.99825483,43,2
Jackson,West Virginia,38.84263974,-81.68148753,43,1
Midland,Michigan,43.64330771,-84.38804374,43,2
Oktibbeha,Mississippi,33.42491685,-88.87905132,43,2
Whitfield,Georgia,34.80987459,-84.96093476,43,3
Bastrop,Texas,30.10370699,-97.31206354,42,1
Bradford,Florida,29.95079741,-82.16611613,42,2
Cleveland,North Carolina,35.33553364,-81.55204486,42,2
Craighead,Arkansas,35.83018283,-90.63235729,42,1
Cullman,Alabama,34.13020303,-86.86888037,42,1
Dawson,Georgia,34.44244079,-84.16964071,42,1
Dickson,Tennessee,36.14669837,-87.35891709,42,0
Greene,Georgia,33.5769205,-83.17139104,42,1
Greene,Indiana,39.03630547,-86.96223202,42,3
Harrison,Texas,32.54935988,-94.36934071,42,4
Jackson,Illinois,37.78595185,-89.38232563,42,4
Kaufman,Texas,32.5991417,-96.28734728,42,0
Marion,West Virginia,39.50984542,-80.24244659,42,1
Midland,Texas,31.86904128,-102.0315682,42,3
Montgomery,Virginia,37.17746986,-80.37868691,42,0
Nassau,Florida,30.61037141,-81.80297522,42,0
Rutland,Vermont,43.57723578,-73.03741676,42,1
Waldo,Maine,44.4858305,-69.12061935,42,7
Burke,Georgia,33.05917989,-81.99928721,41,2
Butts,Georgia,33.2830945,-83.9543504,41,0
Charlottesville,Virginia,38.03527919,-78.48569588,41,1
Copiah,Mississippi,31.86977774,-90.44565118,41,1
Graves,Kentucky,36.72292505,-88.65143315,41,2
Laurens,Georgia,32.46325233,-82.92221316,41,1
Orangeburg,South Carolina,33.4391073,-80.79886287,41,0
Orleans,New York,43.2516977,-78.2320066,41,1
Penobscot,Maine,45.40194593,-68.65020455,41,0
Perry,Missouri,37.70660776,-89.82741088,41,0
Russell,Alabama,32.28725256,-85.18415324,41,0
Saline,Arkansas,34.64916145,-92.67583224,41,1
Tazewell,Illinois,40.50716185,-89.51404662,41,3
Tom Green,Texas,31.40464436,-100.462443,41,1
Adams,Washington,46.98299757,-118.5601734,40,0
Chickasaw,Mississippi,33.91983202,-88.9481545,40,2
Clinton,Iowa,41.89981633,-90.53275096,40,0
DeKalb,Alabama,34.45946862,-85.80782906,40,2
Lafayette,Mississippi,34.35687874,-89.48490961,40,3
Lee,South Carolina,34.16393091,-80.25690731,40,5
Limestone,Alabama,34.81185586,-86.98310072,40,0
Meriwether,Georgia,33.04163534,-84.68859732,40,0
Wilcox,Georgia,31.97496928,-83.43438555,40,0
Chilton,Alabama,32.85044126,-86.7173256,39,0
Culpeper,Virginia,38.48199985,-77.9563087,39,0
Greene,Ohio,39.69116283,-83.89032084,39,2
Hendry,Florida,26.55386945,-81.16469006,39,0
Johnson,Texas,32.37877812,-97.36615819,39,1
Marion,Mississippi,31.23132643,-89.8209217,39,0
Marshall,Mississippi,34.76216286,-89.50299462,39,2
Martin,Minnesota,43.67429718,-94.55099908,39,4
Rockwall,Texas,32.89779518,-96.40771592,39,0
Sheboygan,Wisconsin,43.72099677,-87.94579284,39,2
Shenandoah,Virginia,38.85905135,-78.56813762,39,0
Smith,Mississippi,32.01744532,-89.50644846,39,1
Tooele,Utah,40.44862644,-113.1295715,39,0
Bradley,Tennessee,35.15739424,-84.857186,38,1
Jackson,Alabama,34.78144169,-85.99750489,38,2
Lynchburg,Virginia,37.40021399,-79.19888138,38,0
Natrona,Wyoming,42.96180148,-106.797885,38,0
Panola,Texas,32.1639596,-94.30552481,38,3
Pickens,South Carolina,34.88807695,-82.72791551,38,0
Stark,North Dakota,46.80851182,-102.6576326,38,2
Winnebago,Wisconsin,44.06886922,-88.64477096,38,1
York,Virginia,37.24374789,-76.54412815,38,1
Bennington,Vermont,43.03519828,-73.09048868,37,1
Flathead,Montana,48.29575866,-114.0520569,37,1
Harris,Georgia,32.73709786,-84.90538572,37,2
Livingston,New York,42.72596275,-77.77966158,37,3
McDuffie,Georgia,33.47851918,-82.48252774,37,2
Onslow,North Carolina,34.72607366,-77.42908179,37,1
Peoria,Illinois,40.78702156,-89.76078901,37,2
Armstrong,Pennsylvania,40.81665618,-79.46290811,36,2
Brunswick,North Carolina,34.070565,-78.22814204,36,2
Calhoun,Mississippi,33.93683395,-89.33686647,36,2
Cape Girardeau,Missouri,37.38489388,-89.6843587,36,1
Cayuga,New York,42.91261714,-76.55731592,36,1
Columbia,Florida,30.22509788,-82.62160164,36,0
Crawford,Ohio,40.85065156,-82.91989099,36,0
El Dorado,California,38.77965956,-120.5233166,36,0
Fauquier,Virginia,38.73564842,-77.80647472,36,0
Lycoming,Pennsylvania,41.34310539,-77.06629984,36,0
Moniteau,Missouri,38.63571781,-92.57976951,36,0
Nevada,California,39.30394768,-120.7627281,36,1
Nobles,Minnesota,43.67434621,-95.75329576,36,0
Whiteside,Illinois,41.75509713,-89.91556058,36,3
Androscoggin,Maine,44.1664747,-70.20380627,35,1
Beauregard,Louisiana,30.64836518,-93.34173616,35,2
Branch,Michigan,41.91600556,-85.05929476,35,2
Chaffee,Colorado,38.74745778,-106.1926573,35,4
Chambers,Texas,29.70972016,-94.67154501,35,0
Chesterfield,South Carolina,34.64137396,-80.1564014,35,0
Lincoln,Missouri,39.05345619,-90.95588181,35,1
Missoula,Montana,47.03728583,-113.9213508,35,1
Morehouse,Louisiana,32.81686191,-91.80421614,35,2
Pope,Arkansas,35.44871474,-93.03212219,35,0
Pulaski,Kentucky,37.10466131,-84.57629079,35,2
Seward,Kansas,37.19324632,-100.8507201,35,0
Sumter,Alabama,32.59117397,-88.19916205,35,0
Woodbury,Iowa,42.38979414,-96.0459439,35,0
Allamakee,Iowa,43.28383218,-91.37860922,34,3
Attala,Mississippi,33.08658803,-89.57838564,34,0
Carlton,Minnesota,46.59180601,-92.67601019,34,0
Cattaraugus,New York,42.24778241,-78.67923096,34,0
Douglas,Washington,47.7361335,-119.692937,34,1
Georgetown,South Carolina,33.43443342,-79.33202141,34,2
Greenwood,South Carolina,34.15272415,-82.12715789,34,0
Maury,Tennessee,35.6187413,-87.07462444,34,0
Mesa,Colorado,39.01787888,-108.469799,34,0
Montgomery,New York,42.90123494,-74.44011632,34,1
Noble,Indiana,41.39672484,-85.41966713,34,2
Payne,Oklahoma,36.07695283,-96.97584944,34,0
Pike,Alabama,31.80396383,-85.9408295,34,0
Wharton,Texas,29.27765923,-96.22319248,34,0
Windsor,Vermont,43.58010937,-72.58595157,34,2
Yamhill,Oregon,45.23330449,-123.3086963,34,6
Accomack,Virginia,37.76707161,-75.63234615,33,0
Allegan,Michigan,42.59147037,-85.89102866,33,0
Allegany,Maryland,39.62357628,-78.69280486,33,1
Caroline,Maryland,38.87172293,-75.82904158,33,0
Cibola,New Mexico,34.91131525,-107.998876,33,2
Craven,North Carolina,35.11833364,-77.08398081,33,2
Jasper,Iowa,41.68576082,-93.05567785,33,0
Jessamine,Kentucky,37.87119786,-84.58252003,33,0
Johnson,Georgia,32.70211082,-82.66166794,33,1
Louisa,Virginia,37.97850256,-77.96274807,33,0
Madera,California,37.21513971,-119.7665589,33,2
Outagamie,Wisconsin,44.41578887,-88.46565023,33,2
Ross,Ohio,39.33705391,-83.06000914,33,0
Camden,Missouri,38.02199522,-92.76083747,32,1
Halifax,North Carolina,36.25669272,-77.6556109,32,1
Liberty,Georgia,31.82588896,-81.49251135,32,0
Lowndes,Mississippi,33.47386518,-88.4419153,32,1
Oglethorpe,Georgia,33.8786296,-83.08278123,32,2
Peach,Georgia,32.56934316,-83.82937,32,2
Pickens,Alabama,33.28094866,-88.08818103,32,0
Polk,Oregon,44.90322804,-123.4128888,32,1
Pottawatomie,Oklahoma,35.20614018,-96.94923008,32,3
Sanilac,Michigan,43.42406072,-82.82055898,32,3
Sauk,Wisconsin,43.42574087,-89.94966132,32,3
Tioga,New York,42.16852837,-76.30835812,32,0
Walton,Florida,30.64204028,-86.16935664,32,0
Adams,Illinois,39.98815591,-91.18786813,31,0
Bryan,Georgia,32.00979311,-81.44002948,31,2
Bullitt,Kentucky,37.97162523,-85.68955617,31,2
Finney,Kansas,38.04340344,-100.7381938,31,1
Freeborn,Minnesota,43.67385583,-93.34884422,31,0
Klamath,Oregon,42.68762984,-121.6496461,31,0
Macon,Tennessee,36.53157855,-86.00778595,31,3
Newton,Indiana,40.95610449,-87.39635768,31,4
Tuscarawas,Ohio,40.44214695,-81.47226262,31,0
Van Buren,Michigan,42.25190229,-86.01939087,31,2
Washington,Vermont,44.27343241,-72.61604978,31,1
Worcester,Maryland,38.21274277,-75.33200012,31,0
Allegany,New York,42.25748406,-78.02750466,30,1
Buchanan,Missouri,39.65816401,-94.80138942,30,1
Carroll,New Hampshire,43.87498583,-71.20430216,30,0
Dawson,Nebraska,40.87028216,-99.8201461,30,0
Greene,Tennessee,36.17470125,-82.84691273,30,2
Hancock,Ohio,41.00250487,-83.66838948,30,1
Henry,Illinois,41.3533994,-90.13296166,30,0
Lee,North Carolina,35.47623147,-79.17569362,30,0
Lonoke,Arkansas,34.75392199,-91.88742357,30,0
Madison,Ohio,39.89381073,-83.40178317,30,3
Nez Perce,Idaho,46.32638236,-116.7500975,30,11
Panola,Mississippi,34.36398677,-89.95064249,30,2
Pike,Georgia,33.09310242,-84.38790389,30,1
Rogers,Oklahoma,36.37004357,-95.60406759,30,2
Stephens,Georgia,34.55151201,-83.29405315,30,1
Tunica,Mississippi,34.64967704,-90.37481167,30,1
Vance,North Carolina,36.36880673,-78.40670845,30,1
Vermilion,Louisiana,29.83517605,-92.30292538,30,1
Adair,Oklahoma,35.88494195,-94.65859267,29,3
Boone,Illinois,42.32359279,-88.82345779,29,2
Boyd,Kentucky,38.36176608,-82.68652187,29,2
Cabell,West Virginia,38.42424062,-82.23855912,29,0
Cowlitz,Washington,46.19074721,-122.6782231,29,0
Daviess,Indiana,38.70186039,-87.07185406,29,2
Greene,Alabama,32.85504247,-87.95684022,29,0
Hardin,Kentucky,37.6976111,-85.96319251,29,0
Henry,Indiana,39.93029017,-85.39625719,29,1
Lafayette,Missouri,39.06986886,-93.78076396,29,1
Liberty,Texas,30.15152688,-94.81205615,29,0
Marquette,Michigan,46.4338914,-87.64043701,29,6
McCracken,Kentucky,37.05350953,-88.70445755,29,2
Miller,Arkansas,33.31403423,-93.89285258,29,0
Mountrail,North Dakota,48.20197971,-102.3555315,29,0
Polk,Georgia,34.00267074,-85.18677781,29,0
Pulaski,Missouri,37.82462075,-92.20783203,29,1
Tate,Mississippi,34.65133709,-89.94485778,29,0
Toole,Montana,48.65577551,-111.6942414,29,4
White,Arkansas,35.25688493,-91.74908296,29,0
Winston,Mississippi,33.08747908,-89.03391385,29,0
Wood,West Virginia,39.20967886,-81.5162836,29,0
Yuma,Arizona,32.76895712,-113.9066674,29,1
Carson City,Nevada,39.15509045,-119.7480219,28,0
Cheshire,New Hampshire,42.92015988,-72.25311043,28,0
Covington,Mississippi,31.63225413,-89.55389939,28,0
Harrison,West Virginia,39.2853852,-80.37919577,28,1
Henderson,Kentucky,37.79344553,-87.57392021,28,0
Jasper,Missouri,37.20351921,-94.34050458,28,0
Jefferson,Washington,47.75003077,-123.5609704,28,0
Marion,Tennessee,35.12997174,-85.62265895,28,1
Pawnee,Oklahoma,36.31743373,-96.7033176,28,2
Prince George,Virginia,37.18497668,-77.22922187,28,0
Rusk,Texas,32.10773545,-94.76176432,28,1
Shelby,Ohio,40.33163494,-84.20258189,28,0
Washington,Indiana,38.60219804,-86.1049363,28,0
Benton,Oregon,44.49167306,-123.4316987,27,4
Camden,Georgia,30.92951916,-81.66601818,27,0
Clark,Arkansas,34.04613432,-93.17484713,27,0
Columbia,Wisconsin,43.46492199,-89.33589004,27,1
Erie,Ohio,41.36796058,-82.62904521,27,1
Fulton,New York,43.11363907,-74.41798804,27,0
Gage,Nebraska,40.26186809,-96.68946704,27,1
Gibson,Tennessee,35.99438059,-88.93358327,27,0
Grady,Georgia,30.87454847,-84.23418364,27,1
Hawkins,Tennessee,36.44355426,-82.94885298,27,2
Henry,Iowa,40.98767962,-91.54436349,27,1
Jefferson,Wisconsin,43.02054068,-88.77529134,27,0
LaSalle,Illinois,41.3442613,-88.88633881,27,1
Lowndes,Alabama,32.1597283,-86.65158371,27,0
Ottawa,Ohio,41.53781826,-83.0940185,27,0
Platte,Missouri,39.38154439,-94.77068479,27,0
Richland,Louisiana,32.41391005,-91.76634876,27,0
Riley,Kansas,39.28935726,-96.73420026,27,0
Snyder,Pennsylvania,40.77129231,-77.06840691,27,1
Union,Pennsylvania,40.96188846,-77.05996014,27,0
Walla Walla,Washington,46.23040051,-118.4775539,27,0
Washington,Virginia,36.72341572,-81.95666289,27,0
Bibb,Alabama,32.99642064,-87.1251146,26,0
Bremer,Iowa,42.77461496,-92.31795937,26,0
Bulloch,Georgia,32.39577406,-81.74811421,26,1
Clark,Ohio,39.91592258,-83.78498252,26,0
Clinton,Ohio,39.41485808,-83.80852286,26,0
Crawford,Michigan,44.68255561,-84.61006219,26,2
Grundy,Illinois,41.28569601,-88.41905692,26,0
Humboldt,Nevada,41.40692186,-118.1109427,26,1
Jefferson,Ohio,40.38614126,-80.76259514,26,0
Marion,Georgia,32.3483402,-84.52733571,26,1
Mower,Minnesota,43.67142874,-92.75234549,26,0
Shasta,California,40.76391419,-122.0396884,26,3
Valencia,New Mexico,34.71669834,-106.8103733,26,0
Van Buren,Arkansas,35.58095779,-92.51295036,26,2
Autauga,Alabama,32.53952745,-86.64408227,25,2
Belknap,New Hampshire,43.51637314,-71.41684235,25,0
Buckingham,Virginia,37.57242268,-78.52518834,25,0
Cedar,Iowa,41.77233777,-91.13246684,25,0
Chautauqua,New York,42.2276921,-79.36691763,25,3
Christian,Illinois,39.54581621,-89.27780482,25,4
Concordia,Louisiana,31.44817835,-91.63814433,25,2
Cortland,New York,42.59509207,-76.07048931,25,0
Effingham,Georgia,32.36616021,-81.34280942,25,1
Fairfield,South Carolina,34.39287073,-81.1195624,25,0
Grundy,Tennessee,35.38433717,-85.72142731,25,1
Hunt,Texas,33.12351514,-96.08551032,25,2
La Crosse,Wisconsin,43.90632465,-91.11451093,25,0
Lawrence,Arkansas,36.04188196,-91.10867198,25,1
Marengo,Alabama,32.24767634,-87.78796182,25,1
Marlboro,South Carolina,34.59905577,-79.67561152,25,0
Montgomery,Indiana,40.04034823,-86.89335024,25,0
Muskogee,Oklahoma,35.61318461,-95.37802952,25,3
Orange,Indiana,38.5411892,-86.49523093,25,4
Sutter,California,39.03417539,-121.6945899,25,2
Umatilla,Oregon,45.59073056,-118.7353826,25,0
Winchester,Virginia,39.17054517,-78.17325058,25,0
Bonneville,Idaho,43.38713372,-111.6161537,24,0
Bradford,Pennsylvania,41.78869215,-76.51570822,24,0
Carteret,North Carolina,34.8932941,-76.54120135,24,2
Clarke,Alabama,31.68099859,-87.83548597,24,0
Clay,Mississippi,33.65358105,-88.77784255,24,1
Danville,Virginia,36.58022376,-79.40395668,24,0
Dyer,Tennessee,36.05931946,-89.41542855,24,0
Greene,Pennsylvania,39.85746531,-80.22357106,24,0
Jefferson,Florida,30.43669112,-83.89442308,24,1
Juneau,Alaska,58.45031811,-134.200436,24,0
Lamar,Georgia,33.07841647,-84.14263877,24,0
Macon,Alabama,32.38759944,-85.69267724,24,2
Montcalm,Michigan,43.31082541,-85.15252824,24,1
Ottawa,Oklahoma,36.83532655,-94.81011909,24,0
Queen Anne's,Maryland,39.06198912,-76.03530977,24,2
Roanoke City,Virginia,37.27791025,-79.96189766,24,0
Sevier,Tennessee,35.78077323,-83.52244332,24,0
St. Francois,Missouri,37.81214171,-90.47598685,24,1
St. Joseph,Michigan,41.91441767,-85.52797979,24,1
Warren,Virginia,38.90847745,-78.20280433,24,0
Washington,Georgia,32.96711864,-82.79357039,24,1
Angelina,Texas,31.25457347,-94.60901487,23,0
Blue Earth,Minnesota,44.03554215,-94.06699781,23,0
Botetourt,Virginia,37.55531756,-79.80982182,23,0
Brooks,Georgia,30.83922642,-83.58303423,23,5
Butler,Missouri,36.71462476,-90.40421163,23,0
Catahoula,Louisiana,31.66778967,-91.84526385,23,1
Chester,South Carolina,34.69249168,-81.1583216,23,0
Colleton,South Carolina,32.87582989,-80.67641292,23,1
Colonial Heights,Virginia,37.26420587,-77.39609676,23,0
Davie,North Carolina,35.93099927,-80.54496571,23,2
DeSoto,Florida,27.18677893,-81.80941373,23,4
Donley,Texas,34.96517499,-100.8140093,23,0
Dukes and Nantucket,Massachusetts,41.40674725,-70.68763497,23,1
Duplin,North Carolina,34.93449805,-77.93140529,23,0
Franklin,Tennessee,35.15634626,-86.09201039,23,1
Hale,Alabama,32.76039258,-87.63284988,23,1
Hoke,North Carolina,35.01888303,-79.23651674,23,0
Lamoille,Vermont,44.60353043,-72.64356694,23,2
Lauderdale,Alabama,34.90171875,-87.65624729,23,4
Mono,California,37.93899289,-118.8872409,23,1
Newberry,South Carolina,34.28629098,-81.59935761,23,1
Ohio,West Virginia,40.0955451,-80.62203992,23,0
Oldham,Kentucky,38.39791089,-85.448222,23,0
Scott,Kentucky,38.29622293,-84.5816631,23,0
Scott,Minnesota,44.6490231,-93.53340251,23,1
Shelby,Kentucky,38.21476019,-85.194223,23,2
Union,Arkansas,33.16887091,-92.59746952,23,0
Union,South Carolina,34.68835752,-81.61730349,23,0
Waller,Texas,30.01058447,-95.99011759,23,0
Walthall,Mississippi,31.14971548,-90.10446654,23,0
Wayne,Indiana,39.8633444,-85.01044989,23,2
Wright,Minnesota,45.17297924,-93.96234781,23,1
Yankton,South Dakota,43.00924485,-97.39467635,23,0
Auglaize,Ohio,40.55998859,-84.2242143,22,2
Augusta,Virginia,38.16404586,-79.12461614,22,0
Caldwell,North Carolina,35.95204977,-81.54799522,22,0
Cass,Michigan,41.91522292,-85.99405727,22,1
Cherokee,Oklahoma,35.90692775,-94.99980896,22,1
Clarke,Mississippi,32.04158545,-88.6889622,22,2
Cochise,Arizona,31.87934684,-109.7516088,22,0
Coosa,Alabama,32.93690146,-86.24847739,22,1
Dakota,Nebraska,42.39040144,-96.56656425,22,0
Dallas,Alabama,32.32688101,-87.1086671,22,2
Douglas,Oregon,43.27941273,-123.167291,22,0
Eau Claire,Wisconsin,44.726614,-91.28609183,22,0
Ionia,Michigan,42.94502238,-85.07413319,22,2
Jasper,Mississippi,32.01922104,-89.11786866,22,1
Kosciusko,Indiana,41.24521668,-85.86312322,22,1
Le Sueur,Minnesota,44.37136597,-93.72844721,22,0
Lumpkin,Georgia,34.57286511,-84.00425681,22,0
Marshall,Indiana,41.32467367,-86.26185087,22,0
Mason,Washington,47.35007586,-123.1863685,22,0
Perry,Mississippi,31.17161885,-88.99281835,22,1
Robeson,North Carolina,34.64244496,-79.1025053,22,2
Scott,Indiana,38.68672078,-85.74627859,22,2
Barry,Michigan,42.59513984,-85.30834519,21,1
Beadle,South Dakota,44.41464384,-98.27858469,21,2
Benton,Iowa,42.08011739,-92.06463573,21,1
Calhoun,Texas,28.47048236,-96.61633945,21,0
Callaway,Missouri,38.83674754,-91.92186505,21,1
Calloway,Kentucky,36.62093411,-88.2731593,21,1
Chaves,New Mexico,33.36406072,-104.4665365,21,0
Cheatham,Tennessee,36.26136216,-87.08903581,21,0
Chippewa,Wisconsin,45.06939744,-91.28068855,21,0
Covington,Alabama,31.2477854,-86.45050893,21,1
Elmore,Idaho,43.3507101,-115.4701578,21,0
Emmet,Michigan,45.52625509,-84.89083249,21,2
Fayette,Indiana,39.63684962,-85.17797541,21,4
Franklin,Kentucky,38.2379395,-84.87962551,21,0
Gloucester,Virginia,37.40809042,-76.53524337,21,0
Itawamba,Mississippi,34.27993475,-88.3606733,21,1
Jasper,Indiana,41.02078733,-87.11553319,21,1
Johnson,Arkansas,35.56759135,-93.46036368,21,0
Kauai,Hawaii,22.03935037,-159.5966786,21,0
Loudon,Tennessee,35.73939663,-84.31145275,21,0
Macoupin,Illinois,39.26119767,-89.92424028,21,0
Madison,Kentucky,37.71659336,-84.27220275,21,1
Manassas Park,Virginia,38.77058531,-77.44399307,21,0
Miami,Indiana,40.76940965,-86.04525048,21,0
Morgan,Georgia,33.59232073,-83.49129491,21,0
Morton,North Dakota,46.71681782,-101.2822377,21,2
Newton,Mississippi,32.40021118,-89.11843336,21,0
Nye,Nevada,38.04264256,-116.4722702,21,0
Owen,Indiana,39.31145587,-86.83900724,21,1
Parker,Texas,32.77757172,-97.80500621,21,0
Petersburg,Virginia,37.20530399,-77.39368102,21,0
Preble,Ohio,39.7420247,-84.64787018,21,1
Simpson,Kentucky,36.74058474,-86.58047435,21,2
Warren,Missouri,38.76529479,-91.16124662,21,0
Bertie,North Carolina,36.0688473,-76.96545943,20,1
Blount,Alabama,33.98210918,-86.56790593,20,0
Clay,Georgia,31.62221166,-84.97713865,20,2
Dorchester,Maryland,38.45413522,-76.02752426,20,1
Elbert,Colorado,39.28656773,-104.1358721,20,1
Hampton,South Carolina,32.77419582,-81.13845571,20,0
Haralson,Georgia,33.79602175,-85.21005667,20,1
Kings,California,36.07409056,-119.8159973,20,1
Labette,Kansas,37.19113093,-95.29849679,20,0
Lawrence,Ohio,38.59743452,-82.53466552,20,0
Lincoln,North Carolina,35.48508185,-81.21740317,20,0
Madison,Florida,30.44396917,-83.47398594,20,0
McClain,Oklahoma,35.01123903,-97.44572302,20,0
McDowell,North Carolina,35.67736232,-82.0482425,20,0
Miller,Georgia,31.16568912,-84.73151117,20,0
Navarro,Texas,32.04620681,-96.47428766,20,2
Noxubee,Mississippi,33.11009499,-88.56949061,20,0
Orange,Virginia,38.24530219,-78.015604,20,0
Pasquotank,North Carolina,36.26723798,-76.25134778,20,0
Perry,Pennsylvania,40.40206612,-77.26297447,20,1
Roanoke,Virginia,37.26865804,-80.06396753,20,0
Schoharie,New York,42.58831742,-74.4433903,20,0
Seminole,Georgia,30.93464824,-84.86823924,20,2
Socorro,New Mexico,34.00715494,-106.9298354,20,1
Stanly,North Carolina,35.31647813,-80.25093221,20,2
Toombs,Georgia,32.12059861,-82.32957247,20,2
Trousdale,Tennessee,36.39026213,-86.16087954,20,1
Ward,North Dakota,48.22390169,-101.5436763,20,1
Washington,Nebraska,41.52815707,-96.22019892,20,0
White,Georgia,34.64624278,-83.74905525,20,0
Wilkinson,Georgia,32.80291082,-83.17140684,20,1
Williamsburg,South Carolina,33.62190129,-79.72767442,20,0
Andrews,Texas,32.30468633,-102.6376548,19,0
Catoosa,Georgia,34.89872298,-85.13757014,19,0
Christian,Missouri,36.9711783,-93.18537118,19,0
Dodge,Georgia,32.17265114,-83.16948926,19,0
Dodge,Wisconsin,43.41576662,-88.70928178,19,1
Dunklin,Missouri,36.27167174,-90.09122243,19,2
Goodhue,Minnesota,44.40849741,-92.7234195,19,0
Grayson,Texas,33.62744998,-96.67753461,19,0
Grenada,Mississippi,33.77036166,-89.80245083,19,0
Josephine,Oregon,42.3665549,-123.5561938,19,1
Kenai Peninsula,Alaska,60.24429722,-151.5388884,19,0
Laurens,South Carolina,34.48244419,-82.00490796,19,1
Lewis,Washington,46.57756476,-122.3925769,19,2
Marion,Illinois,38.64963204,-88.91899208,19,0
Mayes,Oklahoma,36.30179091,-95.23175116,19,3
Mifflin,Pennsylvania,40.61116939,-77.61070738,19,0
Morrow,Ohio,40.5236356,-82.7892599,19,0
Red River,Louisiana,32.09530039,-93.34213308,19,3
Rush,Indiana,39.62002287,-85.4655599,19,1
Sampson,North Carolina,34.98820368,-78.36914061,19,0
St. Helena,Louisiana,30.82210324,-90.71013176,19,1
Washington,North Carolina,35.83810081,-76.57299037,19,2
Williamsburg,Virginia,37.28131268,-76.70905141,19,1
Wilson,Texas,29.1732598,-98.08693082,19,1
Woodford,Kentucky,38.04178222,-84.7417556,19,0
Appling,Georgia,31.74847232,-82.28909114,18,0
Barbour,Alabama,31.868263,-85.3871286,18,0
Brantley,Georgia,31.19576557,-81.97743999,18,2
Brown,South Dakota,45.58994323,-98.35165355,18,0
Clarion,Pennsylvania,41.19265812,-79.42413524,18,1
Clark,Kentucky,37.9689263,-84.14615986,18,0
Coffee,Tennessee,35.49090731,-86.07311784,18,0
Custer,Nebraska,41.39374521,-99.72805369,18,0
Grand Traverse,Michigan,44.69565625,-85.55585247,18,4
Greensville,Virginia,36.67878901,-77.56351439,18,0
Inyo,California,36.51112084,-117.4111978,18,0
Jefferson,Indiana,38.78576239,-85.43633383,18,0
King George,Virginia,38.26818502,-77.15852768,18,0
Lenoir,North Carolina,35.2403259,-77.64245615,18,1
Lincoln,Nebraska,41.04658298,-100.7475374,18,1
Murray,Georgia,34.78897608,-84.74993177,18,0
Pottawattamie,Iowa,41.33640314,-95.53907776,18,1
Putnam,Georgia,33.32056115,-83.37552891,18,1
Richmond,North Carolina,35.00417719,-79.74491009,18,2
San Juan,Utah,37.62762978,-109.8033714,18,2
Scotts Bluff,Nebraska,41.85070896,-103.7080986,18,0
Seneca,New York,42.78081007,-76.82497064,18,0
Teller,Colorado,38.88133511,-105.1614893,18,2
Warren,Iowa,41.33559454,-93.56007641,18,0
Warren,Mississippi,32.35810271,-90.83352619,18,1
Wise,Virginia,36.9746148,-82.62410519,18,0
Bacon,Georgia,31.55456473,-82.45936528,17,1
Baker,Florida,30.33060121,-82.28467476,17,3
Bedford,Virginia,37.3080028,-79.5281964,17,0
Cambria,Pennsylvania,40.49527404,-78.71377428,17,1
Clay,Alabama,33.26984193,-85.85836077,17,0
Crow Wing,Minnesota,46.48096553,-94.06755609,17,0
Dale,Alabama,31.43037123,-85.61095742,17,0
Dillon,South Carolina,34.39007791,-79.37741872,17,0
Dodge,Minnesota,44.02238415,-92.86244324,17,0
Franklin,Alabama,34.44235334,-87.84289505,17,1
Gray,Texas,35.40081878,-100.8129222,17,0
Henry,Alabama,31.51148016,-85.24267944,17,0
Hood,Texas,32.42990927,-97.83242024,17,3
Kalkaska,Michigan,44.68512729,-85.09085699,17,2
Kemper,Mississippi,32.75462946,-88.64105766,17,0
Knox,Indiana,38.68861576,-87.4194665,17,0
Lee,Illinois,41.74583951,-89.29977132,17,0
Livingston,Illinois,40.89188292,-88.55784752,17,0
Logan,Colorado,40.7249637,-103.110817,17,1
Marathon,Wisconsin,44.89792533,-89.75863384,17,1
Matanuska-Susitna,Alaska,62.31305045,-149.5741743,17,0
Montgomery,North Carolina,35.33155144,-79.90416657,17,1
New Kent,Virginia,37.50694406,-76.99828634,17,0
Pontotoc,Mississippi,34.226046,-89.03636807,17,2
Prince Edward,Virginia,37.22554789,-78.43597949,17,0
Sandusky,Ohio,41.35624126,-83.137872,17,2
Somerset,Pennsylvania,39.97172723,-79.02699593,17,0
Steuben,Indiana,41.64423868,-85.00101094,17,1
Stone,Mississippi,30.79187949,-89.11547539,17,0
Story,Iowa,42.03621213,-93.46499005,17,0
Surry,North Carolina,36.41689489,-80.69102283,17,0
Wyandot,Ohio,40.84339621,-83.30734173,17,2
Amite,Mississippi,31.17467303,-90.80501621,16,1
Anderson,Tennessee,36.12684348,-84.19965764,16,1
Anson,North Carolina,34.97403241,-80.09953279,16,0
Baker,Georgia,31.32669878,-84.44218806,16,2
Butte,California,39.66727762,-121.6005252,16,0
Cherokee,North Carolina,35.1349263,-84.05970864,16,1
Clinton,Indiana,40.30319754,-86.47277257,16,1
Coshocton,Ohio,40.30096166,-81.91729018,16,0
Crawford,Pennsylvania,41.68447709,-80.10760592,16,0
Delta,Colorado,38.86246243,-107.8631342,16,1
Essex,New York,44.11630765,-73.77297842,16,0
Grady,Oklahoma,35.0167709,-97.88339847,16,1
Grant,Kentucky,38.64962758,-84.62415957,16,1
Hamilton,Nebraska,40.87349452,-98.02099117,16,0
Harrison,Kentucky,38.44188174,-84.32869741,16,0
Hopewell,Virginia,37.29186313,-77.29754684,16,0
Jasper,South Carolina,32.43171982,-81.02487495,16,0
Jefferson,Tennessee,36.04818632,-83.45148924,16,1
Jones,Georgia,33.02512137,-83.56019163,16,0
Kent,Maryland,39.24976208,-76.04741541,16,1
Klickitat,Washington,45.87325839,-120.7913598,16,3
Lewis and Clark,Montana,47.12610041,-112.394698,16,0
Lincoln,Idaho,43.0012336,-114.1358773,16,0
Oconee,South Carolina,34.75225169,-83.06742317,16,0
Person,North Carolina,36.38989032,-78.97217358,16,0
Pickens,Georgia,34.46589159,-84.46406611,16,2
Prentiss,Mississippi,34.61810501,-88.51986294,16,0
Pulaski,Georgia,32.23334561,-83.4754996,16,1
Rockingham,North Carolina,36.39593137,-79.77504841,16,2
Santa Cruz,Arizona,31.52508998,-110.8479088,16,0
Stearns,Minnesota,45.55192576,-94.61078221,16,0
Stoddard,Missouri,36.85571651,-89.9444155,16,0
Talbot,Georgia,32.69642758,-84.53351366,16,1
Talbot,Maryland,38.76618159,-76.10882561,16,1
Winn,Louisiana,31.94449367,-92.63789413,16,2
Wyoming,Pennsylvania,41.51955538,-76.01074915,16,1
Abbeville,South Carolina,34.22333378,-82.46170658,15,0
Caldwell,Louisiana,32.0902519,-92.11752148,15,0
Carroll,Ohio,40.5789686,-81.09178213,15,0
Clallam,Washington,48.04754642,-123.9226319,15,0
Clay,Indiana,39.39561833,-87.11723506,15,0
Colbert,Alabama,34.69847452,-87.80168544,15,1
Dare,North Carolina,35.66520691,-75.71767334,15,1
Fannin,Georgia,34.86430205,-84.316964,15,0
Fayette,Texas,29.87788372,-96.92076062,15,0
Franklin,Mississippi,31.47786634,-90.89672989,15,0
Franklin,Virginia,36.99536167,-79.88023649,15,0
Fredericksburg,Virginia,38.2977863,-77.4922454,15,0
Grant,Wisconsin,42.8671731,-90.7063218,15,2
Hardin,Ohio,40.66015414,-83.65929931,15,0
Hockley,Texas,33.60771256,-102.3431676,15,1
Huron,Ohio,41.14651175,-82.59867951,15,1
Irwin,Georgia,31.60213036,-83.27501387,15,0
Ketchikan Gateway,Alaska,55.57445008,-130.975561,15,0
LaGrange,Indiana,41.64232188,-85.42674232,15,1
Lawrence,Tennessee,35.21675201,-87.39787695,15,0
Lyon,Nevada,39.01777974,-119.1870479,15,0
McPherson,Kansas,38.39184858,-97.64769869,15,0
Medina,Texas,29.3557301,-99.11030298,15,2
Monroe,Georgia,33.014289,-83.92097166,15,1
Montgomery,Mississippi,33.49419589,-89.61729103,15,1
Okanogan,Washington,48.54855019,-119.7387224,15,0
Sagadahoc,Maine,43.95415864,-69.85074999,15,0
Saline,Kansas,38.78369175,-97.65185177,15,2
San Juan,Washington,48.60182783,-122.96745,15,0
Schley,Georgia,32.2654021,-84.31258912,15,1
Somerset,Maine,45.51229767,-69.95995554,15,0
Stephens,Oklahoma,34.48556989,-97.85141892,15,1
Stewart,Georgia,32.07996777,-84.83208037,15,0
Taos,New Mexico,36.58006022,-105.6310198,15,0
Washington,Alabama,31.4092794,-88.20689944,15,1
Webster,Mississippi,33.61300486,-89.28392912,15,1
Whitley,Indiana,41.13863784,-85.50791236,15,1
Whitman,Washington,46.90022523,-117.5241763,15,0
Yalobusha,Mississippi,34.02824175,-89.7076205,15,0
Yuba,California,39.26255932,-121.3535644,15,1
Beaufort,North Carolina,35.48531943,-76.84325809,14,0
Bedford,Pennsylvania,40.00522157,-78.48998442,14,1
Blair,Pennsylvania,40.47961444,-78.34917412,14,0
Brown,Indiana,39.19605589,-86.22868909,14,1
Carver,Minnesota,44.82017001,-93.8009918,14,0
Cerro Gordo,Iowa,43.08177563,-93.2612239,14,0
Cheboygan,Michigan,45.44787015,-84.50122149,14,1
Choctaw,Alabama,32.02227341,-88.2656443,14,0
Clark,Wisconsin,44.73483377,-90.61207486,14,0
Coles,Illinois,39.51949084,-88.22358557,14,0
Columbia,Oregon,45.94464254,-123.0890898,14,0
Douglas,Nevada,38.912862,-119.6171333,14,0
Dubois,Indiana,38.36597551,-86.8792417,14,0
Fulton,Ohio,41.60213491,-84.12571393,14,0
Greene,North Carolina,35.48544173,-77.67578087,14,0
Jackson,Louisiana,32.30251776,-92.55692092,14,0
Jasper,Georgia,33.31535543,-83.68844964,14,0
Jones,Iowa,42.12118609,-91.13139641,14,0
Kendall,Texas,29.94414155,-98.7113588,14,0
Kittitas,Washington,47.12521214,-120.679439,14,0
Lawrence,Mississippi,31.55147224,-90.10841127,14,0
Madison,Georgia,34.12920917,-83.21218732,14,1
Okmulgee,Oklahoma,35.64661916,-95.96432828,14,0
Pittsburg,Oklahoma,34.92065823,-95.7513432,14,1
Polk,Texas,30.79472531,-94.8276624,14,0
Putnam,Ohio,41.02094889,-84.1336111,14,0
Putnam,West Virginia,38.50782345,-81.9082131,14,0
Reno,Kansas,37.95230263,-98.08607292,14,0
San Augustine,Texas,31.39457611,-94.17000399,14,1
Simpson,Mississippi,31.91282117,-89.91716179,14,0
Telfair,Georgia,31.92829517,-82.93491155,14,0
Tioga,Pennsylvania,41.77255149,-77.25433032,14,1
Vernon,Louisiana,31.10884837,-93.18153838,14,1
Wakulla,Florida,30.16548905,-84.39895211,14,1
Amelia,Virginia,37.34081025,-77.98584649,13,0
Banks,Georgia,34.35607081,-83.49644388,13,0
Ben Hill,Georgia,31.76095874,-83.22145359,13,0
Boyle,Kentucky,37.62680923,-84.8633779,13,0
Butler,Alabama,31.75300095,-86.68057478,13,0
Campbell,Tennessee,36.40355516,-84.1510856,13,1
Campbell,Wyoming,44.24886082,-105.5474404,13,0
Caroline,Virginia,38.02679129,-77.34901405,13,0
Carroll,Tennessee,35.97366108,-88.45189331,13,0
Cascade,Montana,47.30797024,-111.3467922,13,1
Cherokee,South Carolina,35.05122251,-81.61828622,13,0
Codington,South Dakota,44.97788119,-97.18827677,13,0
Crawford,Georgia,32.71391813,-83.98061238,13,0
DeKalb,Indiana,41.39804622,-84.99906934,13,1
DeWitt,Texas,29.08101855,-97.3568117,13,0
Defiance,Ohio,41.32398837,-84.49076944,13,0
Erath,Texas,32.23602653,-98.21773417,13,1
Fayette,Illinois,39.00072038,-89.02452658,13,1
Fayette,Ohio,39.56021306,-83.4562016,13,0
Franklin,New York,44.59040891,-74.29926032,13,0
Grant,New Mexico,32.73911281,-108.3827845,13,0
Henderson,Texas,32.21128872,-95.85846587,13,0
Kit Carson,Colorado,39.30497777,-102.6022199,13,1
LaSalle,Louisiana,31.67884782,-92.15907765,13,0
Lauderdale,Tennessee,35.75893438,-89.6301591,13,0
Laurel,Kentucky,37.10975748,-84.11321779,13,2
Logan,Ohio,40.38996525,-83.76784341,13,0
Lyon,Kentucky,37.02080035,-88.07886257,13,2
Marion,Kentucky,37.55218078,-85.26898542,13,0
Marion,South Carolina,34.07859748,-79.36400756,13,1
Marshall,Tennessee,35.45798777,-86.76420988,13,1
Mercer,Ohio,40.54043046,-84.62912742,13,1
Monroe,Wisconsin,43.94641218,-90.618819,13,0
Montezuma,Colorado,37.33859579,-108.5958857,13,2
Montgomery,Illinois,39.23198845,-89.47809254,13,1
Nelson,Kentucky,37.80335779,-85.4657193,13,0
Ohio,Kentucky,37.47751843,-86.85368087,13,0
Oxford,Maine,44.49952995,-70.75682123,13,0
Page,Virginia,38.61807452,-78.48797204,13,0
Pettis,Missouri,38.72798918,-93.28471706,13,0
Quitman,Mississippi,34.25157572,-90.28908,13,0
Sabine,Louisiana,31.56388699,-93.55433981,13,0
San Miguel,Colorado,38.00450883,-108.4020725,13,0
Switzerland,Indiana,38.82767338,-85.03022429,13,0
Walker,Georgia,34.73376362,-85.30165174,13,0
Webster,Kentucky,37.52168356,-87.67989953,13,0
Williamson,Illinois,37.73033511,-88.92994027,13,0
Adair,Missouri,40.19058551,-92.60078167,12,0
Austin,Texas,29.88548725,-96.27736949,12,0
Brown,Texas,31.77430356,-98.99907113,12,1
Brunswick,Virginia,36.76366949,-77.8593436,12,0
Buchanan,Virginia,37.26818323,-82.03749726,12,0
Butler,Kansas,37.78134351,-96.83878537,12,0
Calaveras,California,38.20537103,-120.552913,12,0
Charlevoix,Michigan,45.37790017,-85.19614053,12,1
Cherokee,Alabama,34.17805983,-85.60638968,12,0
Cleburne,Alabama,33.67679204,-85.52005899,12,0
Cook,Georgia,31.16068491,-83.42947229,12,1
Crawford,Indiana,38.28814402,-86.44518825,12,0
Dawson,Texas,32.74255572,-101.9477242,12,1
Delta,Michigan,45.9048491,-86.9080745,12,1
Dodge,Nebraska,41.58071748,-96.65598179,12,0
Douglas,Illinois,39.76768052,-88.21854195,12,0
Elko,Nevada,41.14531606,-115.3577619,12,1
Emanuel,Georgia,32.59221302,-82.30239915,12,0
Escambia,Alabama,31.1256789,-87.15918694,12,0
Franklin,Kansas,38.56443815,-95.28644341,12,0
Franklin City,Virginia,36.6831435,-76.93859681,12,0
Grant,Louisiana,31.59882456,-92.56124347,12,0
Grays Harbor,Washington,47.14003705,-123.7820567,12,0
Harrison,Iowa,41.68330137,-95.81558439,12,0
Haywood,Tennessee,35.58332824,-89.28536625,12,1
Howard,Arkansas,34.09007427,-93.9934871,12,0
Humphreys,Mississippi,33.12825718,-90.52252707,12,3
Huntingdon,Pennsylvania,40.42162652,-77.97673273,12,0
Iroquois,Illinois,40.74717633,-87.82466784,12,0
Jefferson,Illinois,38.29980057,-88.9240025,12,0
Jenkins,Georgia,32.79248718,-81.96040187,12,1
Jo Daviess,Illinois,42.36542373,-90.21094405,12,0
Knox,Maine,44.11486325,-69.10529169,12,0
Lincoln,Maine,44.05996956,-69.54227124,12,0
Marshall,Kentucky,36.8800707,-88.32803576,12,0
Maverick,Texas,28.7429195,-100.3157686,12,0
Mecosta,Michigan,43.64064262,-85.32463223,12,1
Montgomery,Kansas,37.19236568,-95.74329258,12,2
Morgan,Illinois,39.71654544,-90.20255104,12,1
Pemiscot,Missouri,36.2130572,-89.78742322,12,0
Randolph,Indiana,40.15734772,-85.01139319,12,1
Russell,Kentucky,36.99308373,-85.06070117,12,2
Sherburne,Minnesota,45.44447208,-93.77617511,12,0
Sheridan,Wyoming,44.79048913,-106.8862389,12,0
Smith,Tennessee,36.25359775,-85.95411046,12,1
Smyth,Virginia,36.84455636,-81.53344948,12,0
Stephenson,Illinois,42.35129217,-89.662598,12,0
Torrance,New Mexico,34.64048375,-105.8508949,12,0
Union,Ohio,40.30016061,-83.37239023,12,0
Val Verde,Texas,29.89149232,-101.1525205,12,0
Van Zandt,Texas,32.56483801,-95.83766469,12,1
Ashley,Arkansas,33.19153461,-91.7698471,11,0
Asotin,Washington,46.18894415,-117.2022851,11,0
Caldwell,Kentucky,37.14749129,-87.86948214,11,0
Castro,Texas,34.53016752,-102.2617243,11,1
Charles City,Virginia,37.35358063,-77.05634116,11,0
Choctaw,Mississippi,33.34598242,-89.24809382,11,1
Clear Creek,Colorado,39.68864463,-105.6463118,11,0
Clinton,Missouri,39.6013098,-94.40465394,11,0
Clinton,Pennsylvania,41.23255967,-77.63785995,11,0
Cocke,Tennessee,35.9278914,-83.11828725,11,0
Deaf Smith,Texas,34.96522957,-102.6054267,11,0
Edgefield,South Carolina,33.77221995,-81.96231108,11,0
Fillmore,Minnesota,43.67394126,-92.08980382,11,0
Franklin,Maine,44.97330019,-70.44381045,11,0
Grant,Arkansas,34.29017991,-92.42320562,11,0
Hale,Texas,34.07044901,-101.8268114,11,2
Iosco,Michigan,44.35486835,-83.63484895,11,1
Jackson,Wisconsin,44.31864893,-90.80566792,11,1
Jefferson,Georgia,33.05867328,-82.41609057,11,1
Johnson,Wyoming,44.04057166,-106.5845174,11,1
Knox,Ohio,40.39830217,-82.42027563,11,1
Levy,Florida,29.31829741,-82.74007147,11,0
Limestone,Texas,31.5454767,-96.58095444,11,1
Lincoln,Oklahoma,35.70270942,-96.8812462,11,0
Manistee,Michigan,44.33352407,-86.05626916,11,0
Nowata,Oklahoma,36.79843529,-95.61902331,11,0
Randolph,Arkansas,36.3415714,-91.02455531,11,0
Rockcastle,Kentucky,37.36642393,-84.31176452,11,0
Scotland,North Carolina,34.8386299,-79.4757978,11,0
Scott,Tennessee,36.42325673,-84.50360494,11,0
Screven,Georgia,32.74976524,-81.60779441,11,1
Sebastian,Arkansas,35.19605503,-94.27162713,11,0
Seneca,Ohio,41.12351311,-83.12783209,11,1
Silver Bow,Montana,45.90018933,-112.6620092,11,0
St. Croix,Wisconsin,45.03437474,-92.45000068,11,0
Starke,Indiana,41.27890281,-86.64686895,11,1
Sussex,Virginia,36.92432914,-77.25791182,11,0
Todd,Kentucky,36.8381152,-87.17878374,11,0
Wilkes,Georgia,33.78290391,-82.74286107,11,0
Woodford,Illinois,40.78579374,-89.20973757,11,0
Yadkin,North Carolina,36.16222629,-80.66239436,11,1
Amherst,Virginia,37.60308293,-79.14548696,10,0
Atascosa,Texas,28.89333001,-98.52730485,10,1
Baca,Colorado,37.31940883,-102.5603223,10,0
Berrien,Georgia,31.27590016,-83.2252992,10,0
Caledonia,Vermont,44.46548598,-72.10314651,10,0
Carroll,Mississippi,33.44834567,-89.91994479,10,1
Cass,Texas,33.07499881,-94.34646905,10,0
Cassia,Idaho,42.28347888,-113.6012409,10,1
Cherokee,Texas,31.837258,-95.16559897,10,1
Conecuh,Alabama,31.43401703,-86.99320044,10,0
Cumberland,Virginia,37.51328851,-78.24398086,10,0
Curry,New Mexico,34.57421077,-103.3468876,10,0
DeKalb,Tennessee,35.97616272,-85.83689361,10,0
Franklin,Georgia,34.37525597,-83.23159927,10,0
Garvin,Oklahoma,34.70418038,-97.30811132,10,0
Gem,Idaho,44.06482372,-116.398376,10,0
George,Mississippi,30.86259065,-88.64436789,10,1
Gilmer,Georgia,34.69316688,-84.45802506,10,0
Greenup,Kentucky,38.54332505,-82.9215658,10,0
Grimes,Texas,30.54579585,-95.98902499,10,1
Guernsey,Ohio,40.05026529,-81.49248905,10,0
Henry,Virginia,36.68542395,-79.87634026,10,0
Hill,Texas,31.99045053,-97.13423143,10,1
Huron,Michigan,43.83353985,-83.04078453,10,0
Iowa,Iowa,41.68630265,-92.0643373,10,0
Juneau,Wisconsin,43.92456975,-90.11120239,10,1
Mason,West Virginia,38.77071799,-82.02524219,10,0
McKenzie,North Dakota,47.7413337,-103.395905,10,0
Minidoka,Idaho,42.85518524,-113.6357257,10,0
Monroe,Tennessee,35.44550387,-84.24902965,10,1
Payette,Idaho,44.00545243,-116.7647695,10,1
Pennington,South Dakota,44.0025835,-102.8240777,10,1
Pine,Minnesota,46.12105238,-92.74070188,10,0
Poinsett,Arkansas,35.57433534,-90.66268713,10,0
Polk,North Carolina,35.27820615,-82.16812354,10,0
Pontotoc,Oklahoma,34.72959848,-96.68337199,10,1
Rio Arriba,New Mexico,36.51072137,-106.6931674,10,0
Saluda,South Carolina,34.00795823,-81.72713237,10,0
San Jacinto,Texas,30.57933681,-95.16260304,10,0
Sequoyah,Oklahoma,35.49447108,-94.75463785,10,2
Somerset,Maryland,38.1163542,-75.75118623,10,0
Stokes,North Carolina,36.4017975,-80.23893369,10,0
Sullivan,New Hampshire,43.36094111,-72.22203125,10,0
Sweetwater,Wyoming,41.65943896,-108.8827882,10,0
Taylor,Georgia,32.55792548,-84.25077141,10,2
Terry,Texas,33.17402785,-102.3354521,10,0
Tipton,Indiana,40.31123252,-86.05234925,10,1
Towns,Georgia,34.91369188,-83.7410746,10,0
Union,Georgia,34.82995757,-83.98967069,10,1
Warren,Georgia,33.41146451,-82.67795848,10,0
Wasco,Oregon,45.16292781,-121.1670954,10,0
Wayne,Mississippi,31.64135687,-88.69573913,10,0
Westmoreland,Virginia,38.11021557,-76.80213247,10,0
Williams,North Dakota,48.34522353,-103.4793387,10,0
Arenac,Michigan,44.0636262,-83.89277559,9,0
Brookings,South Dakota,44.36974375,-96.79079945,9,0
Brown,Ohio,38.93416837,-83.86788395,9,1
Bullock,Alabama,32.10030533,-85.71265535,9,0
Burleson,Texas,30.49273808,-96.62158484,9,0
Campbell,Virginia,37.20553386,-79.09678609,9,0
Cannon,Tennessee,35.80990797,-86.05738983,9,0
Chattooga,Georgia,34.47197698,-85.34535662,9,1
Clearfield,Pennsylvania,41.00110782,-78.47592663,9,0
Door,Wisconsin,44.95856458,-87.30002707,9,1
Dunn,Wisconsin,44.94562799,-91.8962481,9,0
Eddy,New Mexico,32.47167456,-104.3053527,9,1
Fremont,Colorado,38.47362326,-105.4399667,9,0
Garfield,Oklahoma,36.3791334,-97.78265517,9,1
Geary,Kansas,38.99871131,-96.7577178,9,0
Gladwin,Michigan,43.98901072,-84.38774817,9,0
Green,Wisconsin,42.6794956,-89.60243287,9,0
Greene,Arkansas,36.1173546,-90.55832668,9,0
Henry,Tennessee,36.33160906,-88.30121797,9,0
Jasper,Texas,30.74685667,-94.02667579,9,1
Jones,North Carolina,35.02254606,-77.35870791,9,1
Kimball,Nebraska,41.19774275,-103.7148131,9,0
Lawrence,Alabama,34.52041498,-87.31069453,9,0
Lawrence,South Dakota,44.35919441,-103.7929428,9,0
Lincoln,Georgia,33.79201475,-82.45024131,9,0
Lincoln,Tennessee,35.13738622,-86.58910106,9,0
McCreary,Kentucky,36.73874143,-84.48102924,9,0
McNairy,Tennessee,35.17468549,-88.5647812,9,0
Mercer,Kentucky,37.81474237,-84.87488475,9,0
Milam,Texas,30.7858183,-96.97718698,9,0
Montgomery,Kentucky,38.03253032,-83.9145241,9,0
Newton,Missouri,36.90519407,-94.3394104,9,0
Obion,Tennessee,36.35732446,-89.14921589,9,1
Orleans,Vermont,44.82964024,-72.24562697,9,0
Perry,Alabama,32.64048341,-87.29770589,9,0
Perry,Ohio,39.73508655,-82.23804971,9,0
Powhatan,Virginia,37.55016038,-77.91267882,9,0
Pulaski,Illinois,37.22631423,-89.13085001,9,0
Roscommon,Michigan,44.33473082,-84.61067651,9,0
Shelby,Iowa,41.6850066,-95.31015553,9,0
Southampton,Virginia,36.72231125,-77.10642712,9,0
Steele,Minnesota,44.02240351,-93.22627088,9,0
Taney,Missouri,36.65465345,-93.04075153,9,1
Texas,Oklahoma,36.74777635,-101.4889765,9,1
Union,Mississippi,34.49162015,-89.00776006,9,1
Upshur,Texas,32.73706798,-94.93999853,9,0
Vermilion,Illinois,40.18417171,-87.73384359,9,0
Wabash,Indiana,40.84704239,-85.79328272,9,0
Winston,Alabama,34.15030532,-87.37325922,9,0
Wise,Texas,33.21570665,-97.65460265,9,2
Wright,Missouri,37.27029221,-92.46914488,9,0
Yates,New York,42.63505484,-77.10369919,9,0
Antrim,Michigan,44.99690221,-85.15503082,8,0
Bannock,Idaho,42.67002716,-112.2233311,8,0
Bledsoe,Tennessee,35.59942968,-85.20611967,8,0
Buchanan,Iowa,42.4709188,-91.83510825,8,0
Bureau,Illinois,41.40385234,-89.5283051,8,0
Burnet,Texas,30.78801353,-98.181887,8,0
Charlotte,Virginia,37.01909701,-78.66314092,8,0
Claiborne,Mississippi,31.97061673,-90.90702196,8,0
Clare,Michigan,43.98794227,-84.8481986,8,1
Cleveland,Arkansas,33.89723187,-92.18537045,8,0
Colorado,Texas,29.622098,-96.5273805,8,0
Converse,Wyoming,42.97272268,-105.5081848,8,0
Cross,Arkansas,35.29631396,-90.77185818,8,0
Dade,Georgia,34.8549167,-85.50490424,8,1
Des Moines,Iowa,40.92012606,-91.18326592,8,0
Douglas,Wisconsin,46.43222285,-91.91595768,8,0
Grayson,Kentucky,37.46231118,-86.34248968,8,0
Greene,Virginia,38.29545894,-78.46525378,8,0
Halifax,Virginia,36.76654925,-78.93512622,8,0
Hot Spring,Arkansas,34.31709259,-92.95396325,8,0
Jackson,Florida,30.7954597,-85.21500423,8,0
Jay,Indiana,40.43781032,-85.00576229,8,0
Jefferson Davis,Mississippi,31.56884708,-89.8267099,8,1
Jersey,Illinois,39.08869046,-90.35393073,8,0
Kewaunee,Wisconsin,44.51727459,-87.61468386,8,1
Lake,Colorado,39.20278823,-106.3555697,8,0
Lamar,Alabama,33.77995024,-88.09668032,8,0
Lewis,New York,43.7844157,-75.44903992,8,0
Logan,Kentucky,36.85949479,-86.877635,8,0
Logan,Oklahoma,35.91899576,-97.44352845,8,0
Logan,West Virginia,37.8299889,-81.93528571,8,1
Madison,Idaho,43.78141028,-111.6538474,8,0
Madison,Montana,45.30080065,-111.9173017,8,1
Madison,Virginia,38.41531222,-78.28220331,8,0
Marshall,West Virginia,39.86064362,-80.66591062,8,0
Martin,North Carolina,35.84326734,-77.10860251,8,0
Mercer,West Virginia,37.40481169,-81.11023142,8,0
Mineral,West Virginia,39.41561583,-78.94104895,8,0
Mississippi,Arkansas,35.76271485,-90.0519437,8,0
Monroe,Alabama,31.56729412,-87.36995001,8,1
Morgan,West Virginia,39.55439028,-78.26311676,8,0
Muskingum,Ohio,39.96575964,-81.94363275,8,0
New Madrid,Missouri,36.59666326,-89.66070007,8,0
Perquimans,North Carolina,36.17847453,-76.40603143,8,0
Plymouth,Iowa,42.737633,-96.21366621,8,0
Poweshiek,Iowa,41.68625425,-92.53155731,8,1
Pulaski,Virginia,37.06474963,-80.71229738,8,0
Randolph,Missouri,39.44007257,-92.4971374,8,0
Richland,Wisconsin,43.3762778,-90.43012729,8,1
Richmond,Virginia,37.937575,-76.72920628,8,0
Roane,Tennessee,35.84923189,-84.52458689,8,0
San Patricio,Texas,28.00880118,-97.51763891,8,0
Schuyler,New York,42.39184015,-76.8773299,8,0
Sevier,Arkansas,33.99780401,-94.2424869,8,0
Spencer,Kentucky,38.03223971,-85.32749335,8,0
Stevens,Washington,48.40035475,-117.8542701,8,1
Tallahatchie,Mississippi,33.95339918,-90.1729398,8,1
Teton,Idaho,43.75303583,-111.2056773,8,0
Titus,Texas,33.21339719,-94.96797273,8,0
Union,Kentucky,37.66166713,-87.94300009,8,0
Van Buren,Iowa,40.75326764,-91.95017958,8,0
Wabasha,Minnesota,44.28424356,-92.23121312,8,0
Watauga,North Carolina,36.23103603,-81.70033724,8,0
Webster,Missouri,37.2813734,-92.876329,8,0
Whitley,Kentucky,36.75700531,-84.14541217,8,0
Wilkin,Minnesota,46.35721532,-96.4684375,8,2
Willacy,Texas,26.47411727,-97.61535848,8,1
Wythe,Virginia,36.91582035,-81.07834059,8,0
Adams,Indiana,40.7457653,-84.93671406,7,1
Alamosa,Colorado,37.57250606,-105.7885451,7,2
Alcorn,Mississippi,34.88084463,-88.57996173,7,0
Amador,California,38.44583082,-120.65696,7,0
Anderson,Kentucky,38.00671029,-84.99171713,7,1
Appomattox,Virginia,37.37569884,-78.81340003,7,0
Bamberg,South Carolina,33.21927586,-81.05659969,7,0
Bourbon,Kansas,37.85508555,-94.84865997,7,1
Bourbon,Kentucky,38.2054607,-84.21827874,7,1
Bracken,Kentucky,38.69158994,-84.08532444,7,0
Bradley,Arkansas,33.46755808,-92.15980837,7,0
Brown,Minnesota,44.24205652,-94.72562874,7,1
Caldwell,Texas,29.83668859,-97.61814775,7,0
Caswell,North Carolina,36.39312665,-79.33353281,7,0
Champaign,Ohio,40.13923427,-83.76875242,7,1
Cherokee,Kansas,37.16928494,-94.8462897,7,0
Chicot,Arkansas,33.26458973,-91.29539209,7,0
Chisago,Minnesota,45.5021011,-92.90861945,7,1
Clayton,Iowa,42.84443388,-91.34133693,7,1
Clinch,Georgia,30.91395822,-82.70432472,7,0
Craig,Oklahoma,36.76268118,-95.20916602,7,0
Custer,Oklahoma,35.63853802,-99.00170785,7,0
Dinwiddie,Virginia,37.07544585,-77.63451754,7,0
Edmonson,Kentucky,37.21218923,-86.23955613,7,0
Elbert,Georgia,34.11302332,-82.83936148,7,0
Emporia,Virginia,36.69455571,-77.53406129,7,0
Fannin,Texas,33.59564294,-96.10751083,7,0
Forest,Pennsylvania,41.51095103,-79.23229292,7,0
Gila,Arizona,33.80190085,-110.8132779,7,0
Gooding,Idaho,42.96927962,-114.8108306,7,0
Gratiot,Michigan,43.29265605,-84.60505416,7,0
Hamblen,Tennessee,36.21990035,-83.26586179,7,1
Hancock,West Virginia,40.51943859,-80.57461608,7,0
Hardeman,Tennessee,35.20772017,-88.99161161,7,0
Heard,Georgia,33.29686567,-85.12886832,7,1
Hertford,North Carolina,36.3607755,-76.98104134,7,1
Highland,Ohio,39.1839264,-83.60331456,7,0
Hutchinson,Texas,35.84006574,-101.3546643,7,0
Independence,Arkansas,35.74242707,-91.57001641,7,0
Jasper,Illinois,39.01054275,-88.15437049,7,1
Lamar,Texas,33.66981763,-95.57404777,7,0
Lee,Virginia,36.70586667,-83.12606515,7,0
Leelanau,Michigan,44.94430054,-85.80150326,7,0
Lincoln,Montana,48.54265777,-115.4046155,7,1
Madison,Nebraska,41.91676024,-97.6005481,7,2
Mahaska,Iowa,41.33521503,-92.64083907,7,0
McCurtain,Oklahoma,34.11664328,-94.77222373,7,0
McLean,Kentucky,37.5301951,-87.26803443,7,1
Montgomery,Missouri,38.94022054,-91.47000721,7,0
Newaygo,Michigan,43.554374,-85.80070107,7,0
Nicollet,Minnesota,44.35291112,-94.24710352,7,2
Overton,Tennessee,36.34117832,-85.28989535,7,0
Palo Pinto,Texas,32.75310985,-98.31319001,7,1
Park,Montana,45.48965095,-110.5264394,7,0
Parke,Indiana,39.77202286,-87.20375833,7,0
Piatt,Illinois,40.01360584,-88.59319339,7,0
Pierce,Wisconsin,44.71850291,-92.4224416,7,0
Polk,Arkansas,34.48254879,-94.22728802,7,0
Preston,West Virginia,39.46770987,-79.66712803,7,0
Rabun,Georgia,34.88389445,-83.40304637,7,0
Raleigh,West Virginia,37.76936795,-81.2456041,7,0
Ray,Missouri,39.3537468,-93.98905745,7,0
Rio Grande,Colorado,37.5836865,-106.3847838,7,0
Scioto,Ohio,38.80270163,-82.98907345,7,0
Seminole,Oklahoma,35.16478725,-96.61686741,7,1
Sherman,Texas,36.27751473,-101.8933156,7,0
Sioux,Iowa,43.08221074,-96.1767568,7,0
Starr,Texas,26.56150059,-98.73892358,7,0
Ste. Genevieve,Missouri,37.89090059,-90.1949941,7,1
Stone,Arkansas,35.86251946,-92.15684085,7,0
Sullivan,Indiana,39.08952258,-87.41414469,7,0
Transylvania,North Carolina,35.20383864,-82.79638423,7,0
Trinity,Texas,31.0879489,-95.1367187,7,0
Wapello,Iowa,41.03064984,-92.40954728,7,0
Wayne,Georgia,31.5521809,-81.91894878,7,0
Waynesboro,Virginia,38.06451466,-78.90293905,7,0
Wexford,Michigan,44.33853602,-85.57712739,7,1
Williams,Ohio,41.56052014,-84.58429552,7,1
Albany,Wyoming,41.65498705,-105.7235415,6,0
Allendale,South Carolina,32.98837386,-81.35321066,6,0
Anderson,Texas,31.81534745,-95.65354823,6,0
Archuleta,Colorado,37.19474156,-107.0476867,6,0
Barren,Kentucky,36.96469836,-85.93338945,6,0
Barron,Wisconsin,45.42372701,-91.84833627,6,0
Barton,Kansas,38.47889676,-98.75636726,6,0
Bates,Missouri,38.25271289,-94.34113157,6,1
Blackford,Indiana,40.47388153,-85.32499702,6,1
Bleckley,Georgia,32.43829035,-83.33035166,6,0
Breckinridge,Kentucky,37.77377239,-86.42885017,6,0
Calhoun,Florida,30.40666734,-85.19394153,6,0
Calhoun,South Carolina,33.66926881,-80.77722168,6,1
Camp,Texas,32.97195142,-94.97790104,6,0
Carbon,Montana,45.22850116,-109.0274047,6,0
Carroll,Illinois,42.06823429,-89.93395545,6,1
Carroll,Indiana,40.5807832,-86.56198812,6,1
Chattahoochee,Georgia,32.34341231,-84.78809239,6,0
Chester,Tennessee,35.42527478,-88.6095842,6,0
Chowan,North Carolina,36.12908077,-76.60118385,6,0
Clarke,Virginia,39.11271747,-77.99199425,6,0
Clatsop,Oregon,45.99712889,-123.660711,6,0
Cottonwood,Minnesota,44.00715262,-95.18138802,6,0
Crawford,Iowa,42.03718237,-95.3819718,6,1
Crawford,Kansas,37.50675523,-94.85245778,6,1
Crawford,Missouri,37.97663738,-91.30528104,6,0
Crenshaw,Alabama,31.72941803,-86.31593104,6,0
Desha,Arkansas,33.83011025,-91.25500948,6,0
Drew,Arkansas,33.59035001,-91.71777921,6,1
Dunn,North Dakota,47.35423935,-102.6160468,6,0
Fayette,Iowa,42.86271799,-91.8441231,6,0
Gallia,Ohio,38.82708533,-82.31647569,6,1
Hampshire,West Virginia,39.32103553,-78.60826476,6,0
Hancock,Georgia,33.2721566,-82.99766919,6,0
Hancock,Kentucky,37.83766422,-86.78280584,6,0
Hancock,Maine,44.59816444,-68.38401854,6,0
Harrison,Missouri,40.35570088,-93.99222144,6,0
Henry,Missouri,38.38482826,-93.79293734,6,1
Huntington,Indiana,40.82907273,-85.48822092,6,1
Iowa,Wisconsin,43.00050278,-90.13469017,6,0
Jackson,Oklahoma,34.58781741,-99.41138784,6,0
Jackson,Tennessee,36.36380466,-85.67239905,6,0
Kingfisher,Oklahoma,35.94530008,-97.94193268,6,0
Lake,California,39.10124298,-122.7536244,6,0
Lanier,Georgia,31.0382857,-83.06472457,6,1
Linn,Kansas,38.21267844,-94.84254089,6,0
Los Alamos,New Mexico,35.86631386,-106.3134985,6,0
Manitowoc,Wisconsin,44.11946801,-87.80928853,6,0
Mason,Kentucky,38.59471935,-83.82151043,6,0
McCormick,South Carolina,33.90161443,-82.30794338,6,1
McDowell,West Virginia,37.38002939,-81.65083669,6,0
McMinn,Tennessee,35.42812616,-84.61520715,6,0
Merrick,Nebraska,41.16624273,-98.0374887,6,0
Monona,Iowa,42.05220391,-95.95743843,6,0
Noble,Oklahoma,36.38953329,-97.22928674,6,0
Nottoway,Virginia,37.1435975,-78.05065922,6,0
Okeechobee,Florida,27.3863362,-80.88944347,6,0
Oneida,Wisconsin,45.70677897,-89.51944105,6,0
Osceola,Michigan,43.98992088,-85.32566756,6,0
Otero,Colorado,37.9014485,-103.7173385,6,0
Out of HI,Hawaii,,,6,0
Pamlico,North Carolina,35.15253315,-76.66559823,6,0
Park,Colorado,39.120926,-105.7182065,6,0
Pender,North Carolina,34.52265624,-77.90352133,6,0
Perry,Tennessee,35.63708728,-87.86139634,6,0
Pike,Kentucky,37.47088263,-82.39487445,6,1
Pike,Missouri,39.34310674,-91.16980779,6,0
Pittsylvania,Virginia,36.81980341,-79.39731264,6,0
Platte,Nebraska,41.57246836,-97.52144359,6,0
Poquoson,Virginia,37.14259351,-76.35798148,6,0
Posey,Indiana,38.02097333,-87.86480429,6,0
Pottawatomie,Kansas,39.37925655,-96.34564657,6,0
Rice,Minnesota,44.3543376,-93.29658715,6,1
Roosevelt,Montana,48.29607488,-105.0079268,6,0
Salem,Virginia,37.2836193,-80.06219455,6,0
Saunders,Nebraska,41.2278103,-96.63773905,6,0
Searcy,Arkansas,35.9109364,-92.69936482,6,0
Shawano,Wisconsin,44.78902246,-88.76443896,6,0
Tillamook,Oregon,45.46248721,-123.712066,6,0
Tyler,Texas,30.77031716,-94.37690895,6,0
Uinta,Wyoming,41.2878183,-110.5475782,6,0
Union,Indiana,39.62550777,-84.92497066,6,0
Uvalde,Texas,29.35739637,-99.76229172,6,0
Venango,Pennsylvania,41.40323442,-79.75845449,6,0
Warren,Indiana,40.34728141,-87.35602659,6,1
Washington,Illinois,38.35309213,-89.40982703,6,0
Wayne,Kentucky,36.80310688,-84.8251971,6,0
Weakley,Tennessee,36.29896232,-88.71990865,6,0
White,Indiana,40.74911165,-86.86492015,6,0
Wood,Texas,32.78722382,-95.38236368,6,0
York,Nebraska,40.87272618,-97.59710186,6,0
Zapata,Texas,27.00156391,-99.16987152,6,0
Ashland,Ohio,40.84772277,-82.27280781,5,0
Atkinson,Georgia,31.29633502,-82.87545866,5,0
Barnwell,South Carolina,33.26679302,-81.43584352,5,0
Baxter,Arkansas,36.28784385,-92.33782872,5,0
Bee,Texas,28.41761668,-97.74215593,5,0
Beltrami,Minnesota,47.97373527,-94.93732139,5,0
Benton,Mississippi,34.81681228,-89.18945516,5,0
Blanco,Texas,30.26640707,-98.3999852,5,0
Bryan,Oklahoma,33.96472458,-96.25903472,5,0
Buena Vista,Virginia,37.73484642,-79.35296097,5,0
Calumet,Wisconsin,44.0816316,-88.21780273,5,0
Candler,Georgia,32.40209349,-82.07702563,5,0
Carter,Tennessee,36.28969086,-82.12588974,5,1
Cedar,Missouri,37.72391475,-93.85445441,5,0
Charlton,Georgia,30.78371028,-82.13951596,5,0
Claiborne,Tennessee,36.48319149,-83.65947309,5,0
Clay,North Carolina,35.05704275,-83.74353633,5,0
Clay,South Dakota,42.91296147,-96.97656917,5,0
Clay,Tennessee,36.55151008,-85.53930419,5,0
Conway,Arkansas,35.26205537,-92.70506566,5,1
Cotton,Oklahoma,34.28845626,-98.37053567,5,0
Crawford,Illinois,39.0032229,-87.75954624,5,0
Decatur,Tennessee,35.60048904,-88.11043779,5,0
Ford,Illinois,40.59706922,-88.22350769,5,1
Fountain,Indiana,40.12361933,-87.24217689,5,2
Franklin,Illinois,37.99189086,-88.92567818,5,0
Fulton,Indiana,41.0469907,-86.26252745,5,0
Gibson,Indiana,38.30393723,-87.58054938,5,0
Giles,Tennessee,35.20222469,-87.03992678,5,0
Glades,Florida,26.95635849,-81.18996211,5,1
Goliad,Texas,28.65696592,-97.42760647,5,0
Hamilton,Texas,31.70470573,-98.11083887,5,0
Hart,Georgia,34.34626973,-82.96567682,5,0
Harvey,Kansas,38.04293782,-97.42747573,5,0
Haywood,North Carolina,35.55269063,-82.98196486,5,0
Holmes,Florida,30.86747479,-85.81319222,5,0
Howell,Missouri,36.77383887,-91.88683935,5,0
Hughes,South Dakota,44.39091534,-99.99661148,5,0
Isanti,Minnesota,45.56181234,-93.29487636,5,0
Jackson,North Carolina,35.28814273,-83.14093385,5,0
Jeff Davis,Georgia,31.80405727,-82.6372487,5,0
Jefferson,Idaho,43.82078483,-112.3131749,5,0
Jefferson,Kansas,39.2347941,-95.38289232,5,0
Kleberg,Texas,27.42435506,-97.69894948,5,1
Knox,Illinois,40.93148779,-90.2133034,5,0
La Paz,Arizona,33.72854224,-113.9810029,5,1
Lake,Montana,47.64514965,-114.0898013,5,0
Larue,Kentucky,37.54567114,-85.70138352,5,0
Le Flore,Oklahoma,34.89851864,-94.70392124,5,0
Leon,Texas,31.29872538,-95.9936328,5,0
Lincoln,Wyoming,42.26376367,-110.6563997,5,0
Linn,Missouri,39.87001769,-93.10704106,5,1
Lynn,Texas,33.17657705,-101.8162849,5,0
Lyon,Iowa,43.38107862,-96.20926845,5,0
Lyon,Minnesota,44.41327865,-95.83806103,5,0
Malheur,Oregon,43.1937027,-117.6227395,5,0
Marinette,Wisconsin,45.38553432,-88.033246,5,1
Marion,Kansas,38.35855394,-97.0985251,5,0
Martin,Indiana,38.7099921,-86.80373186,5,0
Mendocino,California,39.4381191,-123.3911313,5,0
Mercer,Illinois,41.20596782,-90.74290052,5,0
Mitchell,North Carolina,36.01059309,-82.1582442,5,0
Montague,Texas,33.67521893,-97.72500958,5,0
Morgan,Tennessee,36.13248031,-84.64880098,5,0
Morrow,Oregon,45.41846568,-119.584546,5,0
Nelson,Virginia,37.78790447,-78.88498513,5,0
Northampton,Virginia,37.34062933,-75.87751591,5,0
Northumberland,Virginia,37.89202088,-76.41949732,5,0
Ogemaw,Michigan,44.33481032,-84.12725175,5,0
Orange,Vermont,44.00470222,-72.37640104,5,0
Otter Tail,Minnesota,46.40846929,-95.70835255,5,0
Ouachita,Arkansas,33.58839816,-92.87795984,5,0
Ouray,Colorado,38.14717457,-107.7675136,5,1
Paulding,Ohio,41.11676341,-84.5801017,5,0
Pecos,Texas,30.78097267,-102.7241261,5,0
Pendleton,Kentucky,38.69607718,-84.35599463,5,0
Perry,Indiana,38.07809328,-86.63741946,5,0
Phillips,Colorado,40.59414277,-102.3577703,5,0
Polk,Nebraska,41.18813488,-97.56630712,5,0
Polk,Tennessee,35.12245443,-84.52075859,5,0
Ravalli,Montana,46.08520862,-114.1189164,5,0
Richland,North Dakota,46.26440649,-96.94852979,5,0
Rockbridge,Virginia,37.81204314,-79.44605905,5,0
Siskiyou,California,41.59198861,-122.5407434,5,0
Staunton,Virginia,38.15965544,-79.05979937,5,0
Stewart,Tennessee,36.50235092,-87.83920548,5,0
Tattnall,Georgia,32.04785085,-82.05539188,5,0
Taylor,Kentucky,37.3677562,-85.3329931,5,0
Taylor,West Virginia,39.33602617,-80.0421439,5,0
Turner,South Dakota,43.3109081,-97.14865776,5,0
Union,Illinois,37.47119609,-89.25548938,5,0
Union,South Dakota,42.83112163,-96.6557828,5,0
Vermillion,Indiana,39.8523352,-87.46160542,5,0
Walworth,South Dakota,45.43019636,-100.0307514,5,0
Washakie,Wyoming,43.90451606,-107.680187,5,0
Washington,Colorado,39.97015535,-103.202587,5,0
Washington,Florida,30.61359259,-85.66002461,5,0
Webster,Georgia,32.04066113,-84.54742852,5,0
Wells,Indiana,40.72934187,-85.22132966,5,0
Winneshiek,Iowa,43.29094334,-91.84422722,5,0
Woodson,Kansas,37.8865336,-95.74006277,5,0
Adams,Wisconsin,43.96974651,-89.76782777,4,1
Alleghany,Virginia,37.78636074,-80.00222498,4,0
Allen,Kentucky,36.75197631,-86.19457544,4,0
Ashe,North Carolina,36.43296207,-81.49862729,4,0
Atchison,Kansas,39.53185661,-95.30870026,4,0
Bandera,Texas,29.74619598,-99.24598147,4,0
Barbour,West Virginia,39.1307219,-80.00350858,4,0
Benton,Indiana,40.60626947,-87.31093999,4,0
Benton,Minnesota,45.69804958,-93.99514135,4,0
Benton,Tennessee,36.07110411,-88.06849355,4,0
Bon Homme,South Dakota,42.98914167,-97.88592746,4,0
Bond,Illinois,38.88829622,-89.43534887,4,1
Bonner,Idaho,48.29996017,-116.6017932,4,0
Boone,Iowa,42.03657094,-93.9313999,4,0
Broadwater,Montana,46.33277565,-111.4955813,4,0
Buffalo,Wisconsin,44.37835084,-91.75332578,4,1
Carbon,Wyoming,41.69357844,-106.9326084,4,0
Carter,Kentucky,38.31690743,-83.05092385,4,0
Cass,Minnesota,46.95043611,-94.32603968,4,0
Chariton,Missouri,39.51499357,-92.9629191,4,0
Charles Mix,South Dakota,43.20660134,-98.58856175,4,0
Cheyenne,Nebraska,41.21999357,-102.9941693,4,0
Clark,Illinois,39.33425789,-87.78705622,4,0
Colfax,Nebraska,41.57486951,-97.0868542,4,0
Colfax,New Mexico,36.60569702,-104.6472674,4,0
Columbia,Arkansas,33.21230701,-93.22642793,4,0
Cooke,Texas,33.63979567,-97.21240912,4,0
Cooper,Missouri,38.844478,-92.80896081,4,0
Crawford,Arkansas,35.58928601,-94.2446814,4,0
Crook,Wyoming,44.58855102,-104.5697705,4,0
Curry,Oregon,42.45911325,-124.157282,4,0
Echols,Georgia,30.71101099,-82.89687287,4,0
Effingham,Illinois,39.05935711,-88.58969584,4,1
Ellis,Kansas,38.91458712,-99.31751551,4,0
Faribault,Minnesota,43.67381499,-93.94787458,4,0
Fayette,Alabama,33.72076938,-87.73886638,4,0
Fayette,West Virginia,38.02974928,-81.08286634,4,0
Fentress,Tennessee,36.38128818,-84.92870012,4,0
Floyd,Kentucky,37.56213922,-82.74750924,4,0
Garrett,Maryland,39.52786077,-79.27355126,4,0
Gates,North Carolina,36.44667547,-76.69749701,4,0
Geneva,Alabama,31.09389027,-85.83572839,4,0
Gilchrist,Florida,29.72856978,-82.79880657,4,0
Giles,Virginia,37.31234791,-80.70636931,4,0
