county,state,Lat,Long_,Confirmed,Deaths
New York City,New York,40.7672726,-73.97152637,174331,18925
Cook,Illinois,41.84144849,-87.81658794,42324,1786
Nassau,New York,40.74066522,-73.58941873,36780,1770
Suffolk,New York,40.88320119,-72.8012172,34855,1256
Westchester,New York,41.16278376,-73.75741653,29884,1086
Los Angeles,California,34.30828379,-118.2282411,25699,1231
Wayne,Michigan,42.28098405,-83.281255,17298,1893
Bergen,New Jersey,40.96010917,-74.07164325,16185,1210
Hudson,New Jersey,40.73766234,-74.07515667,15769,845
Middlesex,Massachusetts,42.48607732,-71.39049229,15370,972
Philadelphia,Pennsylvania,40.00338507,-75.1379271,15137,638
Essex,New Jersey,40.78681335,-74.24657979,14521,1282
Suffolk,Massachusetts,42.3279514,-71.07850442,13777,588
Passaic,New Jersey,41.03238628,-74.29954144,13364,632
Union,New Jersey,40.65835409,-74.30680092,13225,738
Miami-Dade,Florida,25.6112362,-80.55170587,12775,369
Middlesex,New Jersey,40.43629879,-74.41426991,12597,639
Rockland,New York,41.15027894,-74.02560498,12025,519
Fairfield,Connecticut,41.26809896,-73.3881171,11801,865
Essex,Massachusetts,42.6687626,-70.94687179,9542,499
Orange,New York,41.40337468,-74.30240757,8967,329
New Haven,Connecticut,41.4080325,-72.93620426,8024,565
Oakland,Michigan,42.66090111,-83.38595416,7518,757
Prince George's,Maryland,38.83070039,-76.8496441,7333,277
Providence,Rhode Island,41.87064746,-71.57753536,7028,0
Ocean,New Jersey,39.8895449,-74.28089251,6871,440
Harris,Texas,29.86,-95.39,6838,133
Orleans,Louisiana,30.06971951,-89.92660315,6538,441
King,Washington,47.49137892,-121.8346131,6449,459
Jefferson,Louisiana,29.74075478,-90.11115756,6388,371
Monmouth,New Jersey,40.26549699,-74.22240686,6290,382
Worcester,Massachusetts,42.35026951,-71.90493363,6288,312
Norfolk,Massachusetts,42.16073095,-71.20530408,6280,550
Marion,Indiana,39.78163624,-86.13826325,6176,360
Hartford,Connecticut,41.80283011,-72.73103891,6112,741
Macomb,Michigan,42.69158356,-82.92752801,5756,628
Morris,New Jersey,40.86095313,-74.5455371,5517,449
Plymouth,Massachusetts,41.94070556,-70.80802823,5507,323
Broward,Florida,26.15184651,-80.48725556,5312,207
Montgomery,Maryland,39.13676329,-77.20358245,5150,295
Washington,D.C.,38.90417773,-77.01655992,5016,251
Maricopa,Arizona,33.34835867,-112.4918154,4585,147
Montgomery,Pennsylvania,40.21053671,-75.36652296,4552,381
Mercer,New Jersey,40.28047017,-74.70479631,4504,255
Fairfax,Virginia,38.83677558,-77.27565836,4340,184
Clark,Nevada,36.21458855,-115.0130241,4274,218
Riverside,California,33.74314981,-115.9933578,4180,161
Lake,Illinois,42.3224907,-88.00367925,4161,145
Dallas,Texas,32.76670599,-96.7779605,4133,111
Delaware,Pennsylvania,39.91680171,-75.40243663,4113,255
Hampden,Massachusetts,42.13440424,-72.63235561,4066,398
Bristol,Massachusetts,41.79228404,-71.10872211,4019,198
Camden,New Jersey,39.80343818,-74.96388753,3973,163
San Diego,California,33.03484597,-116.7365326,3927,139
Erie,New York,42.76249024,-78.73063652,3710,266
Somerset,New Jersey,40.56465737,-74.61683016,3703,295
DuPage,Illinois,41.85116968,-88.08642662,3611,192
St. Louis,Missouri,38.6377004,-90.4458375,3433,177
Denver,Colorado,39.76018276,-104.8725695,3345,166
Baltimore,Maryland,39.45784712,-76.62911955,3301,147
Bucks,Pennsylvania,40.33682119,-75.10836643,3286,240
Milwaukee,Wisconsin,43.00486062,-87.96733172,3244,195
Palm Beach,Florida,26.64676272,-80.46536002,3130,196
Dutchess,New York,41.7648606,-73.74356679,3086,37
Burlington,New Jersey,39.87681124,-74.66927768,3043,149
Fulton,Georgia,33.79216944,-84.46319413,2979,124
Lehigh,Pennsylvania,40.6154815,-75.59435245,2924,83
Franklin,Ohio,39.96995815,-83.01115755,2905,79
Davidson,Tennessee,36.17007426,-86.78646056,2904,28
Berks,Pennsylvania,40.41570541,-75.92457766,2886,118
Will,Illinois,41.44619267,-87.97862712,2868,162
Shelby,Tennessee,35.1864775,-89.89692423,2815,55
Orange,California,33.70147516,-117.7645998,2743,52
Salt Lake,Utah,40.66616532,-111.9216011,2707,31
Arapahoe,Colorado,39.64977461,-104.3353617,2706,156
Snohomish,Washington,48.04615983,-121.7170703,2509,109
Tarrant,Texas,32.77143818,-97.29101614,2503,71
Sussex,Delaware,38.66143781,-75.39031349,2461,68
Cuyahoga,Ohio,41.424119,-81.65918339,2338,120
Marion,Ohio,40.58610662,-83.15736305,2329,4
Baltimore City,Maryland,39.30211911,-76.61151012,2319,129
Luzerne,Pennsylvania,41.17823008,-75.98447579,2240,97
Santa Clara,California,37.23104908,-121.6970462,2231,115
Northampton,Pennsylvania,40.75182733,-75.30471829,2214,94
DeKalb,Georgia,33.76944049,-84.22396017,2183,53
San Bernardino,California,34.84060306,-116.1774685,2182,97
Hennepin,Minnesota,45.00761521,-93.47694895,2151,277
Minnehaha,South Dakota,43.67441641,-96.7910885,2142,16
East Baton Rouge,Louisiana,30.53842039,-91.09777565,2086,153
Lake,Indiana,41.41874274,-87.38277575,2036,95
Prince William,Virginia,38.70916224,-77.48713689,2026,30
Gwinnett,Georgia,33.96044201,-84.02137802,1976,58
Anne Arundel,Maryland,39.00670238,-76.60329337,1959,96
Lancaster,Pennsylvania,40.03904563,-76.24770128,1936,173
Kane,Illinois,41.93842729,-88.42861412,1935,57
New Castle,Delaware,39.57992638,-75.64054974,1903,79
Weld,Colorado,40.55499405,-104.3929621,1872,100
Michigan Department of Corrections (MDOC),Michigan,,,1844,42
Kent,Michigan,43.03197711,-85.54934642,1786,39
Adams,Colorado,39.87432092,-104.3362578,1780,68
Cobb,Georgia,33.94243204,-84.5761255,1768,97
Travis,Texas,30.33432034,-97.7853562,1756,52
Alameda,California,37.64629437,-121.8929271,1749,63
Pickaway,Ohio,39.64170392,-83.0243386,1729,22
Mecklenburg,North Carolina,35.24469268,-80.8317671,1724,49
Hall,Georgia,34.32207823,-83.81896936,1700,23
Genesee,Michigan,43.02244215,-83.70589709,1634,196
Caddo,Louisiana,32.57991587,-93.88375652,1610,114
San Francisco,California,37.75215114,-122.4385672,1602,29
Bexar,Texas,29.44928723,-98.52019748,1585,48
Monroe,New York,43.14638895,-77.69322942,1566,121
Dougherty,Georgia,31.53328528,-84.21722377,1536,124
Chester,Pennsylvania,39.97291773,-75.74768357,1502,117
Polk,Iowa,41.68679484,-93.57767461,1476,40
Orange,Florida,28.51367621,-81.31799498,1434,35
Jefferson,Colorado,39.58635604,-105.2517692,1405,83
Jefferson,Kentucky,38.18664655,-85.65931031,1403,95
Pierce,Washington,47.03892768,-122.1405958,1393,50
Gloucester,New Jersey,39.71581067,-75.13995546,1384,51
Hamilton,Ohio,39.19673558,-84.54502924,1380,80
Lucas,Ohio,41.62101218,-83.65468618,1376,119
Brown,Wisconsin,44.4526553,-88.00411844,1358,6
Trousdale,Tennessee,36.39026213,-86.16087954,1346,1
Allegheny,Pennsylvania,40.46809875,-79.98167747,1345,102
Ulster,New York,41.89027881,-74.26252104,1341,37
Pima,Arizona,32.0971334,-111.7890033,1326,81
St. Tammany,Louisiana,30.40942847,-89.95642711,1325,114
Black Hawk,Iowa,42.4704581,-92.30524729,1306,15
St. Louis City,Missouri,38.63555736,-90.24349225,1304,70
Yakima,Washington,46.45738486,-120.7380126,1296,47
Cass,Indiana,40.76135835,-86.34830753,1293,2
Hillsborough,Florida,27.9276559,-82.32013172,1281,27
Albany,New York,42.60060306,-73.97723916,1258,49
Hall,Nebraska,40.87257079,-98.50218293,1256,28
San Mateo,California,37.4228808,-122.3275546,1233,51
Mobile,Alabama,30.78472347,-88.20842409,1198,62
Monroe,Pennsylvania,41.05934058,-75.34031025,1172,55
McKinley,New Mexico,35.5800772,-108.262245,1144,21
Fort Bend,Texas,29.52704478,-95.77219463,1133,27
Lee,Florida,26.58410348,-81.88399313,1118,45
Sacramento,California,38.45106826,-121.3425374,1117,42
Washtenaw,Michigan,42.253105,-83.83853204,1113,71
Woodbury,Iowa,42.38979414,-96.0459439,1112,2
Hillsborough,New Hampshire,42.91537785,-71.7200253,1109,31
Arlington,Virginia,38.8767675,-77.10139853,1106,46
Atlantic,New Jersey,39.47538693,-74.65848483,1075,49
Utah,Utah,40.1166722,-111.6657662,1073,9
Out of GA,Georgia,,,1054,14
Duval,Florida,30.33225875,-81.66976468,1045,24
Litchfield,Connecticut,41.7937534,-73.2451475,1036,89
Putnam,New York,41.42630093,-73.74965532,1013,7
Kern,California,35.34329425,-118.7277796,1005,8
Frederick,Maryland,39.47296601,-77.39999394,1004,61
Lackawanna,Pennsylvania,41.43564672,-75.60379201,999,86
El Paso,Colorado,38.83240149,-104.5251411,994,75
El Paso,Texas,31.76980765,-106.2363275,986,22
Dakota,Nebraska,42.39040144,-96.56656425,980,1
Washoe,Nevada,40.66562265,-119.6631594,977,33
Howard,Maryland,39.25305293,-76.93126208,969,20
Jefferson,Alabama,33.55554728,-86.895063,969,48
Sussex,New Jersey,41.13891592,-74.69118243,969,115
Richland,South Carolina,34.01791263,-80.90267209,964,40
Warren,New Jersey,40.85951833,-74.99556527,957,86
Henrico,Virginia,37.53460572,-77.39326555,954,105
Onondaga,New York,43.00491923,-76.19971155,952,34
Sullivan,New York,41.71579493,-74.76394559,951,22
Barnstable,Massachusetts,41.72980578,-70.28854339,946,47
Contra Costa,California,37.91923498,-121.9289527,945,28
Nobles,Minnesota,43.67434621,-95.75329576,940,1
Mahoning,Ohio,41.01631101,-80.77287029,937,83
Loudoun,Virginia,39.08990083,-77.63481877,931,16
Bernalillo,New Mexico,35.05163625,-106.6703554,920,40
Alexandria,Virginia,38.814003,-77.08183073,899,26
Wake,North Carolina,35.78879266,-78.65249174,887,19
Cumberland,New Jersey,39.37199394,-75.10712559,881,17
Douglas,Nebraska,41.29518299,-96.15085305,878,14
Rockingham,New Hampshire,42.98499744,-71.12883377,862,16
Oklahoma,Oklahoma,35.55140095,-97.40716948,838,33
Wyandotte,Kansas,39.11727348,-94.76378225,826,55
Hamilton,Indiana,40.07306535,-86.05244729,824,69
Lincoln,Arkansas,33.95317155,-91.74002806,822,4
Kent,Delaware,39.08646628,-75.56884914,821,30
Ford,Kansas,37.69200114,-99.88825298,815,2
Denton,Texas,33.20521901,-97.11691153,799,22
Clayton,Georgia,33.54187245,-84.35594188,793,33
Collin,Texas,33.18820114,-96.57264368,784,22
Navajo,Arizona,35.3997715,-110.3218983,777,21
St. John the Baptist,Louisiana,30.12597499,-90.4753503,772,71
Ouachita,Louisiana,32.47645559,-92.15704172,770,22
Durham,North Carolina,36.03638492,-78.87608331,767,24
Pinellas,Florida,27.93130349,-82.72239666,766,41
Potter,Texas,35.40133773,-101.893964,766,9
Hendricks,Indiana,39.76719009,-86.51037283,764,41
Greenville,South Carolina,34.89502264,-82.37295012,757,40
Tulare,California,36.22026558,-118.8020203,743,40
Multnomah,Oregon,45.54747959,-122.4169351,739,46
McHenry,Illinois,42.32451172,-88.45248227,738,37
San Juan,New Mexico,36.50838318,-108.320437,736,57
Lebanon,Pennsylvania,40.36680311,-76.45651841,735,10
Linn,Iowa,42.07923082,-91.59809485,731,47
Saginaw,Michigan,43.33433923,-84.0513121,720,66
Middlesex,Connecticut,41.45949668,-72.53714864,707,91
Johnson,Indiana,39.48994426,-86.10149107,706,72
Ada,Idaho,43.4526575,-116.2415516,705,17
Summit,Ohio,41.12464734,-81.53123079,701,58
Kent,Rhode Island,41.67106337,-71.57641596,697,0
York,Pennsylvania,39.9210089,-76.73040131,679,11
Wayne,North Carolina,35.36438125,-78.00027268,677,11
Lafourche,Louisiana,29.52470226,-90.40976986,669,52
Boulder,Colorado,40.09313619,-105.3546767,661,44
Hunterdon,New Jersey,40.56335249,-74.91284156,661,37
St. Joseph,Indiana,41.61756781,-86.29040834,658,20
Sumner,Tennessee,36.46824103,-86.45917204,653,38
Ascension,Louisiana,30.20406249,-90.9132841,644,40
Collier,Florida,26.11091986,-81.34687065,640,21
Charles,Maryland,38.51092331,-76.98580666,637,50
Dauphin,Pennsylvania,40.41377078,-76.77993242,634,28
Montgomery,Texas,30.30079133,-95.50572772,634,14
Fresno,California,36.75733899,-119.6466953,633,8
Galveston,Texas,29.40167322,-94.90469073,629,28
Tulsa,Oklahoma,36.11939621,-95.94013939,628,34
New London,Connecticut,41.48896435,-72.10430976,623,43
Allen,Indiana,41.09194313,-85.06800636,619,54
Manatee,Florida,27.47196942,-82.31831044,619,59
Kansas City,Missouri,39.0997,-94.5786,609,16
St. Charles,Missouri,38.77875681,-90.66662425,608,41
Cass,North Dakota,46.93201724,-97.2444719,605,12
Marshall,Iowa,42.03586837,-92.9990819,603,2
Chesterfield,Virginia,37.37373208,-77.5868014,601,24
Bledsoe,Tennessee,35.59942968,-85.20611967,598,0
Escambia,Florida,30.67652764,-87.37284571,593,13
Stearns,Minnesota,45.55192576,-94.61078221,589,0
Tangipahoa,Louisiana,30.62888673,-90.40664996,584,23
St. Charles,Louisiana,29.90709658,-90.35555967,582,40
Rutherford,Tennessee,35.84591405,-86.4107263,579,11
Winnebago,Illinois,42.33641854,-89.16085327,579,16
San Joaquin,California,37.93433732,-121.2730061,570,25
Ventura,California,34.44465746,-119.0910613,566,19
Hampshire,Massachusetts,42.33997957,-72.65898478,559,36
Eagle,Colorado,39.62754308,-106.6933637,551,7
Finney,Kansas,38.04340344,-100.7381938,550,3
Pulaski,Arkansas,34.77054088,-92.31355101,550,19
Cumberland,Maine,43.8370751,-70.37226999,549,28
Lubbock,Texas,33.61008596,-101.8204789,549,44
Seward,Kansas,37.19324632,-100.8507201,547,0
Marion,Oregon,44.90287942,-122.5815117,544,19
Dawson,Nebraska,40.87028216,-99.8201461,543,0
Brazoria,Texas,29.18757369,-95.44563172,542,6
Dallas,Iowa,41.68560356,-94.04127625,537,0
St. Clair,Illinois,38.46996033,-89.93063427,537,33
Kenosha,Wisconsin,42.57639354,-88.04051686,534,14
Coconino,Arizona,35.83883429,-111.7707178,527,44
Schenectady,New York,42.81668777,-74.05278291,527,27
Apache,Arizona,35.39465006,-109.4892383,526,6
Douglas,Colorado,39.33133796,-104.930001,526,23
Polk,Florida,27.95027105,-81.69732947,523,26
Henry,Georgia,33.4533428,-84.1481466,520,13
Benton,Washington,46.23946995,-119.5120834,518,44
Washington,Oregon,45.55972701,-123.0955257,516,11
Santa Barbara,California,34.65329488,-120.0188492,514,8
Volusia,Florida,29.05858895,-81.18263252,513,26
Osceola,Florida,28.06312234,-81.14882926,509,8
Hinds,Mississippi,32.2656285,-90.44435448,507,8
Ingham,Michigan,42.59716886,-84.37472069,506,13
Johnson,Iowa,41.67169354,-91.58754744,498,6
Johnson,Kansas,38.88548175,-94.82250877,498,42
Leavenworth,Kansas,39.20183497,-95.03620809,498,5
Blaine,Idaho,43.4085812,-113.9752658,497,5
Carroll,Maryland,39.56453592,-77.02373735,494,46
Ramsey,Minnesota,45.01625271,-93.09872295,493,34
Cherokee,Georgia,34.24393976,-84.47431861,490,13
Lorain,Ohio,41.29553751,-82.15083537,490,35
Oneida,New York,43.24375382,-75.43710392,489,17
Harford,Maryland,39.55010644,-76.3077594,479,16
Harrisonburg,Virginia,38.43542574,-78.87536254,478,16
Iberville,Louisiana,30.25734305,-91.3499598,476,32
St. Bernard,Louisiana,29.87761636,-89.51887093,475,20
Niagara,New York,43.19898042,-78.74777412,474,25
Wicomico,Maryland,38.37301947,-75.62705831,473,10
Lafayette,Louisiana,30.2049055,-92.06959876,466,20
Tolland,Connecticut,41.85853803,-72.3308481,461,39
Terrebonne,Louisiana,29.37343766,-90.82626855,459,33
Charleston,South Carolina,32.82487866,-79.96512315,457,7
Kalamazoo,Michigan,42.24542231,-85.53038622,456,18
Pinal,Arizona,32.90525627,-111.3449483,456,13
Calcasieu,Louisiana,30.22931235,-93.35400434,455,31
Berkshire,Massachusetts,42.37428441,-73.20524838,451,36
Guilford,North Carolina,36.07959451,-79.78824948,439,31
Madison,Indiana,40.16143691,-85.71964711,439,52
Dane,Wisconsin,43.06601594,-89.41733797,436,22
Rock Island,Illinois,41.46613806,-90.57042164,436,9
Beaver,Pennsylvania,40.6825484,-80.34921611,435,68
Racine,Wisconsin,42.74753117,-88.05941254,435,13
Cameron,Texas,26.14524221,-97.48140372,432,18
Cleveland,Oklahoma,35.20413532,-97.32519562,432,29
Williamson,Tennessee,35.89099229,-86.89281867,427,9
Sedgwick,Kansas,37.6842718,-97.4608198,426,13
Chittenden,Vermont,44.46322849,-73.08359212,423,36
Lexington,South Carolina,33.89665987,-81.27146426,420,17
Richmond,Georgia,33.35777107,-82.07026432,417,16
Sandoval,New Mexico,35.68862401,-106.8687803,416,19
Virginia Beach,Virginia,36.73285734,-76.04566934,413,15
Stanislaus,California,37.55862499,-120.9970722,411,14
Montgomery,Alabama,32.2206831,-86.20969272,409,7
Pike,Pennsylvania,41.33155042,-75.03208106,405,16
Richmond City,Virginia,37.53255773,-77.47966921,403,16
Westmoreland,Pennsylvania,40.3137798,-79.46615476,401,26
Accomack,Virginia,37.76707161,-75.63234615,400,6
Honolulu,Hawaii,21.45803166,-157.9712182,400,11
Lee,Alabama,32.60154883,-85.35132246,400,28
Moore,Texas,35.83769242,-101.8930281,399,6
Morgan,Colorado,40.2627981,-103.8093302,399,20
Stark,Ohio,40.81482476,-81.36437305,398,53
Larimer,Colorado,40.66671597,-105.4625784,395,18
Schuylkill,Pennsylvania,40.70497338,-76.2150785,395,7
Seminole,Florida,28.7158582,-81.24060348,394,8
Rowan,North Carolina,35.64003916,-80.52446628,388,25
Sumter,Georgia,32.03650571,-84.19821492,388,28
Carroll,Georgia,33.58138199,-85.07976677,386,14
Webb,Texas,27.7610369,-99.33237355,385,16
Lauderdale,Mississippi,32.40419769,-88.66229662,380,26
Chatham,North Carolina,35.70394416,-79.25541492,378,9
Sarasota,Florida,27.18546175,-82.33174248,377,47
Summit,Utah,40.86688146,-110.9535882,376,0
Cumberland,Pennsylvania,40.1625372,-77.26130755,373,18
Muscatine,Iowa,41.48370744,-91.1121697,372,16
Spokane,Washington,47.62113146,-117.4046494,369,22
Warren,Kentucky,36.99903045,-86.42672751,369,1
Madison,Illinois,38.83042506,-89.90422563,365,24
Franklin,Washington,46.53351425,-118.9018212,363,11
Saratoga,New York,43.10904162,-73.86653895,363,11
Jackson,Michigan,42.24807035,-84.42258681,361,24
Livingston,Michigan,42.60302282,-83.91297209,361,19
Waukesha,Wisconsin,43.01833055,-88.30431188,360,20
Imperial,California,33.0393082,-115.3669042,358,9
Kankakee,Illinois,41.13746989,-87.86205334,358,26
Scott,Mississippi,32.4067041,-89.53789439,358,2
Washington,Rhode Island,41.45961631,-71.61435303,356,0
Skagit,Washington,48.48171488,-121.766131,354,13
Franklin,Pennsylvania,39.92956518,-77.72157791,351,8
Taylor,Texas,32.30163422,-99.89007449,348,5
Cape May,New Jersey,39.15008829,-74.80170244,344,24
Habersham,Georgia,34.63331566,-83.53094677,343,8
Jackson,Missouri,39.01002188,-94.34724536,342,14
Marshall,Alabama,34.36975964,-86.30486727,342,7
Douglas,Georgia,33.70291126,-84.77026156,341,11
Hidalgo,Texas,26.39418217,-98.18299696,340,6
Florence,South Carolina,34.02361754,-79.70189312,336,16
St. Clair,Michigan,42.92655373,-82.67937954,335,21
Forsyth,Georgia,34.22604035,-84.1231513,332,10
Clark,Indiana,38.48015445,-85.70510334,331,16
Trumbull,Ohio,41.31735028,-80.76109643,331,31
Lancaster,Nebraska,40.78416049,-96.68777155,330,1
Butler,Ohio,39.44012838,-84.57388716,328,7
Clark,Washington,45.77568046,-122.4829204,328,19
Lee,Georgia,31.7793306,-84.14324253,328,20
Muscogee,Georgia,32.50931999,-84.87142262,328,7
Broome,New York,42.15903158,-75.81326086,327,22
Shelby,Alabama,33.26879845,-86.66232561,327,13
Bartow,Georgia,34.23732119,-84.83887523,325,31
Bibb,Georgia,32.80904227,-83.70489165,323,11
Williamson,Texas,30.64655664,-97.6004854,323,10
Rensselaer,New York,42.71348136,-73.51089874,322,11
Ottawa,Michigan,42.95996803,-85.9969107,321,16
Jefferson,Texas,29.8832777,-94.16434171,319,22
Mitchell,Georgia,31.22483255,-84.19381821,319,31
Montgomery,Ohio,39.75394919,-84.29050975,316,10
Whatcom,Washington,48.82227976,-121.7490018,316,28
Cabarrus,North Carolina,35.3877799,-80.55267168,313,12
Elkhart,Indiana,41.59761169,-85.85875695,311,12
Monroe,Michigan,41.92734151,-83.53749864,311,12
Out of TN,Tennessee,,,311,1
Brevard,Florida,28.29409504,-80.73091022,308,8
Kenton,Kentucky,38.93950319,-84.53241199,308,20
Spartanburg,South Carolina,34.92960077,-81.99225984,308,12
Kendall,Illinois,41.59081014,-88.42869583,305,6
Muskegon,Michigan,43.29123859,-86.15176712,305,17
Berrien,Michigan,41.95447397,-86.4131308,300,18
Chambers,Alabama,32.91360079,-85.39072749,300,21
Davis,Utah,40.99001837,-112.1139997,300,2
DeSoto,Mississippi,34.87625235,-89.99091418,298,4
Walker,Texas,30.73872995,-95.57440968,298,2
Bossier,Louisiana,32.67932307,-93.60460152,295,17
Tallapoosa,Alabama,32.86698258,-85.79833053,295,18
Olmsted,Minnesota,44.00374114,-92.40209944,293,8
Columbia,Pennsylvania,41.04821986,-76.40565017,291,13
Logan,Colorado,40.7249637,-103.110817,291,1
Cumberland,North Carolina,35.04762133,-78.82623165,289,8
Fayette,Kentucky,38.0368225,-84.45576892,287,9
Alachua,Florida,29.67866525,-82.35928158,286,5
Tama,Iowa,42.07991767,-92.53266945,286,8
Jefferson,Missouri,38.25926778,-90.53870896,285,10
Washington,Louisiana,30.85288548,-90.03866652,285,21
Anoka,Minnesota,45.27476015,-93.24604565,281,17
Rapides,Louisiana,31.19778499,-92.52997303,281,10
Chesapeake,Virginia,36.67670048,-76.30545744,279,9
Clay,Florida,29.98319144,-81.85609986,279,18
Columbiana,Ohio,40.76932373,-80.78094576,278,24
Pasco,Florida,28.30810945,-82.40227529,278,8
Louisa,Iowa,41.21842119,-91.26102611,277,2
Washington,Oklahoma,36.71380786,-95.90514104,273,23
Wilson,Tennessee,36.15496772,-86.29775884,273,5
Madison,Mississippi,32.63389156,-90.03513564,272,9
Stafford,Virginia,38.41758738,-77.45917053,271,2
Beaufort,South Carolina,32.39226291,-80.72619758,270,11
Randall,Texas,34.96585996,-101.8971322,270,3
Salem,New Jersey,39.58719656,-75.3469663,270,13
Franklin,Massachusetts,42.58119713,-72.58602547,269,37
Bartholomew,Indiana,39.20744865,-85.89558181,268,14
Forsyth,North Carolina,36.12859861,-80.25459052,267,5
Grand Forks,North Dakota,47.92093639,-97.45450447,267,0
Iberia,Louisiana,29.86803617,-91.75871777,267,23
Jackson,Mississippi,30.54020656,-88.64184064,267,7
Manassas,Virginia,38.7464321,-77.48509905,266,1
Solano,California,38.26827353,-121.9357113,266,5
Rockingham,Virginia,38.51006137,-78.87260325,265,1
Union,North Carolina,34.98960527,-80.52955873,263,12
Rock,Wisconsin,42.67151616,-89.071479,262,7
Canyon,Idaho,43.61970148,-116.7095499,258,7
St. Lucie,Florida,27.37763908,-80.47106649,257,24
Porter,Indiana,41.45986947,-87.06848888,252,7
Sonoma,California,38.52746429,-122.8862506,252,2
LaPorte,Indiana,41.54366008,-86.74072188,251,8
Sumter,South Carolina,33.91826534,-80.37942316,251,12
St. James,Louisiana,30.02531716,-90.80212061,250,20
Charlotte,Florida,26.90131002,-81.92949121,249,25
Lyon,Kansas,38.45576156,-96.15275715,248,1
Portage,Ohio,41.16793482,-81.19735782,247,41
Kershaw,South Carolina,34.33988254,-80.58763164,245,10
St. Martin,Louisiana,30.13112107,-91.61403569,244,18
Knox,Tennessee,35.99508821,-83.94635435,243,5
Houston,Georgia,32.45802497,-83.66879087,242,14
Scott,Iowa,41.63935978,-90.61959493,241,7
Marin,California,38.07122463,-122.7210631,240,13
Livingston,Louisiana,30.44143993,-90.73061664,238,16
Randolph,North Carolina,35.71015088,-79.80570339,238,3
Calhoun,Michigan,42.24633834,-85.00493569,237,15
Monterey,California,36.21862405,-121.2413397,235,6
Chatham,Georgia,32.00043026,-81.12489526,234,9
Lake,Florida,28.76202069,-81.7125123,234,13
Leon,Florida,30.45955727,-84.27491114,234,4
Madison,Alabama,34.76327133,-86.55069633,234,4
Baldwin,Georgia,33.06882326,-83.24701748,233,8
Leake,Mississippi,32.7536828,-89.52402044,233,2
Forrest,Mississippi,31.18961454,-89.25832496,232,14
Washington,Maryland,39.60835778,-77.82002295,232,6
Coweta,Georgia,33.35334302,-84.76129976,230,4
Hancock,Indiana,39.82304555,-85.77566351,230,11
Upson,Georgia,32.87920671,-84.30024826,230,20
Buchanan,Missouri,39.65816401,-94.80138942,229,1
Clarendon,South Carolina,33.66610974,-80.21647898,229,22
Horry,South Carolina,33.9212828,-78.99555293,226,17
Orange,North Carolina,36.06092947,-79.12167935,226,18
Sumter,Florida,28.70181754,-82.0794267,226,14
Clackamas,Oregon,45.18787398,-122.2179634,225,7
Shelby,Indiana,39.52305623,-85.7915857,222,12
Norfolk,Virginia,36.89934014,-76.26420872,221,4
York,South Carolina,34.97281497,-81.18085944,221,3
Early,Georgia,31.32155345,-84.90255207,219,20
Spalding,Georgia,33.26310031,-84.28013991,219,10
Steuben,New York,42.2689144,-77.3829924,218,37
Tuscaloosa,Alabama,33.28726072,-87.52556818,218,2
Daviess,Kentucky,37.73028906,-87.0901948,217,4
York,Maine,43.47808377,-70.71052375,215,7
Neshoba,Mississippi,32.75339664,-89.11726492,214,4
Saline,Nebraska,40.52418865,-97.14085859,212,0
St. Johns,Florida,29.90096506,-81.43589967,211,4
Windham,Connecticut,41.82972709,-71.98182316,211,2
Columbia,New York,42.24819348,-73.63089095,209,13
Brazos,Texas,30.6636448,-96.30205577,208,16
Newton,Georgia,33.55514538,-83.8454714,208,7
Sangamon,Illinois,39.75836914,-89.65872023,208,11
Hopkins,Kentucky,37.30939025,-87.54670406,206,22
St. Mary,Louisiana,29.69262097,-91.44702164,205,23
Adams,Nebraska,40.5244942,-98.50117804,203,3
Floyd,Indiana,38.32117957,-85.90385377,203,17
Dakota,Minnesota,44.67172617,-93.06299363,202,11
Decatur,Indiana,39.30712658,-85.50087166,202,28
Martin,Florida,27.0772071,-80.43109784,202,6
Henderson,North Carolina,35.33788927,-82.4766782,201,21
Robeson,North Carolina,34.64244496,-79.1025053,201,3
San Luis Obispo,California,35.38822029,-120.4039028,201,1
Texas,Oklahoma,36.74777635,-101.4889765,201,2
Bedford,Tennessee,35.51123746,-86.45549096,200,3
Delaware,Indiana,40.22787247,-85.39732772,200,15
Rankin,Mississippi,32.26469147,-89.94537876,200,6
Saline,Missouri,39.13734288,-93.20259964,199,0
Boone,Indiana,40.0509304,-86.46841646,198,23
De Soto,Louisiana,32.05457447,-93.74130302,198,12
Lee,North Carolina,35.47623147,-79.17569362,198,0
Assumption,Louisiana,29.89946234,-91.06461642,197,6
Crittenden,Arkansas,35.21247318,-90.30839406,197,5
Walworth,Wisconsin,42.66858202,-88.54163073,197,8
Twin Falls,Idaho,42.35440512,-114.6685381,196,11
Merrimack,New Hampshire,43.29662971,-71.6811573,195,3
Paulding,Georgia,33.91969522,-84.86848792,195,8
Rockdale,Georgia,33.65145002,-84.02202167,195,6
Bell,Texas,31.03736027,-97.4785025,194,3
Jasper,Iowa,41.68576082,-93.05567785,193,1
Thomas,Georgia,30.86392347,-83.91847289,192,19
Culpeper,Virginia,38.48199985,-77.9563087,191,3
Howard,Indiana,40.48527731,-86.11351892,191,9
Suffolk,Virginia,36.70155394,-76.63603554,190,14
Cecil,Maryland,39.56647682,-75.94627411,188,9
Colquitt,Georgia,31.18810588,-83.7677946,188,10
Warren,New York,43.56173026,-73.8433699,188,0
Anchorage,Alaska,61.14998174,-149.1426986,187,4
Baldwin,Alabama,30.72774991,-87.72207058,187,4
Wood,Ohio,41.36224827,-83.62285108,187,23
Berkeley,South Carolina,33.20222596,-79.94654523,186,11
Spotsylvania,Virginia,38.18574462,-77.655399,186,4
St. Landry,Louisiana,30.59724262,-92.00135806,186,45
Terrell,Georgia,31.77527543,-84.44069698,186,19
Washington,New York,43.31153794,-73.43043448,186,6
Jefferson,Arkansas,34.26767081,-91.92619839,184,17
Marion,Florida,29.21227113,-82.05803627,184,5
Shiawassee,Michigan,42.953928,-84.14585902,184,12
Carbon,Pennsylvania,40.91545395,-75.7068525,183,15
Fayette,Georgia,33.41357794,-84.49089434,183,10
Portsmouth,Virginia,36.85914825,-76.35971629,183,8
Harrison,Mississippi,30.51359752,-89.12467576,181,6
Butler,Pennsylvania,40.91152759,-79.91351055,180,6
Davidson,North Carolina,35.79115496,-80.21256572,180,8
Plaquemines,Louisiana,29.42245447,-89.60322085,180,17
Randolph,Illinois,38.05095369,-89.82512254,179,1
Robertson,Tennessee,36.52454807,-86.87346725,179,0
Champaign,Illinois,40.13919438,-88.20046615,177,6
Pearl River,Mississippi,30.77090935,-89.58677275,177,20
St. Lawrence,New York,44.4976179,-75.06550039,177,0
Clay,Minnesota,46.89289518,-96.48761922,176,13
Delaware,Ohio,40.27942393,-83.00457058,175,4
Monroe,Mississippi,33.89236763,-88.4808438,175,16
Wilson,North Carolina,35.70625477,-77.917978,175,7
Harnett,North Carolina,35.36731853,-78.87243571,174,8
Johnston,North Carolina,35.51745004,-78.36622717,174,15
Hamilton,Tennessee,35.17670231,-85.16652245,172,13
Jones,Mississippi,31.62257767,-89.168969,172,2
Lake,Ohio,41.69710807,-81.23676539,172,8
Medina,Ohio,41.11770589,-81.8998621,172,16
Nacogdoches,Texas,31.62017125,-94.61803994,172,7
Anderson,South Carolina,34.51828081,-82.63959517,171,8
Lapeer,Michigan,43.09052506,-83.22153148,171,26
Yolo,California,38.68278902,-121.9018288,171,17
Boone,Kentucky,38.97065142,-84.72615357,170,2
Grant,Washington,47.20753737,-119.4500749,170,3
Crisp,Georgia,31.92289565,-83.76811843,169,3
Island,Washington,48.14713305,-122.5216407,169,9
Leflore,Mississippi,33.55545125,-90.29900733,168,17
Warren,Ohio,39.42581994,-84.16557457,168,11
Hays,Texas,30.05669873,-98.02944344,167,1
Kanawha,West Virginia,38.33860077,-81.52857054,167,9
Kandiyohi,Minnesota,45.1526059,-95.00586446,167,1
Weber-Morgan,Utah,41.27116049,-111.9145117,167,2
Columbus,North Carolina,34.26744084,-78.65801424,166,10
Ellis,Texas,32.34894117,-96.79371841,166,6
Broomfield,Colorado,39.95998787,-105.0566324,165,12
Gunnison,Colorado,38.66611652,-107.0320729,165,5
Jackson,Indiana,38.9091582,-86.03851889,165,1
St. Mary's,Maryland,38.30058422,-76.6062928,165,7
Columbia,Georgia,33.54534185,-82.263524,164,4
Belmont,Ohio,40.01625942,-80.9924051,163,7
Geauga,Ohio,41.49952319,-81.17935342,163,13
James City,Virginia,37.31156958,-76.76950618,163,13
Morgan,Indiana,39.47899078,-86.44573375,163,6
Randolph,Georgia,31.76622818,-84.75732369,163,19
Calvert,Maryland,38.53961642,-76.56820632,162,11
Coryell,Texas,31.39078397,-97.79936155,162,2
Lincoln,South Dakota,43.27841182,-96.7203905,162,0
Worth,Georgia,31.55162306,-83.85090513,162,11
Colfax,Nebraska,41.57486951,-97.0868542,161,0
Holmes,Mississippi,33.12345854,-90.08923538,161,9
Okaloosa,Florida,30.69143028,-86.59267105,160,5
Barrow,Georgia,33.99148694,-83.71436292,159,4
Berkeley,West Virginia,39.46704621,-78.02414609,159,2
Dona Ana,New Mexico,32.35275771,-106.8329387,159,2
Granville,North Carolina,36.30337451,-78.65184241,159,6
Placer,California,39.06167234,-120.7240569,159,8
Wasatch,Utah,40.33110236,-111.1691419,159,1
Kings,California,36.07409056,-119.8159973,158,1
Newport,Rhode Island,41.5642026,-71.26569799,158,0
Pueblo,Colorado,38.17359144,-104.5127437,158,10
Bay,Michigan,43.70639106,-83.98731479,157,6
Lowndes,Georgia,30.83568832,-83.27056716,157,4
Platte,Nebraska,41.57246836,-97.52144359,157,0
Santa Rosa,Florida,30.6934145,-87.02458128,157,8
Clarke,Georgia,33.95436462,-83.37124007,156,13
Tippecanoe,Indiana,40.38872739,-86.89413959,156,2
Genesee,New York,43.0022601,-78.19135193,155,3
Pike,Mississippi,31.17507789,-90.40392572,155,7
Strafford,New Hampshire,43.291833,-71.02336013,155,7
Laramie,Wyoming,41.3070252,-104.6887497,154,0
Troup,Georgia,33.03349196,-85.02812115,154,4
Wayne,Ohio,40.82925852,-81.88844833,153,32
Bristol,Rhode Island,41.71018079,-71.28652315,152,0
Greene,New York,42.275797,-74.12384884,151,5
Lincoln,Mississippi,31.53288662,-90.45391915,151,11
Madison,New York,42.91653905,-75.67266639,151,5
Vanderburgh,Indiana,38.02658833,-87.58763124,151,1
Butts,Georgia,33.2830945,-83.9543504,150,16
Fairfield,Ohio,39.75107189,-82.63088163,150,2
Gaston,North Carolina,35.29373559,-81.17477045,150,3
Kitsap,Washington,47.63479026,-122.6436061,150,2
Madison,Nebraska,41.91676024,-97.6005481,149,3
West Feliciana,Louisiana,30.87882871,-91.4148538,149,3
Adams,Mississippi,31.47669768,-91.35326037,148,9
Montgomery,Tennessee,36.49609412,-87.38550661,148,2
Washington,Iowa,41.33577126,-91.71725711,148,7
Yazoo,Mississippi,32.77890365,-90.39656148,147,2
Ashtabula,Ohio,41.70860332,-80.74830218,146,15
Coffee,Georgia,31.54892966,-82.8549206,146,7
Gallatin,Montana,45.54486106,-111.1692571,146,1
Smith,Texas,32.37474036,-95.2717568,146,3
Tipton,Tennessee,35.501942,-89.73694895,146,0
Washington,Minnesota,45.03864533,-92.88429635,146,12
Adams,Pennsylvania,39.87140411,-77.21610347,145,4
Floyd,Georgia,34.26268279,-85.21577392,145,11
Richmond,Virginia,37.937575,-76.72920628,145,0
Rutherford,North Carolina,35.40114178,-81.92112099,145,6
Shenandoah,Virginia,38.85905135,-78.56813762,145,2
Washington,Texas,30.21498498,-96.40946246,145,18
Grant,Indiana,40.51587228,-85.65468702,144,12
Summit,Colorado,39.63803232,-106.1150762,144,1
Butler,Kentucky,37.20946153,-86.68748787,143,4
Etowah,Alabama,34.04567266,-86.04051873,143,10
Miami,Ohio,40.0543329,-84.22871271,143,27
Sarpy,Nebraska,41.11314181,-96.11156432,142,0
Suwannee,Florida,30.19746066,-82.9909967,141,16
Darlington,South Carolina,34.33358335,-79.96027485,140,2
Flagler,Florida,29.45933576,-81.31508595,140,3
Harrison,Texas,32.54935988,-94.36934071,140,6
Madison,Tennessee,35.61181957,-88.84076036,140,1
Merced,California,37.18922369,-120.7209035,140,3
Jackson,Illinois,37.78595185,-89.38232563,139,9
Victoria,Texas,28.79780988,-96.96813006,139,5
Boone,Illinois,42.32359279,-88.82345779,138,11
Graves,Kentucky,36.72292505,-88.65143315,138,14
Harrison,Indiana,38.19467379,-86.10948271,138,8
Buckingham,Virginia,37.57242268,-78.52518834,137,0
Hanover,Virginia,37.7583355,-77.49464673,137,12
Santa Cruz,California,37.05580291,-122.0066524,137,2
Dubuque,Iowa,42.46815349,-90.88181925,136,5
Eaton,Michigan,42.59599185,-84.83740035,136,6
Putnam,Tennessee,36.14005459,-85.50646123,136,5
Dearborn,Indiana,39.14647946,-84.97333539,135,9
Mohave,Arizona,35.70471703,-113.7577902,135,13
Union,Louisiana,32.83121059,-92.3749373,135,7
Acadia,Louisiana,30.2950649,-92.41419698,134,10
Northampton,Virginia,37.34062933,-75.87751591,134,1
Fauquier,Virginia,38.73564842,-77.80647472,133,2
Panola,Texas,32.1639596,-94.30552481,133,7
Walton,Georgia,33.78017694,-83.73552314,133,4
Dooly,Georgia,32.15630737,-83.79746561,132,9
Franklin,Alabama,34.44235334,-87.84289505,132,0
Muhlenberg,Kentucky,37.21425819,-87.14632053,132,4
Franklin,Louisiana,32.13675181,-91.67589857,131,3
Fremont,Wyoming,43.04183996,-108.6296893,131,0
Hillsdale,Michigan,41.88753639,-84.59312019,131,18
Coffee,Alabama,31.39932826,-85.98901039,130,0
Jackson,West Virginia,38.84263974,-81.68148753,130,15
Monroe,Indiana,39.16130004,-86.52414358,130,8
Ware,Georgia,31.05449097,-82.42224148,130,11
East Feliciana,Louisiana,30.84425359,-91.04976723,129,16
Ogle,Illinois,42.04165196,-89.32184679,129,1
Pitt,North Carolina,35.59535426,-77.37353178,129,2
Tompkins,New York,42.44945765,-76.47229843,129,0
Shawnee,Kansas,39.04100763,-95.7557264,127,5
Southampton,Virginia,36.72231125,-77.10642712,127,1
Tift,Georgia,31.45743864,-83.5236119,127,5
Chemung,New York,42.13891056,-76.7638805,125,1
DeKalb,Illinois,41.89373302,-88.76958483,125,1
Licking,Ohio,40.09136236,-82.48185785,125,5
Moore,North Carolina,35.30885257,-79.48474178,125,6
Newport News,Virginia,37.08166899,-76.51754109,125,9
Alamance,North Carolina,36.0434701,-79.39976137,124,2
Allegany,Maryland,39.62357628,-78.69280486,124,12
Allen,Ohio,40.77285242,-84.10802343,124,23
Hampton,Virginia,37.03513786,-76.35879121,123,1
Franklin,Missouri,38.41127108,-91.07522826,122,12
Macon,Illinois,39.86064913,-88.96342505,122,12
Wagoner,Oklahoma,35.96024096,-95.51911308,122,15
Frederick,Virginia,39.20172582,-78.25974949,121,1
Putnam,Florida,29.60779729,-81.74230285,120,2
Whitfield,Georgia,34.80987459,-84.96093476,120,4
Iredell,North Carolina,35.80950511,-80.8743128,119,6
Washington,Pennsylvania,40.19208869,-80.24582867,119,2
Chelan,Washington,47.87046092,-120.6173956,118,5
Clinton,Michigan,42.94400871,-84.60145248,118,10
Garland,Arkansas,34.57692074,-93.14921604,118,0
Tuscarawas,Ohio,40.44214695,-81.47226262,118,0
Attala,Mississippi,33.08658803,-89.57838564,117,2
Lamar,Mississippi,31.20572971,-89.5077704,117,2
Shelby,Texas,31.79211404,-94.14550696,117,4
Copiah,Mississippi,31.86977774,-90.44565118,116,1
Maui,Hawaii,20.86399628,-156.5689097,116,6
Duplin,North Carolina,34.93449805,-77.93140529,115,0
Miami,Indiana,40.76940965,-86.04525048,115,1
Buffalo,Nebraska,40.85486962,-99.07500296,114,1
Allegan,Michigan,42.59147037,-85.89102866,113,2
Gordon,Georgia,34.50487351,-84.87296253,113,12
Tuscola,Michigan,43.46606813,-83.41897025,113,14
Vance,North Carolina,36.36880673,-78.40670845,113,7
Benton,Arkansas,36.33644656,-94.25680817,112,0
Clinton,Illinois,38.60704876,-89.42385254,112,5
Dodge,Nebraska,41.58071748,-96.65598179,111,0
Southwest Utah,Utah,37.85447192,-111.4418764,111,2
Thurston,Washington,46.9291895,-122.8290656,111,1
Burke,North Carolina,35.74989637,-81.70755735,110,9
West Baton Rouge,Louisiana,30.46058217,-91.30989571,110,22
Martin,Minnesota,43.67429718,-94.55099908,109,4
Page,Virginia,38.61807452,-78.48797204,109,2
Wayne,Pennsylvania,41.64938475,-75.29956506,109,5
Aiken,South Carolina,33.54338026,-81.63645384,108,6
Albemarle,Virginia,38.02080697,-78.55481085,108,4
Jackson,Georgia,34.13794553,-83.56814788,108,2
Bolivar,Mississippi,33.79696941,-90.87372121,107,7
Calhoun,Georgia,31.53169785,-84.62725131,107,4
Gadsden,Florida,30.57796289,-84.61915825,107,0
Lenawee,Michigan,41.89475156,-84.06603727,107,2
Nueces,Texas,27.736286,-97.5433285,107,3
Santa Fe,New Mexico,35.50708973,-105.9774716,107,0
Mecklenburg,Virginia,36.67882005,-78.36131056,106,10
Peoria,Illinois,40.78702156,-89.76078901,106,3
Butler,Alabama,31.75300095,-86.68057478,105,1
Calhoun,Alabama,33.77483727,-85.82630386,105,3
Edgecombe,North Carolina,35.91230639,-77.59436892,105,5
Franklin,North Carolina,36.081519,-78.28708884,105,22
Kennebec,Maine,44.40759555,-69.76738544,105,6
Lawrence,Indiana,38.84112637,-86.48361629,105,13
Monongalia,West Virginia,39.63218457,-80.04766838,105,4
Montrose,Colorado,38.40214114,-108.2639022,105,11
Orange,Indiana,38.5411892,-86.49523093,104,10
Elmore,Alabama,32.59785413,-86.14415284,103,2
Hardin,Texas,30.33364686,-94.38931817,103,3
Pointe Coupee,Louisiana,30.71409502,-91.60209535,103,15
Boone,Missouri,38.99186229,-92.30723575,102,1
Centre,Pennsylvania,40.92058903,-77.82200624,102,1
Washington,Ohio,39.45690571,-81.49121382,102,14
Clermont,Ohio,39.04847534,-84.15375786,101,3
Dorchester,South Carolina,33.0794369,-80.40502652,101,3
Hendry,Florida,26.55386945,-81.16469006,101,4
Lancaster,South Carolina,34.68270843,-80.70513032,101,4
Warrick,Indiana,38.08922676,-87.2716085,101,16
Washington,Wisconsin,43.36863664,-88.22974712,101,4
Canadian,Oklahoma,35.5426055,-97.98465569,100,3
McMinn,Tennessee,35.42812616,-84.61520715,100,1
Montgomery,Indiana,40.04034823,-86.89335024,100,0
San Juan,Utah,37.62762978,-109.8033714,100,2
Chenango,New York,42.49430041,-75.60887553,99,0
Citrus,Florida,28.84804315,-82.47614748,99,11
Franklin,Vermont,44.85627605,-72.91249563,99,5
Isle of Wight,Virginia,36.90579348,-76.70842863,99,2
McLean,Illinois,40.48996987,-88.84621113,99,3
Nash,North Carolina,35.96575634,-77.98422508,99,3
Northumberland,Pennsylvania,40.84785433,-76.70798222,99,0
Walker,Alabama,33.80270512,-87.30027177,99,0
Allamakee,Iowa,43.28383218,-91.37860922,98,3
Comanche,Oklahoma,34.65973764,-98.47195055,98,2
Teton,Wyoming,43.93522482,-110.5890801,98,0
Yuma,Arizona,32.76895712,-113.9066674,98,1
Franklin,Indiana,39.4142482,-85.06062647,97,7
Garfield,Colorado,39.59921777,-107.902708,97,2
Greene,Missouri,37.2575872,-93.34230916,97,8
Hoke,North Carolina,35.01888303,-79.23651674,97,0
Indian River,Florida,27.69308961,-80.60556721,97,8
Orleans,New York,43.2516977,-78.2320066,97,13
Greene,Indiana,39.03630547,-86.96223202,96,6
Campbell,Kentucky,38.94384345,-84.37875208,95,9
Caroline,Maryland,38.87172293,-75.82904158,95,0
Federal Correctional Institution (FCI),Michigan,,,95,2
Houston,Alabama,31.15197924,-85.29939599,95,4
Ontario,New York,42.85145728,-77.30874425,95,9
Hernando,Florida,28.55364461,-82.42700204,94,5
Ripley,Indiana,39.10235626,-85.26212744,94,6
Newton,Mississippi,32.40021118,-89.11843336,93,0
Otsego,Michigan,45.02085831,-84.59898295,93,8
St. Francis,Arkansas,35.02201976,-90.74828138,93,0
Columbia,Florida,30.22509788,-82.62160164,92,2
Ozaukee,Wisconsin,43.38352225,-87.94625009,92,9
Webster,Louisiana,32.70847669,-93.33121835,92,4
Whiteside,Illinois,41.75509713,-89.91556058,92,6
Wilkes,North Carolina,36.2084135,-81.16232895,92,1
Decatur,Georgia,30.87967778,-84.57619536,91,1
Delaware,Oklahoma,36.40823634,-94.80325046,91,13
Erie,Pennsylvania,41.99253829,-80.03301954,91,2
Kent,Maryland,39.24976208,-76.04741541,91,6
Lafayette,Mississippi,34.35687874,-89.48490961,91,3
McLennan,Texas,31.55255453,-97.20217694,91,4
Allen,Louisiana,30.65385745,-92.82442028,90,9
Christian,Kentucky,36.89267803,-87.49055367,90,3
Ionia,Michigan,42.94502238,-85.07413319,90,2
Lincoln,Louisiana,32.6003154,-92.6659741,90,9
Richland,Ohio,40.77180308,-82.5379961,90,2
Tioga,New York,42.16852837,-76.30835812,90,10
Washington,Arkansas,35.976844,-94.21800746,90,3
Wilcox,Georgia,31.97496928,-83.43438555,90,9
Williamsburg,South Carolina,33.62190129,-79.72767442,90,2
Northampton,North Carolina,36.41736238,-77.39769443,89,5
Wayne,West Virginia,38.14901357,-82.42287994,89,7
Yavapai,Arizona,34.59933926,-112.5538588,89,1
Sampson,North Carolina,34.98820368,-78.36914061,88,0
Walla Walla,Washington,46.23040051,-118.4775539,88,0
Gregg,Texas,32.47940482,-94.81591935,87,0
Kaufman,Texas,32.5991417,-96.28734728,87,1
Linn,Oregon,44.48899494,-122.5373154,87,7
Natchitoches,Louisiana,31.72321584,-93.09816516,87,4
Orangeburg,South Carolina,33.4391073,-80.79886287,87,2
Stephens,Georgia,34.55151201,-83.29405315,87,1
Bastrop,Texas,30.10370699,-97.31206354,86,2
Burke,Georgia,33.05917989,-81.99928721,86,3
Jefferson,Illinois,38.29980057,-88.9240025,86,15
Juniata,Pennsylvania,40.53358749,-77.3997513,86,1
Guadalupe,Texas,29.58165339,-97.94786822,85,0
Highlands,Florida,27.34254618,-81.34071957,85,7
Lycoming,Pennsylvania,41.34310539,-77.06629984,85,2
Rockwall,Texas,32.89779518,-96.40771592,85,3
Susquehanna,Pennsylvania,41.82147784,-75.80071959,85,9
Penobscot,Maine,45.40194593,-68.65020455,84,0
Alpena,Michigan,45.03477666,-83.62212411,83,6
Fairbanks North Star,Alaska,64.80726247,-146.5692662,83,2
Fayette,Pennsylvania,39.92041012,-79.64291195,83,4
Livingston,New York,42.72596275,-77.77966158,83,5
Marion,Alabama,34.13697363,-87.88704173,83,6
Noble,Indiana,41.39672484,-85.41966713,83,14
Douglas,Washington,47.7361335,-119.692937,82,1
Fulton,New York,43.11363907,-74.41798804,82,0
Jennings,Indiana,38.99588883,-85.62710784,82,3
Johnson,Texas,32.37877812,-97.36615819,82,4
Lenoir,North Carolina,35.2403259,-77.64245615,82,4
Manassas Park,Virginia,38.77058531,-77.44399307,82,1
Midland,Texas,31.86904128,-102.0315682,82,6
White,Indiana,40.74911165,-86.86492015,82,0
Yellowstone,Montana,45.93955949,-108.2691486,82,2
Adair,Kentucky,37.10459774,-85.28129668,81,13
Craighead,Arkansas,35.83018283,-90.63235729,81,0
Ector,Texas,31.86898877,-102.5429428,81,4
Jefferson,West Virginia,39.30776166,-77.86014147,81,1
Macon,Georgia,32.35207048,-84.04234127,81,3
Roanoke City,Virginia,37.27791025,-79.96189766,81,0
Warren,Mississippi,32.35810271,-90.83352619,81,2
Burleigh,North Dakota,46.97847375,-100.4645214,80,0
Creek,Oklahoma,35.90230551,-96.37086028,80,6
Cumberland,Tennessee,35.95271721,-84.99840585,80,1
Dickson,Tennessee,36.14669837,-87.35891709,80,0
Monroe,Florida,25.20904673,-81.07812416,80,3
DeKalb,Alabama,34.45946862,-85.80782906,79,2
Goochland,Virginia,37.71714806,-77.90381514,79,5
Grayson,Kentucky,37.46231118,-86.34248968,79,5
New Hanover,North Carolina,34.25758282,-77.87075626,79,3
Noxubee,Mississippi,33.11009499,-88.56949061,79,1
Smith,Mississippi,32.01744532,-89.50644846,79,4
Deschutes,Oregon,43.91570171,-121.2289121,78,0
Tom Green,Texas,31.40464436,-100.462443,78,1
Warren,Illinois,40.84925021,-90.6147432,78,0
White,Georgia,34.64624278,-83.74905525,78,0
Darke,Ohio,40.13412966,-84.6194517,77,14
Faulkner,Arkansas,35.14719007,-92.33717519,77,2
McClain,Oklahoma,35.01123903,-97.44572302,77,2
Randolph,Alabama,33.29526734,-85.45708831,77,4
Sumter,Alabama,32.59117397,-88.19916205,77,3
Washington,Mississippi,33.28392041,-90.94196237,77,3
Bay,Florida,30.26548745,-85.62122584,76,3
Bienville,Louisiana,32.34569994,-93.05398492,76,13
Bowie,Texas,33.44626922,-94.41834132,76,2
Chickasaw,Mississippi,33.91983202,-88.9481545,76,8
Clay,Missouri,39.31132056,-94.41850862,76,2
Fluvanna,Virginia,37.84157909,-78.27715475,76,6
Kemper,Mississippi,32.75462946,-88.64105766,76,3
Osage,Oklahoma,36.62888819,-96.39635704,76,8
Putnam,Indiana,39.66437981,-86.84517605,76,4
Scott,Missouri,37.05588075,-89.56474493,76,2
St. Clair,Alabama,33.71902176,-86.31029372,76,0
Marion,Mississippi,31.23132643,-89.8209217,75,7
Monroe,Illinois,38.27594376,-90.17761038,75,11
Morrow,Ohio,40.5236356,-82.7892599,75,1
Pike,Alabama,31.80396383,-85.9408295,75,0
St. Louis,Minnesota,47.6048407,-92.46879855,75,11
Wayne,New York,43.15494365,-77.02976528,75,1
Worcester,Maryland,38.21274277,-75.33200012,75,3
Avoyelles,Louisiana,31.07796211,-92.00079449,74,7
Hawaii,Hawaii,19.60121157,-155.5210167,74,0
Morgan,Alabama,34.45500589,-86.85475946,74,0
Richland,Louisiana,32.41391005,-91.76634876,74,0
Buncombe,North Carolina,35.61113393,-82.53305,73,5
Cleburne,Arkansas,35.53864922,-92.02640019,73,4
Fond du Lac,Wisconsin,43.75354908,-88.48885325,73,3
Gilmer,Georgia,34.69316688,-84.45802506,73,0
Appling,Georgia,31.74847232,-82.28909114,72,5
Dillon,South Carolina,34.39007791,-79.37741872,72,0
Wilcox,Alabama,31.98773215,-87.30891118,72,3
Windham,Vermont,42.986982,-72.71268875,72,3
Dorchester,Maryland,38.45413522,-76.02752426,71,2
Lee,Mississippi,34.2918775,-88.68149954,71,4
Lowndes,Alabama,32.1597283,-86.65158371,71,1
Orange,Texas,30.11879481,-93.89412775,71,1
Tooele,Utah,40.44862644,-113.1295715,71,0
Lincoln,Missouri,39.05345619,-90.95588181,70,1
Napa,California,38.50735751,-122.332839,70,2
Caddo,Oklahoma,35.17364557,-98.37534464,69,8
Coahoma,Mississippi,34.22772299,-90.60415045,69,3
Indiana,Pennsylvania,40.65241041,-79.08963285,69,4
Putnam,Ohio,41.02094889,-84.1336111,69,9
Turner,Georgia,31.71612656,-83.62069378,69,9
Wilkinson,Mississippi,31.16078225,-91.31018819,69,7
Winnebago,Wisconsin,44.06886922,-88.64477096,69,1
Wyoming,New York,42.70145109,-78.22199579,69,5
Branch,Michigan,41.91600556,-85.05929476,68,2
Cibola,New Mexico,34.91131525,-107.998876,68,3
Fairfield,South Carolina,34.39287073,-81.1195624,68,2
Hancock,Mississippi,30.41830223,-89.48851033,68,5
Lee,South Carolina,34.16393091,-80.25690731,68,8
Outagamie,Wisconsin,44.41578887,-88.46565023,68,2
Poweshiek,Iowa,41.68625425,-92.53155731,68,4
Saline,Arkansas,34.64916145,-92.67583224,68,1
Chaffee,Colorado,38.74745778,-106.1926573,67,15
Clark,Ohio,39.91592258,-83.78498252,67,2
LaSalle,Illinois,41.3442613,-88.88633881,67,1
Lamar,Texas,33.66981763,-95.57404777,67,1
Madison,Ohio,39.89381073,-83.40178317,67,3
Otsego,New York,42.63492579,-75.03151402,67,4
Saluda,South Carolina,34.00795823,-81.72713237,67,0
Vigo,Indiana,39.42944561,-87.39169027,67,6
Winona,Minnesota,43.98772283,-91.78081305,67,15
Clinton,New York,44.74530905,-73.67875352,66,4
Covington,Mississippi,31.63225413,-89.55389939,66,0
Dawson,Georgia,34.44244079,-84.16964071,66,1
Lawrence,Arkansas,36.04188196,-91.10867198,66,4
Mercer,Pennsylvania,41.30248872,-80.25816981,66,1
Oswego,New York,43.42778894,-76.14635194,66,3
Rogers,Oklahoma,36.37004357,-95.60406759,66,4
Adair,Oklahoma,35.88494195,-94.65859267,65,3
Greer,Oklahoma,34.93535801,-99.5605612,65,6
Henderson,Kentucky,37.79344553,-87.57392021,65,1
Lawrence,Pennsylvania,40.99206278,-80.33393706,65,6
Oconee,Georgia,33.83749973,-83.43679568,65,0
Sauk,Wisconsin,43.42574087,-89.94966132,65,3
Talladega,Alabama,33.37823223,-86.16886178,65,2
Wichita,Texas,33.98842886,-98.7041034,65,2
Grady,Georgia,30.87454847,-84.23418364,64,4
Jefferson Davis,Louisiana,30.26896765,-92.81210004,64,6
Laurens,Georgia,32.46325233,-82.92221316,64,1
Lynchburg,Virginia,37.40021399,-79.19888138,64,1
Umatilla,Oregon,45.59073056,-118.7353826,64,1
Blount,Tennessee,35.68938198,-83.92847788,63,3
Cass,Missouri,38.64789422,-94.353399,63,6
Charlottesville,Virginia,38.03527919,-78.48569588,63,2
Fayette,Tennessee,35.19615831,-89.41399032,63,1
Itawamba,Mississippi,34.27993475,-88.3606733,63,4
La Plata,Colorado,37.28632032,-107.8429014,63,0
Lumpkin,Georgia,34.57286511,-84.00425681,63,2
Stephenson,Illinois,42.35129217,-89.662598,63,0
Bear River,Utah,41.52106798,-113.0832816,62,1
Carroll,Mississippi,33.44834567,-89.91994479,62,2
Halifax,North Carolina,36.25669272,-77.6556109,62,1
Herkimer,New York,43.42034246,-74.96145307,62,3
Jefferson,New York,44.04200959,-75.94653457,62,0
Jones,Texas,32.73997145,-99.87861576,62,0
Kootenai,Idaho,47.67282258,-116.7020872,62,0
Matagorda,Texas,28.81955746,-96.01230294,62,3
Midland,Michigan,43.64330771,-84.38804374,62,6
Addison,Vermont,44.03217337,-73.14130877,61,2
Clarke,Mississippi,32.04158545,-88.6889622,61,3
Delaware,New York,42.19837623,-74.96709306,61,4
Hancock,Georgia,33.2721566,-82.99766919,61,2
Harris,Georgia,32.73709786,-84.90538572,61,2
Isabella,Michigan,43.64060976,-84.84664923,61,7
Lauderdale,Alabama,34.90171875,-87.65624729,61,2
Newton,Indiana,40.95610449,-87.39635768,61,8
Russell,Alabama,32.28725256,-85.18415324,61,0
Van Buren,Michigan,42.25190229,-86.01939087,61,2
Wapello,Iowa,41.03064984,-92.40954728,61,0
Warren,Virginia,38.90847745,-78.20280433,61,0
Brooks,Georgia,30.83922642,-83.58303423,60,6
Carlton,Minnesota,46.59180601,-92.67601019,60,0
Liberty,Florida,30.23766008,-84.8829258,60,0
Lowndes,Mississippi,33.47386518,-88.4419153,60,3
Madison,Florida,30.44396917,-83.47398594,60,2
Nez Perce,Idaho,46.32638236,-116.7500975,60,18
Queen Anne's,Maryland,39.06198912,-76.03530977,60,8
Union,Arkansas,33.16887091,-92.59746952,60,0
Wabash,Indiana,40.84704239,-85.79328272,60,2
Brown,South Dakota,45.58994323,-98.35165355,59,0
Chesterfield,South Carolina,34.64137396,-80.1564014,59,1
Dallas,Alabama,32.32688101,-87.1086671,59,3
Evangeline,Louisiana,30.72985248,-92.39915924,59,1
Glynn,Georgia,31.23279254,-81.53811412,59,1
Jackson,Kentucky,37.41866422,-83.99825483,59,8
Johnson,Georgia,32.70211082,-82.66166794,59,2
Johnson,Missouri,38.74719601,-93.80691168,59,0
McCracken,Kentucky,37.05350953,-88.70445755,59,2
Nassau,Florida,30.61037141,-81.80297522,59,1
Polk,Georgia,34.00267074,-85.18677781,59,0
Claiborne,Louisiana,32.82308512,-92.99526883,58,7
Comal,Texas,29.80811278,-98.27647225,58,6
Cullman,Alabama,34.13020303,-86.86888037,58,0
Erie,Ohio,41.36796058,-82.62904521,58,3
Gray,Texas,35.40081878,-100.8129222,58,0
Greene,Alabama,32.85504247,-87.95684022,58,1
Marengo,Alabama,32.24767634,-87.78796182,58,3
Pickens,South Carolina,34.88807695,-82.72791551,58,1
Pine,Minnesota,46.12105238,-92.74070188,58,0
Scott,Minnesota,44.6490231,-93.53340251,58,1
Chilton,Alabama,32.85044126,-86.7173256,57,1
Colonial Heights,Virginia,37.26420587,-77.39609676,57,6
Lake,Tennessee,36.3418017,-89.48921915,57,0
Richmond,North Carolina,35.00417719,-79.74491009,57,2
Roanoke,Virginia,37.26865804,-80.06396753,57,0
Tippah,Mississippi,34.76872156,-88.90988194,57,10
Washington,Tennessee,36.29472368,-82.4945472,57,0
Androscoggin,Maine,44.1664747,-70.20380627,56,2
Bullitt,Kentucky,37.97162523,-85.68955617,56,2
Catawba,North Carolina,35.66211129,-81.2132617,56,1
Clinton,Indiana,40.30319754,-86.47277257,56,1
Crawford,Michigan,44.68255561,-84.61006219,56,4
Huntingdon,Pennsylvania,40.42162652,-77.97673273,56,0
Montgomery,New York,42.90123494,-74.44011632,56,1
Montgomery,Virginia,37.17746986,-80.37868691,56,1
Routt,Colorado,40.48596505,-106.9905548,56,5
Sunflower,Mississippi,33.60192578,-90.58882684,56,2
Angelina,Texas,31.25457347,-94.60901487,55,0
Calhoun,Mississippi,33.93683395,-89.33686647,55,4
Greenwood,South Carolina,34.15272415,-82.12715789,55,0
Jasper,Mississippi,32.01922104,-89.11786866,55,1
Jerome,Idaho,42.68891267,-114.2655033,55,2
Morehouse,Louisiana,32.81686191,-91.80421614,55,4
Peach,Georgia,32.56934316,-83.82937,55,2
Pickens,Alabama,33.28094866,-88.08818103,55,2
Prince Edward,Virginia,37.22554789,-78.43597949,55,2
Stark,North Dakota,46.80851182,-102.6576326,55,2
Bryan,Georgia,32.00979311,-81.44002948,54,3
Cole,Missouri,38.50455671,-92.27860244,54,1
Greene,Georgia,33.5769205,-83.17139104,54,3
Humboldt,California,40.69923009,-123.876044,54,0
Lane,Oregon,43.93727035,-122.847753,54,2
Meriwether,Georgia,33.04163534,-84.68859732,54,1
Riley,Kansas,39.28935726,-96.73420026,54,0
Sherburne,Minnesota,45.44447208,-93.77617511,54,0
Bradley,Tennessee,35.15739424,-84.857186,53,1
Bremer,Iowa,42.77461496,-92.31795937,53,5
Cattaraugus,New York,42.24778241,-78.67923096,53,0
Cheatham,Tennessee,36.26136216,-87.08903581,53,0
Cowlitz,Washington,46.19074721,-122.6782231,53,0
Grafton,New Hampshire,43.93779815,-71.82057197,53,0
Armstrong,Pennsylvania,40.81665618,-79.46290811,52,2
Crawford,Ohio,40.85065156,-82.91989099,52,1
Hale,Alabama,32.76039258,-87.63284988,52,2
Iosco,Michigan,44.35486835,-83.63484895,52,7
Moniteau,Missouri,38.63571781,-92.57976951,52,0
Oktibbeha,Mississippi,33.42491685,-88.87905132,52,3
Pierce,Georgia,31.35928155,-82.21598442,52,3
Pottawatomie,Oklahoma,35.20614018,-96.94923008,52,4
Scott,Indiana,38.68672078,-85.74627859,52,2
Sheboygan,Wisconsin,43.72099677,-87.94579284,52,2
Bennington,Vermont,43.03519828,-73.09048868,51,1
Cayuga,New York,42.91261714,-76.55731592,51,1
Crawford,Iowa,42.03718237,-95.3819718,51,1
Daviess,Indiana,38.70186039,-87.07185406,51,14
Douglas,Kansas,38.88503636,-95.2925121,51,0
Knox,Illinois,40.93148779,-90.2133034,51,0
Madera,California,37.21513971,-119.7665589,51,2
Ohio,Kentucky,37.47751843,-86.85368087,51,0
Onslow,North Carolina,34.72607366,-77.42908179,51,1
Pitkin,Colorado,39.21720112,-106.9310027,51,2
San Benito,California,36.60308176,-121.069975,51,2
Sevier,Tennessee,35.78077323,-83.52244332,51,1
Sullivan,Tennessee,36.51240691,-82.30412917,51,1
Walker,Georgia,34.73376362,-85.30165174,51,0
Clinton,Iowa,41.89981633,-90.53275096,50,1
Delta,Colorado,38.86246243,-107.8631342,50,1
Gibson,Tennessee,35.99438059,-88.93358327,50,1
Henry,Illinois,41.3533994,-90.13296166,50,0
Jackson,Alabama,34.78144169,-85.99750489,50,2
Lawrence,Mississippi,31.55147224,-90.10841127,50,0
Macon,Tennessee,36.53157855,-86.00778595,50,3
Marlboro,South Carolina,34.59905577,-79.67561152,50,0
Marquette,Michigan,46.4338914,-87.64043701,50,8
Montour,Pennsylvania,41.03023987,-76.66345939,50,0
Oglethorpe,Georgia,33.8786296,-83.08278123,50,3
Valencia,New Mexico,34.71669834,-106.8103733,50,1
Wright,Minnesota,45.17297924,-93.96234781,50,1
Cape Girardeau,Missouri,37.38489388,-89.6843587,49,1
Choctaw,Alabama,32.02227341,-88.2656443,49,0
Coffey,Kansas,38.2365018,-95.73379515,49,8
Humboldt,Nevada,41.40692186,-118.1109427,49,2
Hunt,Texas,33.12351514,-96.08551032,49,2
Jackson,Oregon,42.43201126,-122.7289309,49,0
Rutland,Vermont,43.57723578,-73.03741676,49,1
Waldo,Maine,44.4858305,-69.12061935,49,13
Walton,Florida,30.64204028,-86.16935664,49,0
Winchester,Virginia,39.17054517,-78.17325058,49,0
Adams,Washington,46.98299757,-118.5601734,48,0
Autauga,Alabama,32.53952745,-86.64408227,48,3
Bradford,Florida,29.95079741,-82.16611613,48,2
Carson City,Nevada,39.15509045,-119.7480219,48,1
Clay,Mississippi,33.65358105,-88.77784255,48,2
Grant,Wisconsin,42.8671731,-90.7063218,48,6
Greene,Ohio,39.69116283,-83.89032084,48,4
Hardin,Kentucky,37.6976111,-85.96319251,48,0
Natrona,Wyoming,42.96180148,-106.797885,48,0
Simpson,Mississippi,31.91282117,-89.91716179,48,0
Bertie,North Carolina,36.0688473,-76.96545943,47,2
Cleveland,North Carolina,35.33553364,-81.55204486,47,2
El Dorado,California,38.77965956,-120.5233166,47,0
Kay,Oklahoma,36.81799745,-97.14421435,47,7
Marshall,Mississippi,34.76216286,-89.50299462,47,2
Mesa,Colorado,39.01787888,-108.469799,47,0
Tazewell,Illinois,40.50716185,-89.51404662,47,3
Winston,Mississippi,33.08747908,-89.03391385,47,0
York,Virginia,37.24374789,-76.54412815,47,1
Augusta,Virginia,38.16404586,-79.12461614,46,1
Blue Earth,Minnesota,44.03554215,-94.06699781,46,0
Catoosa,Georgia,34.89872298,-85.13757014,46,0
Jefferson,Wisconsin,43.02054068,-88.77529134,46,0
Louisa,Virginia,37.97850256,-77.96274807,46,0
Marion,West Virginia,39.50984542,-80.24244659,46,2
Barbour,Alabama,31.868263,-85.3871286,45,1
Catahoula,Louisiana,31.66778967,-91.84526385,45,2
Covington,Alabama,31.2477854,-86.45050893,45,1
Georgetown,South Carolina,33.43443342,-79.33202141,45,3
Hamilton,Nebraska,40.87349452,-98.02099117,45,7
Hickman,Tennessee,35.80609681,-87.47643507,45,0
Jasper,Illinois,39.01054275,-88.15437049,45,5
Jefferson,Ohio,40.38614126,-80.76259514,45,1
Liberty,Texas,30.15152688,-94.81205615,45,0
Limestone,Alabama,34.81185586,-86.98310072,45,0
McDuffie,Georgia,33.47851918,-82.48252774,45,4
Schoharie,New York,42.58831742,-74.4433903,45,0
Seneca,New York,42.78081007,-76.82497064,45,0
Socorro,New Mexico,34.00715494,-106.9298354,45,2
Washington,Indiana,38.60219804,-86.1049363,45,0
Brunswick,North Carolina,34.070565,-78.22814204,44,2
Cabell,West Virginia,38.42424062,-82.23855912,44,0
Chambers,Texas,29.70972016,-94.67154501,44,0
Henry,Indiana,39.93029017,-85.39625719,44,1
Maury,Tennessee,35.6187413,-87.07462444,44,0
Montcalm,Michigan,43.31082541,-85.15252824,44,1
Payne,Oklahoma,36.07695283,-96.97584944,44,1
Pope,Arkansas,35.44871474,-93.03212219,44,0
Pottawattamie,Iowa,41.33640314,-95.53907776,44,2
Talbot,Maryland,38.76618159,-76.10882561,44,1
Washington,Georgia,32.96711864,-82.79357039,44,1
Beauregard,Louisiana,30.64836518,-93.34173616,43,3
Bibb,Alabama,32.99642064,-87.1251146,43,0
Greene,Tennessee,36.17470125,-82.84691273,43,2
Grundy,Illinois,41.28569601,-88.41905692,43,0
Lonoke,Arkansas,34.75392199,-91.88742357,43,0
Perry,Missouri,37.70660776,-89.82741088,43,0
Pettis,Missouri,38.72798918,-93.28471706,43,0
Pulaski,Kentucky,37.10466131,-84.57629079,43,2
Tate,Mississippi,34.65133709,-89.94485778,43,0
Bulloch,Georgia,32.39577406,-81.74811421,42,2
Clarke,Alabama,31.68099859,-87.83548597,42,1
Craven,North Carolina,35.11833364,-77.08398081,42,4
Hertford,North Carolina,36.3607755,-76.98104134,42,1
Jackson,Louisiana,32.30251776,-92.55692092,42,3
Lafayette,Missouri,39.06986886,-93.78076396,42,1
Marion,Georgia,32.3483402,-84.52733571,42,1
Windsor,Vermont,43.58010937,-72.58595157,42,2
Winn,Louisiana,31.94449367,-92.63789413,42,2
Carroll,Indiana,40.5807832,-86.56198812,41,1
Coffee,Tennessee,35.49090731,-86.07311784,41,0
Colbert,Alabama,34.69847452,-87.80168544,41,2
Grayson,Texas,33.62744998,-96.67753461,41,0
Nevada,California,39.30394768,-120.7627281,41,1
Polk,Minnesota,47.77372465,-96.40134647,41,0
Polk,Oregon,44.90322804,-123.4128888,41,2
Putnam,Georgia,33.32056115,-83.37552891,41,5
Reno,Kansas,37.95230263,-98.08607292,41,0
Ross,Ohio,39.33705391,-83.06000914,41,1
Wood,West Virginia,39.20967886,-81.5162836,41,2
Adams,Illinois,39.98815591,-91.18786813,40,1
Blount,Alabama,33.98210918,-86.56790593,40,0
Cass,Illinois,39.96991073,-90.24734436,40,0
Cheshire,New Hampshire,42.92015988,-72.25311043,40,2
Jefferson Davis,Mississippi,31.56884708,-89.8267099,40,1
Jessamine,Kentucky,37.87119786,-84.58252003,40,0
Lamar,Georgia,33.07841647,-84.14263877,40,1
Laurens,South Carolina,34.48244419,-82.00490796,40,2
Macon,Alabama,32.38759944,-85.69267724,40,2
Ottawa,Ohio,41.53781826,-83.0940185,40,1
Panola,Mississippi,34.36398677,-89.95064249,40,2
Pike,Georgia,33.09310242,-84.38790389,40,2
Belknap,New Hampshire,43.51637314,-71.41684235,39,0
Cochise,Arizona,31.87934684,-109.7516088,39,0
Concordia,Louisiana,31.44817835,-91.63814433,39,4
Fredericksburg,Virginia,38.2977863,-77.4922454,39,0
Grady,Oklahoma,35.0167709,-97.88339847,39,2
Greensville,Virginia,36.67878901,-77.56351439,39,6
Klamath,Oregon,42.68762984,-121.6496461,39,0
Mifflin,Pennsylvania,40.61116939,-77.61070738,39,0
Missoula,Montana,47.03728583,-113.9213508,39,1
Pittsburg,Oklahoma,34.92065823,-95.7513432,39,2
Washington,Virginia,36.72341572,-81.95666289,39,3
Yamhill,Oregon,45.23330449,-123.3086963,39,7
Dodge,Wisconsin,43.41576662,-88.70928178,38,1
Gage,Nebraska,40.26186809,-96.68946704,38,3
Hancock,Ohio,41.00250487,-83.66838948,38,1
Iroquois,Illinois,40.74717633,-87.82466784,38,0
Liberty,Georgia,31.82588896,-81.49251135,38,0
Montgomery,North Carolina,35.33155144,-79.90416657,38,2
Union,Pennsylvania,40.96188846,-77.05996014,38,0
Vermilion,Louisiana,29.83517605,-92.30292538,38,1
Washington,Alabama,31.4092794,-88.20689944,38,2
Wayne,Indiana,39.8633444,-85.01044989,38,3
Barry,Michigan,42.59513984,-85.30834519,37,1
Danville,Virginia,36.58022376,-79.40395668,37,1
Flathead,Montana,48.29575866,-114.0520569,37,2
Loudon,Tennessee,35.73939663,-84.31145275,37,0
Marion,South Carolina,34.07859748,-79.36400756,37,2
Nye,Nevada,38.04264256,-116.4722702,37,0
Orange,Virginia,38.24530219,-78.015604,37,0
Pasquotank,North Carolina,36.26723798,-76.25134778,37,1
Sanilac,Michigan,43.42406072,-82.82055898,37,5
Wharton,Texas,29.27765923,-96.22319248,37,0
Brown,Texas,31.77430356,-98.99907113,36,5
Caldwell,North Carolina,35.95204977,-81.54799522,36,0
Chautauqua,New York,42.2276921,-79.36691763,36,3
Dyer,Tennessee,36.05931946,-89.41542855,36,0
Eau Claire,Wisconsin,44.726614,-91.28609183,36,0
Effingham,Georgia,32.36616021,-81.34280942,36,1
Franklin,Tennessee,35.15634626,-86.09201039,36,1
Jasper,Indiana,41.02078733,-87.11553319,36,1
Kosciusko,Indiana,41.24521668,-85.86312322,36,1
Pulaski,Missouri,37.82462075,-92.20783203,36,1
Rusk,Texas,32.10773545,-94.76176432,36,1
St. Joseph,Michigan,41.91441767,-85.52797979,36,1
Tunica,Mississippi,34.64967704,-90.37481167,36,2
Williams,Ohio,41.56052014,-84.58429552,36,1
Allegany,New York,42.25748406,-78.02750466,35,0
Auglaize,Ohio,40.55998859,-84.2242143,35,3
Bradford,Pennsylvania,41.78869215,-76.51570822,35,2
Calloway,Kentucky,36.62093411,-88.2731593,35,1
Camden,Georgia,30.92951916,-81.66601818,35,1
Camden,Missouri,38.02199522,-92.76083747,35,1
Deaf Smith,Texas,34.96522957,-102.6054267,35,0
Falls Church,Virginia,38.88485255,-77.17560759,35,3
Freeborn,Minnesota,43.67385583,-93.34884422,35,0
King George,Virginia,38.26818502,-77.15852768,35,4
McDonough,Illinois,40.45674722,-90.67775541,35,1
Miller,Arkansas,33.31403423,-93.89285258,35,1
Mountrail,North Dakota,48.20197971,-102.3555315,35,0
Parker,Texas,32.77757172,-97.80500621,35,0
Petersburg,Virginia,37.20530399,-77.39368102,35,2
Prince George,Virginia,37.18497668,-77.22922187,35,0
Washington,Vermont,44.27343241,-72.61604978,35,1
White,Arkansas,35.25688493,-91.74908296,35,1
Wilkinson,Georgia,32.80291082,-83.17140684,35,2
Bedford,Virginia,37.3080028,-79.5281964,34,0
Chester,South Carolina,34.69249168,-81.1583216,34,0
Dale,Alabama,31.43037123,-85.61095742,34,0
Grenada,Mississippi,33.77036166,-89.80245083,34,1
Lyon,Nevada,39.01777974,-119.1870479,34,0
Marion,Illinois,38.64963204,-88.91899208,34,0
Marshall,Kentucky,36.8800707,-88.32803576,34,1
Ottawa,Oklahoma,36.83532655,-94.81011909,34,1
Perry,Illinois,38.08510853,-89.36856219,34,0
Perry,Pennsylvania,40.40206612,-77.26297447,34,1
Platte,Missouri,39.38154439,-94.77068479,34,0
Rush,Indiana,39.62002287,-85.4655599,34,1
Sandusky,Ohio,41.35624126,-83.137872,34,6
Santa Cruz,Arizona,31.52508998,-110.8479088,34,0
Scotts Bluff,Nebraska,41.85070896,-103.7080986,34,0
Toombs,Georgia,32.12059861,-82.32957247,34,3
Williamson,Illinois,37.73033511,-88.92994027,34,0
Abbeville,South Carolina,34.22333378,-82.46170658,33,0
Benton,Iowa,42.08011739,-92.06463573,33,1
Cambria,Pennsylvania,40.49527404,-78.71377428,33,1
Fulton,Indiana,41.0469907,-86.26252745,33,1
Henry,Iowa,40.98767962,-91.54436349,33,1
Lincoln,Nebraska,41.04658298,-100.7475374,33,1
Miller,Georgia,31.16568912,-84.73151117,33,0
Murray,Georgia,34.78897608,-84.74993177,33,1
Ohio,West Virginia,40.0955451,-80.62203992,33,1
Oldham,Kentucky,38.39791089,-85.448222,33,0
Snyder,Pennsylvania,40.77129231,-77.06840691,33,1
Somerset,Maryland,38.1163542,-75.75118623,33,0
Story,Iowa,42.03621213,-93.46499005,33,1
Waller,Texas,30.01058447,-95.99011759,33,0
Walthall,Mississippi,31.14971548,-90.10446654,33,0
Wilson,Texas,29.1732598,-98.08693082,33,3
Anderson,Texas,31.81534745,-95.65354823,32,0
Benton,Minnesota,45.69804958,-93.99514135,32,1
Benton,Oregon,44.49167306,-123.4316987,32,5
Calhoun,Texas,28.47048236,-96.61633945,32,3
Carroll,New Hampshire,43.87498583,-71.20430216,32,0
Cass,Michigan,41.91522292,-85.99405727,32,2
Caswell,North Carolina,36.39312665,-79.33353281,32,0
Clinton,Pennsylvania,41.23255967,-77.63785995,32,0
Colleton,South Carolina,32.87582989,-80.67641292,32,4
DeSoto,Florida,27.18677893,-81.80941373,32,4
Dukes and Nantucket,Massachusetts,41.40674725,-70.68763497,32,1
Edgefield,South Carolina,33.77221995,-81.96231108,32,2
Fairfax City,Virginia,38.85157547,-77.2977964,32,2
Hardee,Florida,27.49293939,-81.80956574,32,0
Macoupin,Illinois,39.26119767,-89.92424028,32,0
Montgomery,Mississippi,33.49419589,-89.61729103,32,1
Pemiscot,Missouri,36.2130572,-89.78742322,32,1
Prentiss,Mississippi,34.61810501,-88.51986294,32,1
Pulaski,Georgia,32.23334561,-83.4754996,32,1
Red River,Louisiana,32.09530039,-93.34213308,32,5
Shelby,Kentucky,38.21476019,-85.194223,32,3
Banks,Georgia,34.35607081,-83.49644388,31,0
Boyd,Kentucky,38.36176608,-82.68652187,31,3
Caldwell,Louisiana,32.0902519,-92.11752148,31,0
Caroline,Virginia,38.02679129,-77.34901405,31,1
Cedar,Iowa,41.77233777,-91.13246684,31,0
Clark,Arkansas,34.04613432,-93.17484713,31,0
Clinton,Ohio,39.41485808,-83.80852286,31,0
Davie,North Carolina,35.93099927,-80.54496571,31,2
Elbert,Colorado,39.28656773,-104.1358721,31,1
Elbert,Georgia,34.11302332,-82.83936148,31,0
Escambia,Alabama,31.1256789,-87.15918694,31,2
Fannin,Georgia,34.86430205,-84.316964,31,1
Harrison,West Virginia,39.2853852,-80.37919577,31,1
Huron,Ohio,41.14651175,-82.59867951,31,1
Johnson,Arkansas,35.56759135,-93.46036368,31,0
Marshall,Indiana,41.32467367,-86.26185087,31,1
Navarro,Texas,32.04620681,-96.47428766,31,2
Seminole,Georgia,30.93464824,-84.86823924,31,2
Shasta,California,40.76391419,-122.0396884,31,4
Sussex,Virginia,36.92432914,-77.25791182,31,1
Sutter,California,39.03417539,-121.6945899,31,2
Union,Georgia,34.82995757,-83.98967069,31,1
Union,South Dakota,42.83112163,-96.6557828,31,0
Anson,North Carolina,34.97403241,-80.09953279,30,0
Coosa,Alabama,32.93690146,-86.24847739,30,1
Elmore,Idaho,43.3507101,-115.4701578,30,2
Hawkins,Tennessee,36.44355426,-82.94885298,30,2
Jefferson,Indiana,38.78576239,-85.43633383,30,0
Newberry,South Carolina,34.28629098,-81.59935761,30,1
Shelby,Ohio,40.33163494,-84.20258189,30,1
St. Helena,Louisiana,30.82210324,-90.71013176,30,1
Ben Hill,Georgia,31.76095874,-83.22145359,29,0
Carteret,North Carolina,34.8932941,-76.54120135,29,3
Columbia,Wisconsin,43.46492199,-89.33589004,29,1
Dodge,Georgia,32.17265114,-83.16948926,29,1
Essex,New York,44.11630765,-73.77297842,29,0
Fayette,Indiana,39.63684962,-85.17797541,29,4
Franklin,Maine,44.97330019,-70.44381045,29,1
Hale,Texas,34.07044901,-101.8268114,29,4
Haralson,Georgia,33.79602175,-85.21005667,29,1
Jones,Georgia,33.02512137,-83.56019163,29,0
La Crosse,Wisconsin,43.90632465,-91.11451093,29,0
Lewis,Washington,46.57756476,-122.3925769,29,3
Lincoln,Idaho,43.0012336,-114.1358773,29,0
Madison,Kentucky,37.71659336,-84.27220275,29,1
Marion,Tennessee,35.12997174,-85.62265895,29,1
Mercer,Ohio,40.54043046,-84.62912742,29,1
Mississippi,Missouri,36.82516239,-89.29505753,29,0
Pawnee,Oklahoma,36.31743373,-96.7033176,29,2
Perry,Mississippi,31.17161885,-88.99281835,29,1
Pickens,Georgia,34.46589159,-84.46406611,29,2
Pulaski,Indiana,41.04166107,-86.69890683,29,0
Scotland,North Carolina,34.8386299,-79.4757978,29,0
Simpson,Kentucky,36.74058474,-86.58047435,29,2
Somerset,Pennsylvania,39.97172723,-79.02699593,29,1
Stanly,North Carolina,35.31647813,-80.25093221,29,4
Toole,Montana,48.65577551,-111.6942414,29,6
Amite,Mississippi,31.17467303,-90.80501621,28,0
Anderson,Tennessee,36.12684348,-84.19965764,28,1
Arenac,Michigan,44.0636262,-83.89277559,28,1
Bonneville,Idaho,43.38713372,-111.6161537,28,0
Botetourt,Virginia,37.55531756,-79.80982182,28,3
Christian,Illinois,39.54581621,-89.27780482,28,4
Claiborne,Mississippi,31.97061673,-90.90702196,28,0
Cortland,New York,42.59509207,-76.07048931,28,0
Cottonwood,Minnesota,44.00715262,-95.18138802,28,0
Grundy,Tennessee,35.38433717,-85.72142731,28,1
Henderson,Texas,32.21128872,-95.85846587,28,0
Jefferson,Florida,30.43669112,-83.89442308,28,2
Jefferson,Washington,47.75003077,-123.5609704,28,0
LaGrange,Indiana,41.64232188,-85.42674232,28,2
Lincoln,North Carolina,35.48508185,-81.21740317,28,0
Montgomery,Illinois,39.23198845,-89.47809254,28,1
Morgan,Georgia,33.59232073,-83.49129491,28,0
Mower,Minnesota,43.67142874,-92.75234549,28,0
Putnam,West Virginia,38.50782345,-81.9082131,28,0
St. Francois,Missouri,37.81214171,-90.47598685,28,1
Telfair,Georgia,31.92829517,-82.93491155,28,0
Teller,Colorado,38.88133511,-105.1614893,28,2
Union,Illinois,37.47119609,-89.25548938,28,0
Van Buren,Arkansas,35.58095779,-92.51295036,28,2
Yankton,South Dakota,43.00924485,-97.39467635,28,0
Bacon,Georgia,31.55456473,-82.45936528,27,1
Bladen,North Carolina,34.61296243,-78.56180059,27,0
Cherokee,Oklahoma,35.90692775,-94.99980896,27,1
Cook,Georgia,31.16068491,-83.42947229,27,1
Gonzales,Texas,29.45634206,-97.49424032,27,2
Greene,Pennsylvania,39.85746531,-80.22357106,27,1
Henry,Alabama,31.51148016,-85.24267944,27,1
Hopewell,Virginia,37.29186313,-77.29754684,27,0
Juneau,Alaska,58.45031811,-134.200436,27,0
McDowell,North Carolina,35.67736232,-82.0482425,27,1
Muskogee,Oklahoma,35.61318461,-95.37802952,27,6
Preble,Ohio,39.7420247,-84.64787018,27,1
Union,Mississippi,34.49162015,-89.00776006,27,2
Butler,Missouri,36.71462476,-90.40421163,26,0
Carver,Minnesota,44.82017001,-93.8009918,26,0
Custer,Nebraska,41.39374521,-99.72805369,26,3
Dawson,Texas,32.74255572,-101.9477242,26,1
Edmonson,Kentucky,37.21218923,-86.23955613,26,0
Gratiot,Michigan,43.29265605,-84.60505416,26,2
Hampton,South Carolina,32.77419582,-81.13845571,26,0
Hardin,Ohio,40.66015414,-83.65929931,26,0
LaSalle,Louisiana,31.67884782,-92.15907765,26,0
Le Sueur,Minnesota,44.37136597,-93.72844721,26,0
Mason,Washington,47.35007586,-123.1863685,26,1
Maverick,Texas,28.7429195,-100.3157686,26,0
Mono,California,37.93899289,-118.8872409,26,1
Newaygo,Michigan,43.554374,-85.80070107,26,0
Oconee,South Carolina,34.75225169,-83.06742317,26,0
Rockingham,North Carolina,36.39593137,-79.77504841,26,2
Salem,Virginia,37.2836193,-80.06219455,26,0
Steuben,Indiana,41.64423868,-85.00101094,26,1
Talbot,Georgia,32.69642758,-84.53351366,26,1
Union,South Carolina,34.68835752,-81.61730349,26,0
Warren,Iowa,41.33559454,-93.56007641,26,0
Westmoreland,Virginia,38.11021557,-76.80213247,26,0
Barnwell,South Carolina,33.26679302,-81.43584352,25,0
Chippewa,Wisconsin,45.06939744,-91.28068855,25,0
Clay,Georgia,31.62221166,-84.97713865,25,3
Coos,Oregon,43.17406868,-124.0594514,25,0
Donley,Texas,34.96517499,-100.8140093,25,0
Dubois,Indiana,38.36597551,-86.8792417,25,0
Gloucester,Virginia,37.40809042,-76.53524337,25,1
Grant,Kentucky,38.64962758,-84.62415957,25,3
Haywood,Tennessee,35.58332824,-89.28536625,25,1
Jasper,Missouri,37.20351921,-94.34050458,25,0
Lamoille,Vermont,44.60353043,-72.64356694,25,2
Lawrence,Ohio,38.59743452,-82.53466552,25,0
Lee,Illinois,41.74583951,-89.29977132,25,0
Madison,Georgia,34.12920917,-83.21218732,25,1
New Kent,Virginia,37.50694406,-76.99828634,25,1
Polk,North Carolina,35.27820615,-82.16812354,25,0
Stewart,Georgia,32.07996777,-84.83208037,25,0
Ward,North Dakota,48.22390169,-101.5436763,25,1
Wilkes,Georgia,33.78290391,-82.74286107,25,0
Wyoming,Pennsylvania,41.51955538,-76.01074915,25,2
Bedford,Pennsylvania,40.00522157,-78.48998442,24,1
Blair,Pennsylvania,40.47961444,-78.34917412,24,0
Campbell,Wyoming,44.24886082,-105.5474404,24,0
Central Utah,Utah,39.37231946,-111.5758676,24,0
Cross,Arkansas,35.29631396,-90.77185818,24,0
Douglas,Oregon,43.27941273,-123.167291,24,0
Emporia,Virginia,36.69455571,-77.53406129,24,3
Fulton,Ohio,41.60213491,-84.12571393,24,0
Humphreys,Mississippi,33.12825718,-90.52252707,24,4
Jasper,Georgia,33.31535543,-83.68844964,24,0
Jefferson,Tennessee,36.04818632,-83.45148924,24,0
Jones,Iowa,42.12118609,-91.13139641,24,0
Lauderdale,Tennessee,35.75893438,-89.6301591,24,0
Livingston,Illinois,40.89188292,-88.55784752,24,1
Mason,Texas,30.71780434,-99.22629416,24,0
Mayes,Oklahoma,36.30179091,-95.23175116,24,4
Monroe,Georgia,33.014289,-83.92097166,24,3
Morgan,Illinois,39.71654544,-90.20255104,24,1
Morton,North Dakota,46.71681782,-101.2822377,24,2
Nelson,Kentucky,37.80335779,-85.4657193,24,0
Owen,Indiana,39.31145587,-86.83900724,24,1
Rio Arriba,New Mexico,36.51072137,-106.6931674,24,0
Scott,Kentucky,38.29622293,-84.5816631,24,0
Union,Ohio,40.30016061,-83.37239023,24,0
Wabaunsee,Kansas,38.95471985,-96.20350509,24,0
Wakulla,Florida,30.16548905,-84.39895211,24,1
Washington,North Carolina,35.83810081,-76.57299037,24,3
Wayne,Mississippi,31.64135687,-88.69573913,24,0
Wise,Texas,33.21570665,-97.65460265,24,2
Wyandot,Ohio,40.84339621,-83.30734173,24,2
Baker,Georgia,31.32669878,-84.44218806,23,2
Boone,Iowa,42.03657094,-93.9313999,23,0
Callaway,Missouri,38.83674754,-91.92186505,23,1
Chaves,New Mexico,33.36406072,-104.4665365,23,1
Clarion,Pennsylvania,41.19265812,-79.42413524,23,1
Converse,Wyoming,42.97272268,-105.5081848,23,0
Crenshaw,Alabama,31.72941803,-86.31593104,23,0
Dunklin,Missouri,36.27167174,-90.09122243,23,2
Franklin,Virginia,36.99536167,-79.88023649,23,0
Franklin City,Virginia,36.6831435,-76.93859681,23,1
Marshall,Tennessee,35.45798777,-86.76420988,23,1
McPherson,Kansas,38.39184858,-97.64769869,23,0
Person,North Carolina,36.38989032,-78.97217358,23,0
Plymouth,Iowa,42.737633,-96.21366621,23,0
Poinsett,Arkansas,35.57433534,-90.66268713,23,2
Weakley,Tennessee,36.29896232,-88.71990865,23,0
Webster,Kentucky,37.52168356,-87.67989953,23,0
Yadkin,North Carolina,36.16222629,-80.66239436,23,1
Baker,Florida,30.33060121,-82.28467476,22,3
Beaufort,North Carolina,35.48531943,-76.84325809,22,0
Brantley,Georgia,31.19576557,-81.97743999,22,2
Clay,Alabama,33.26984193,-85.85836077,22,1
Clay,Indiana,39.39561833,-87.11723506,22,1
Coles,Illinois,39.51949084,-88.22358557,22,1
DeKalb,Indiana,41.39804622,-84.99906934,22,1
Dodge,Minnesota,44.02238415,-92.86244324,22,0
Fayette,Iowa,42.86271799,-91.8441231,22,0
Fremont,Colorado,38.47362326,-105.4399667,22,0
Grimes,Texas,30.54579585,-95.98902499,22,1
Guthrie,Iowa,41.68378965,-94.50111014,22,0
Huron,Michigan,43.83353985,-83.04078453,22,1
Jeff Davis,Georgia,31.80405727,-82.6372487,22,1
Jefferson,Mississippi,31.73397872,-91.03764977,22,0
Josephine,Oregon,42.3665549,-123.5561938,22,1
Kenai Peninsula,Alaska,60.24429722,-151.5388884,22,1
Labette,Kansas,37.19113093,-95.29849679,22,0
Pontotoc,Mississippi,34.226046,-89.03636807,22,2
Smith,Tennessee,36.25359775,-85.95411046,22,1
Stephens,Oklahoma,34.48556989,-97.85141892,22,1
Stone,Mississippi,30.79187949,-89.11547539,22,0
Warren,Missouri,38.76529479,-91.16124662,22,0
Washington,Nebraska,41.52815707,-96.22019892,22,1
Williamsburg,Virginia,37.28131268,-76.70905141,22,2
Wise,Virginia,36.9746148,-82.62410519,22,1
Andrews,Texas,32.30468633,-102.6376548,21,0
Appomattox,Virginia,37.37569884,-78.81340003,21,0
Beadle,South Dakota,44.41464384,-98.27858469,21,2
Carroll,Ohio,40.5789686,-81.09178213,21,1
Clark,Wisconsin,44.73483377,-90.61207486,21,4
Clearfield,Pennsylvania,41.00110782,-78.47592663,21,0
Crow Wing,Minnesota,46.48096553,-94.06755609,21,1
DeKalb,Tennessee,35.97616272,-85.83689361,21,0
Douglas,Nevada,38.912862,-119.6171333,21,0
Emanuel,Georgia,32.59221302,-82.30239915,21,0
Emmet,Michigan,45.52625509,-84.89083249,21,2
Franklin,Georgia,34.37525597,-83.23159927,21,1
Goodhue,Minnesota,44.40849741,-92.7234195,21,0
Iowa,Iowa,41.68630265,-92.0643373,21,0
Jasper,South Carolina,32.43171982,-81.02487495,21,1
Kauai,Hawaii,22.03935037,-159.5966786,21,0
Kit Carson,Colorado,39.30497777,-102.6022199,21,2
Matanuska-Susitna,Alaska,62.31305045,-149.5741743,21,1
Monroe,Tennessee,35.44550387,-84.24902965,21,1
Nowata,Oklahoma,36.79843529,-95.61902331,21,0
Okanogan,Washington,48.54855019,-119.7387224,21,1
Saline,Kansas,38.78369175,-97.65185177,21,2
Steele,Minnesota,44.02240351,-93.22627088,21,0
Whitley,Indiana,41.13863784,-85.50791236,21,1
Bleckley,Georgia,32.43829035,-83.33035166,20,0
Buchanan,Iowa,42.4709188,-91.83510825,20,0
Burnet,Texas,30.78801353,-98.181887,20,0
Caldwell,Texas,29.83668859,-97.61814775,20,0
Clark,Kentucky,37.9689263,-84.14615986,20,0
Defiance,Ohio,41.32398837,-84.49076944,20,1
Douglas,Illinois,39.76768052,-88.21854195,20,0
Fayette,Ohio,39.56021306,-83.4562016,20,0
Hockley,Texas,33.60771256,-102.3431676,20,1
Hood,Texas,32.42990927,-97.83242024,20,3
Hot Spring,Arkansas,34.31709259,-92.95396325,20,0
Knox,Indiana,38.68861576,-87.4194665,20,0
Lake,Colorado,39.20278823,-106.3555697,20,0
Martin,North Carolina,35.84326734,-77.10860251,20,0
Medina,Texas,29.3557301,-99.11030298,20,2
Mississippi,Arkansas,35.76271485,-90.0519437,20,0
Polk,Texas,30.79472531,-94.8276624,20,0
Pulaski,Illinois,37.22631423,-89.13085001,20,0
Rice,Minnesota,44.3543376,-93.29658715,20,1
Stoddard,Missouri,36.85571651,-89.9444155,20,0
Taos,New Mexico,36.58006022,-105.6310198,20,0
Tipton,Indiana,40.31123252,-86.05234925,20,1
Titus,Texas,33.21339719,-94.96797273,20,0
Towns,Georgia,34.91369188,-83.7410746,20,1
Yalobusha,Mississippi,34.02824175,-89.7076205,20,0
Atascosa,Texas,28.89333001,-98.52730485,19,1
Cheboygan,Michigan,45.44787015,-84.50122149,19,1
Cherokee,North Carolina,35.1349263,-84.05970864,19,1
Christian,Missouri,36.9711783,-93.18537118,19,0
Clallam,Washington,48.04754642,-123.9226319,19,0
Crawford,Pennsylvania,41.68447709,-80.10760592,19,0
Fannin,Texas,33.59564294,-96.10751083,19,0
Garfield,Oklahoma,36.3791334,-97.78265517,19,1
Grand Traverse,Michigan,44.69565625,-85.55585247,19,5
Greene,Arkansas,36.1173546,-90.55832668,19,0
Greene,North Carolina,35.48544173,-77.67578087,19,0
Guernsey,Ohio,40.05026529,-81.49248905,19,0
Halifax,Virginia,36.76654925,-78.93512622,19,0
Hamblen,Tennessee,36.21990035,-83.26586179,19,2
Hardeman,Tennessee,35.20772017,-88.99161161,19,0
Henry,Virginia,36.68542395,-79.87634026,19,1
Hocking,Ohio,39.49537927,-82.47991446,19,1
Inyo,California,36.51112084,-117.4111978,19,1
Kearny,Kansas,38.00017981,-101.321681,19,0
Levy,Florida,29.31829741,-82.74007147,19,0
Logan,Ohio,40.38996525,-83.76784341,19,0
Marathon,Wisconsin,44.89792533,-89.75863384,19,1
Merrick,Nebraska,41.16624273,-98.0374887,19,0
Ochiltree,Texas,36.27829105,-100.8158184,19,1
Sagadahoc,Maine,43.95415864,-69.85074999,19,0
San Augustine,Texas,31.39457611,-94.17000399,19,1
San Miguel,Colorado,38.00450883,-108.4020725,19,0
Webster,Mississippi,33.61300486,-89.28392912,19,1
Yates,New York,42.63505484,-77.10369919,19,1
Yuba,California,39.26255932,-121.3535644,19,1
Asotin,Washington,46.18894415,-117.2022851,18,2
Barren,Kentucky,36.96469836,-85.93338945,18,0
Brown,Indiana,39.19605589,-86.22868909,18,1
Calumet,Wisconsin,44.0816316,-88.21780273,18,0
Carroll,Tennessee,35.97366108,-88.45189331,18,1
Crawford,Georgia,32.71391813,-83.98061238,18,0
Crawford,Indiana,38.28814402,-86.44518825,18,0
Curry,New Mexico,34.57421077,-103.3468876,18,0
Des Moines,Iowa,40.92012606,-91.18326592,18,1
Dinwiddie,Virginia,37.07544585,-77.63451754,18,0
Graham,Arizona,32.93166885,-109.8882178,18,0
Jackson,Minnesota,43.67423373,-95.15398258,18,0
Jasper,Texas,30.74685667,-94.02667579,18,1
Jones,North Carolina,35.02254606,-77.35870791,18,2
Juneau,Wisconsin,43.92456975,-90.11120239,18,1
Kewaunee,Wisconsin,44.51727459,-87.61468386,18,1
Klickitat,Washington,45.87325839,-120.7913598,18,3
Knox,Ohio,40.39830217,-82.42027563,18,1
Mineral,West Virginia,39.41561583,-78.94104895,18,0
Montgomery,Kansas,37.19236568,-95.74329258,18,2
Oconto,Wisconsin,45.02715345,-88.26807503,18,0
Out of MI,Michigan,,,18,0
Randolph,Arkansas,36.3415714,-91.02455531,18,0
Sherman,Texas,36.27751473,-101.8933156,18,0
St. Croix,Wisconsin,45.03437474,-92.45000068,18,0
Sweetwater,Wyoming,41.65943896,-108.8827882,18,0
Taylor,Georgia,32.55792548,-84.25077141,18,2
Vermilion,Illinois,40.18417171,-87.73384359,18,1
Winneshiek,Iowa,43.29094334,-91.84422722,18,0
Woodford,Kentucky,38.04178222,-84.7417556,18,0
Berrien,Georgia,31.27590016,-83.2252992,17,0
Boyle,Kentucky,37.62680923,-84.8633779,17,0
Charles City,Virginia,37.35358063,-77.05634116,17,1
Cherokee,South Carolina,35.05122251,-81.61828622,17,0
Cherokee,Texas,31.837258,-95.16559897,17,1
Coshocton,Ohio,40.30096166,-81.91729018,17,0
Franklin,Kansas,38.56443815,-95.28644341,17,0
Franklin,Kentucky,38.2379395,-84.87962551,17,0
Franklin,Mississippi,31.47786634,-90.89672989,17,1
Harrison,Kentucky,38.44188174,-84.32869741,17,0
Hill,Texas,31.99045053,-97.13423143,17,1
Howard,Nebraska,41.2200529,-98.5166499,17,0
Jackson,Oklahoma,34.58781741,-99.41138784,17,0
Jenkins,Georgia,32.79248718,-81.96040187,17,1
Kalkaska,Michigan,44.68512729,-85.09085699,17,2
Laurel,Kentucky,37.10975748,-84.11321779,17,2
Lawrence,Tennessee,35.21675201,-87.39787695,17,0
Marion,Kentucky,37.55218078,-85.26898542,17,0
Milam,Texas,30.7858183,-96.97718698,17,1
Montezuma,Colorado,37.33859579,-108.5958857,17,2
Murray,Minnesota,44.02216709,-95.76328482,17,0
Muskingum,Ohio,39.96575964,-81.94363275,17,0
Otter Tail,Minnesota,46.40846929,-95.70835255,17,0
Roscommon,Michigan,44.33473082,-84.61067651,17,0
Sabine,Louisiana,31.56388699,-93.55433981,17,1
Sioux,Iowa,43.08221074,-96.1767568,17,0
Somerset,Maine,45.51229767,-69.95995554,17,0
Starke,Indiana,41.27890281,-86.64686895,17,2
Surry,North Carolina,36.41689489,-80.69102283,17,0
Turner,South Dakota,43.3109081,-97.14865776,17,0
Amelia,Virginia,37.34081025,-77.98584649,16,1
Ashley,Arkansas,33.19153461,-91.7698471,16,0
Buchanan,Virginia,37.26818323,-82.03749726,16,0
Butte,California,39.66727762,-121.6005252,16,0
Campbell,Tennessee,36.40355516,-84.1510856,16,1
Cherokee,Alabama,34.17805983,-85.60638968,16,0
Cocke,Tennessee,35.9278914,-83.11828725,16,0
Desha,Arkansas,33.83011025,-91.25500948,16,0
Drew,Arkansas,33.59035001,-91.71777921,16,1
Fayette,Illinois,39.00072038,-89.02452658,16,2
Grant,New Mexico,32.73911281,-108.3827845,16,0
Harrison,Iowa,41.68330137,-95.81558439,16,0
Hutchinson,Texas,35.84006574,-101.3546643,16,0
Irwin,Georgia,31.60213036,-83.27501387,16,1
Jackson,North Carolina,35.28814273,-83.14093385,16,0
Jay,Indiana,40.43781032,-85.00576229,16,0
Kendall,Texas,29.94414155,-98.7113588,16,0
Ketchikan Gateway,Alaska,55.57445008,-130.975561,16,0
Knox,Maine,44.11486325,-69.10529169,16,0
Lewis and Clark,Montana,47.12610041,-112.394698,16,0
Logan,Oklahoma,35.91899576,-97.44352845,16,1
Mahaska,Iowa,41.33521503,-92.64083907,16,1
Marshall,West Virginia,39.86064362,-80.66591062,16,0
McLean,Kentucky,37.5301951,-87.26803443,16,1
Missaukee,Michigan,44.33772443,-85.09256478,16,1
Oceana,Michigan,43.64124435,-86.26726673,16,1
Okmulgee,Oklahoma,35.64661916,-95.96432828,16,0
Payette,Idaho,44.00545243,-116.7647695,16,1
Pender,North Carolina,34.52265624,-77.90352133,16,1
Randolph,Indiana,40.15734772,-85.01139319,16,2
Rock,Minnesota,43.67482683,-96.25296832,16,0
Russell,Kentucky,36.99308373,-85.06070117,16,3
Schley,Georgia,32.2654021,-84.31258912,16,1
Shawano,Wisconsin,44.78902246,-88.76443896,16,0
Sheridan,Wyoming,44.79048913,-106.8862389,16,0
Sullivan,Indiana,39.08952258,-87.41414469,16,0
Tioga,Pennsylvania,41.77255149,-77.25433032,16,1
Torrance,New Mexico,34.64048375,-105.8508949,16,0
Van Zandt,Texas,32.56483801,-95.83766469,16,1
Vernon,Louisiana,31.10884837,-93.18153838,16,2
Warren,North Carolina,36.39728256,-78.10652228,16,0
Winston,Alabama,34.15030532,-87.37325922,16,0
Brunswick,Virginia,36.76366949,-77.8593436,15,0
Calhoun,Florida,30.40666734,-85.19394153,15,0
Carroll,Virginia,36.73066666,-80.73455942,15,0
Cascade,Montana,47.30797024,-111.3467922,15,2
Cass,Texas,33.07499881,-94.34646905,15,0
Castro,Texas,34.53016752,-102.2617243,15,1
Champaign,Ohio,40.13923427,-83.76875242,15,1
Chattooga,Georgia,34.47197698,-85.34535662,15,2
Clayton,Iowa,42.84443388,-91.34133693,15,1
Dade,Georgia,34.8549167,-85.50490424,15,1
Dare,North Carolina,35.66520691,-75.71767334,15,1
DeWitt,Texas,29.08101855,-97.3568117,15,1
Door,Wisconsin,44.95856458,-87.30002707,15,3
Elko,Nevada,41.14531606,-115.3577619,15,1
Fayette,Texas,29.87788372,-96.92076062,15,1
Fayette,West Virginia,38.02974928,-81.08286634,15,0
Franklin,New York,44.59040891,-74.29926032,15,0
Grant,Louisiana,31.59882456,-92.56124347,15,0
Green,Wisconsin,42.6794956,-89.60243287,15,0
Grundy,Iowa,42.40183723,-92.78829551,15,0
Guadalupe,New Mexico,34.86319296,-104.790669,15,0
Jackson,Florida,30.7954597,-85.21500423,15,0
Jefferson,Georgia,33.05867328,-82.41609057,15,1
Johnson,Wyoming,44.04057166,-106.5845174,15,1
Kittitas,Washington,47.12521214,-120.679439,15,0
Madison,Virginia,38.41531222,-78.28220331,15,0
Marion,Texas,32.79868409,-94.3566123,15,0
Meeker,Minnesota,45.12328869,-94.52839455,15,0
Menard,Illinois,40.02742725,-89.80246001,15,0
Nicollet,Minnesota,44.35291112,-94.24710352,15,2
Obion,Tennessee,36.35732446,-89.14921589,15,1
Oxford,Maine,44.49952995,-70.75682123,15,0
Perry,Alabama,32.64048341,-87.29770589,15,0
Pottawatomie,Kansas,39.37925655,-96.34564657,15,0
Powhatan,Virginia,37.55016038,-77.91267882,15,0
Quitman,Mississippi,34.25157572,-90.28908,15,0
Screven,Georgia,32.74976524,-81.60779441,15,1
Switzerland,Indiana,38.82767338,-85.03022429,15,0
Upshur,Texas,32.73706798,-94.93999853,15,0
Webster,Missouri,37.2813734,-92.876329,15,0
Allen,Kentucky,36.75197631,-86.19457544,14,0
Amherst,Virginia,37.60308293,-79.14548696,14,0
Beaver,Oklahoma,36.7496847,-100.4758872,14,0
Bullock,Alabama,32.10030533,-85.71265535,14,0
Burleson,Texas,30.49273808,-96.62158484,14,0
Butler,Kansas,37.78134351,-96.83878537,14,0
Caledonia,Vermont,44.46548598,-72.10314651,14,0
Carter,Tennessee,36.28969086,-82.12588974,14,1
Cerro Gordo,Iowa,43.08177563,-93.2612239,14,0
Codington,South Dakota,44.97788119,-97.18827677,14,0
Columbia,Oregon,45.94464254,-123.0890898,14,0
Garvin,Oklahoma,34.70418038,-97.30811132,14,1
George,Mississippi,30.86259065,-88.64436789,14,1
Gila,Arizona,33.80190085,-110.8132779,14,0
Gladwin,Michigan,43.98901072,-84.38774817,14,1
Grant,Arkansas,34.29017991,-92.42320562,14,0
Heard,Georgia,33.29686567,-85.12886832,14,1
Jackson,Texas,28.95472367,-96.57749563,14,0
La Paz,Arizona,33.72854224,-113.9810029,14,1
Lawrence,Alabama,34.52041498,-87.31069453,14,0
Lincoln,Oklahoma,35.70270942,-96.8812462,14,1
Lincoln,Tennessee,35.13738622,-86.58910106,14,0
Lyon,Iowa,43.38107862,-96.20926845,14,0
Meade,Kentucky,37.96163597,-86.21028219,14,1
Mecosta,Michigan,43.64064262,-85.32463223,14,1
Monroe,Wisconsin,43.94641218,-90.618819,14,1
Ogemaw,Michigan,44.33481032,-84.12725175,14,0
Okeechobee,Florida,27.3863362,-80.88944347,14,0
Park,Colorado,39.120926,-105.7182065,14,0
Pennington,South Dakota,44.0025835,-102.8240777,14,1
Perquimans,North Carolina,36.17847453,-76.40603143,14,0
Perry,Kentucky,37.25023553,-83.22922731,14,0
Pittsylvania,Virginia,36.81980341,-79.39731264,14,1
San Juan,Washington,48.60182783,-122.96745,14,0
Seneca,Ohio,41.12351311,-83.12783209,14,1
Tillman,Oklahoma,34.37288446,-98.92426619,14,0
TriCounty,Utah,40.12491499,-109.5174415,14,0
Watonwan,Minnesota,43.97823903,-94.61413846,14,0
Waynesboro,Virginia,38.06451466,-78.90293905,14,0
White,Tennessee,35.92929884,-85.45591799,14,0
Whitman,Washington,46.90022523,-117.5241763,14,0
Austin,Texas,29.88548725,-96.27736949,13,0
Brookings,South Dakota,44.36974375,-96.79079945,13,0
Calaveras,California,38.20537103,-120.552913,13,0
Campbell,Virginia,37.20553386,-79.09678609,13,0
Cassia,Idaho,42.28347888,-113.6012409,13,1
Charlevoix,Michigan,45.37790017,-85.19614053,13,1
Chattahoochee,Georgia,32.34341231,-84.78809239,13,0
Chisago,Minnesota,45.5021011,-92.90861945,13,1
Choctaw,Mississippi,33.34598242,-89.24809382,13,1
Clear Creek,Colorado,39.68864463,-105.6463118,13,1
Columbia,Arkansas,33.21230701,-93.22642793,13,2
Conway,Arkansas,35.26205537,-92.70506566,13,1
Delta,Michigan,45.9048491,-86.9080745,13,2
Dixon,Nebraska,42.49188363,-96.86782408,13,0
Eddy,New Mexico,32.47167456,-104.3053527,13,1
Fillmore,Minnesota,43.67394126,-92.08980382,13,1
Fountain,Indiana,40.12361933,-87.24217689,13,2
Gem,Idaho,44.06482372,-116.398376,13,0
Henry,Tennessee,36.33160906,-88.30121797,13,0
Howard,Arkansas,34.09007427,-93.9934871,13,0
Hughes,South Dakota,44.39091534,-99.99661148,13,0
Jefferson,Oregon,44.62806839,-121.17832,13,0
Jersey,Illinois,39.08869046,-90.35393073,13,1
Jo Daviess,Illinois,42.36542373,-90.21094405,13,0
Le Flore,Oklahoma,34.89851864,-94.70392124,13,0
Lee,Iowa,40.64181461,-91.48183025,13,0
Limestone,Texas,31.5454767,-96.58095444,13,1
Lincoln,Maine,44.05996956,-69.54227124,13,0
Logan,Kentucky,36.85949479,-86.877635,13,1
Logan,West Virginia,37.8299889,-81.93528571,13,1
Lyon,Kentucky,37.02080035,-88.07886257,13,3
Malheur,Oregon,43.1937027,-117.6227395,13,0
Manitowoc,Wisconsin,44.11946801,-87.80928853,13,1
Mariposa,California,37.57978556,-119.9073334,13,0
Mason,Illinois,40.23917274,-89.91824452,13,0
McKenzie,North Dakota,47.7413337,-103.395905,13,0
Monroe,Alabama,31.56729412,-87.36995001,13,1
Morgan,West Virginia,39.55439028,-78.26311676,13,0
Nottoway,Virginia,37.1435975,-78.05065922,13,0
Osceola,Iowa,43.37824276,-95.62422844,13,0
Perry,Ohio,39.73508655,-82.23804971,13,0
Pike,Kentucky,37.47088263,-82.39487445,13,2
Preston,West Virginia,39.46770987,-79.66712803,13,0
Rabun,Georgia,34.88389445,-83.40304637,13,1
Richland,Wisconsin,43.3762778,-90.43012729,13,2
Sebastian,Arkansas,35.19605503,-94.27162713,13,0
Smyth,Virginia,36.84455636,-81.53344948,13,0
Spencer,Kentucky,38.03223971,-85.32749335,13,0
Staunton,Virginia,38.15965544,-79.05979937,13,0
Val Verde,Texas,29.89149232,-101.1525205,13,0
Warren,Georgia,33.41146451,-82.67795848,13,0
Wasco,Oregon,45.16292781,-121.1670954,13,1
Washington,Illinois,38.35309213,-89.40982703,13,0
Wayne,Georgia,31.5521809,-81.91894878,13,0
Willacy,Texas,26.47411727,-97.61535848,13,1
Woodford,Illinois,40.78579374,-89.20973757,13,1
Adair,Missouri,40.19058551,-92.60078167,12,0
Alamosa,Colorado,37.57250606,-105.7885451,12,2
Allendale,South Carolina,32.98837386,-81.35321066,12,1
Baca,Colorado,37.31940883,-102.5603223,12,0
Bamberg,South Carolina,33.21927586,-81.05659969,12,0
Benton,Mississippi,34.81681228,-89.18945516,12,0
Bureau,Illinois,41.40385234,-89.5283051,12,0
Caldwell,Kentucky,37.14749129,-87.86948214,12,0
Cannon,Tennessee,35.80990797,-86.05738983,12,0
Charlton,Georgia,30.78371028,-82.13951596,12,0
Clay,Nebraska,40.52439441,-98.05126296,12,0
Cleburne,Alabama,33.67679204,-85.52005899,12,1
Cumberland,Virginia,37.51328851,-78.24398086,12,0
Dallam,Texas,36.27787176,-102.6020725,12,1
Dunn,Wisconsin,44.94562799,-91.8962481,12,0
Erath,Texas,32.23602653,-98.21773417,12,1
Floyd,Kentucky,37.56213922,-82.74750924,12,0
Galax,Virginia,36.66601852,-80.91703124,12,0
Gooding,Idaho,42.96927962,-114.8108306,12,0
Grays Harbor,Washington,47.14003705,-123.7820567,12,0
Greenup,Kentucky,38.54332505,-82.9215658,12,0
Haywood,North Carolina,35.55269063,-82.98196486,12,0
Jackson,Wisconsin,44.31864893,-90.80566792,12,1
Lea,New Mexico,32.79215361,-103.4123733,12,0
Lincoln,Georgia,33.79201475,-82.45024131,12,0
Madison,Idaho,43.78141028,-111.6538474,12,0
Marion,Iowa,41.33445101,-93.09934783,12,0
Mason,Michigan,43.99509218,-86.24988902,12,0
Mason,West Virginia,38.77071799,-82.02524219,12,0
Mendocino,California,39.4381191,-123.3911313,12,0
Montgomery,Kentucky,38.03253032,-83.9145241,12,0
Parke,Indiana,39.77202286,-87.20375833,12,0
Perry,Tennessee,35.63708728,-87.86139634,12,0
Posey,Indiana,38.02097333,-87.86480429,12,0
Ray,Missouri,39.3537468,-93.98905745,12,0
San Patricio,Texas,28.00880118,-97.51763891,12,0
Scioto,Ohio,38.80270163,-82.98907345,12,0
Seminole,Oklahoma,35.16478725,-96.61686741,12,2
Sequoyah,Oklahoma,35.49447108,-94.75463785,12,3
Sevier,Arkansas,33.99780401,-94.2424869,12,1
Shelby,Iowa,41.6850066,-95.31015553,12,0
Sullivan,New Hampshire,43.36094111,-72.22203125,12,1
Tallahatchie,Mississippi,33.95339918,-90.1729398,12,1
Taney,Missouri,36.65465345,-93.04075153,12,2
Todd,Kentucky,36.8381152,-87.17878374,12,0
Washington,Florida,30.61359259,-85.66002461,12,0
Wythe,Virginia,36.91582035,-81.07834059,12,1
York,Nebraska,40.87272618,-97.59710186,12,0
Atchison,Kansas,39.53185661,-95.30870026,11,0
Atkinson,Georgia,31.29633502,-82.87545866,11,1
Bannock,Idaho,42.67002716,-112.2233311,11,0
Benton,Indiana,40.60626947,-87.31093999,11,0
Bradley,Arkansas,33.46755808,-92.15980837,11,1
Brown,Ohio,38.93416837,-83.86788395,11,1
Clare,Michigan,43.98794227,-84.8481986,11,1
Cleveland,Arkansas,33.89723187,-92.18537045,11,0
Clinton,Missouri,39.6013098,-94.40465394,11,0
Colorado,Texas,29.622098,-96.5273805,11,0
Craig,Oklahoma,36.76268118,-95.20916602,11,0
Custer,Oklahoma,35.63853802,-99.00170785,11,0
Dunn,North Dakota,47.35423935,-102.6160468,11,0
Essex,Virginia,37.93357639,-76.94230311,11,0
Geary,Kansas,38.99871131,-96.7577178,11,0
Gosper,Nebraska,40.51481965,-99.83020279,11,0
Greene,Iowa,42.03614551,-94.39658081,11,0
Hancock,West Virginia,40.51943859,-80.57461608,11,0
Hart,Georgia,34.34626973,-82.96567682,11,0
Humphreys,Tennessee,36.03958805,-87.77992872,11,1
Huntington,Indiana,40.82907273,-85.48822092,11,2
Itasca,Minnesota,47.51009045,-93.63092229,11,0
Lamar,Alabama,33.77995024,-88.09668032,11,0
Manistee,Michigan,44.33352407,-86.05626916,11,0
Marinette,Wisconsin,45.38553432,-88.033246,11,1
McCreary,Kentucky,36.73874143,-84.48102924,11,0
McNairy,Tennessee,35.17468549,-88.5647812,11,0
Mercer,Kentucky,37.81474237,-84.87488475,11,0
Minidoka,Idaho,42.85518524,-113.6357257,11,0
O'Brien,Iowa,43.08310673,-95.62474482,11,0
Perry,Indiana,38.07809328,-86.63741946,11,0
Pike,Missouri,39.34310674,-91.16980779,11,0
Polk,Tennessee,35.12245443,-84.52075859,11,0
Presque Isle,Michigan,45.34018577,-83.91498656,11,0
Raleigh,West Virginia,37.76936795,-81.2456041,11,0
Scott,Tennessee,36.42325673,-84.50360494,11,0
Silver Bow,Montana,45.90018933,-112.6620092,11,0
Southeast Utah,Utah,38.99617072,-110.7013958,11,0
Stevens,Kansas,37.1923008,-101.3118967,11,0
Stokes,North Carolina,36.4017975,-80.23893369,11,0
Stutsman,North Dakota,46.97962541,-98.95637318,11,0
Terry,Texas,33.17402785,-102.3354521,11,0
Warren,Indiana,40.34728141,-87.35602659,11,1
Whitley,Kentucky,36.75700531,-84.14541217,11,0
Wilkin,Minnesota,46.35721532,-96.4684375,11,3
Williams,North Dakota,48.34522353,-103.4793387,11,0
Alcorn,Mississippi,34.88084463,-88.57996173,10,1
Antrim,Michigan,44.99690221,-85.15503082,10,0
Ballard,Kentucky,37.05842757,-88.99427697,10,0
Becker,Minnesota,46.93479392,-95.67158144,10,0
Carroll,Illinois,42.06823429,-89.93395545,10,2
Chester,Tennessee,35.42527478,-88.6095842,10,0
Clarke,Virginia,39.11271747,-77.99199425,10,0
Crawford,Illinois,39.0032229,-87.75954624,10,0
Delaware,Iowa,42.47104597,-91.3664492,10,1
Franklin,Illinois,37.99189086,-88.92567818,10,0
Frio,Texas,28.86751206,-99.10804207,10,0
Geneva,Alabama,31.09389027,-85.83572839,10,0
Greene,Virginia,38.29545894,-78.46525378,10,1
Hancock,Maine,44.59816444,-68.38401854,10,0
Highland,Ohio,39.1839264,-83.60331456,10,1
Holmes,Florida,30.86747479,-85.81319222,10,0
Howard,Iowa,43.35671042,-92.31702714,10,0
Independence,Arkansas,35.74242707,-91.57001641,10,0
Jefferson,Kansas,39.2347941,-95.38289232,10,0
Kleberg,Texas,27.42435506,-97.69894948,10,1
Lee,Virginia,36.70586667,-83.12606515,10,0
Meade,Kansas,37.23859987,-100.364831,10,0
Mercer,West Virginia,37.40481169,-81.11023142,10,0
Monona,Iowa,42.05220391,-95.95743843,10,0
New Madrid,Missouri,36.59666326,-89.66070007,10,0
Newton,Missouri,36.90519407,-94.3394104,10,1
Otero,Colorado,37.9014485,-103.7173385,10,1
Pecos,Texas,30.78097267,-102.7241261,10,0
Pierce,Wisconsin,44.71850291,-92.4224416,10,0
Pontotoc,Oklahoma,34.72959848,-96.68337199,10,2
Roberts,South Dakota,45.62975048,-96.94672673,10,0
Rockcastle,Kentucky,37.36642393,-84.31176452,10,0
Roosevelt,New Mexico,34.02097406,-103.4799493,10,0
San Jacinto,Texas,30.57933681,-95.16260304,10,0
Shelby,Illinois,39.39133527,-88.80611122,10,1
Wabasha,Minnesota,44.28424356,-92.23121312,10,0
Waupaca,Wisconsin,44.47068056,-88.96534501,10,1
Webster,Georgia,32.04066113,-84.54742852,10,2
Wood,Texas,32.78722382,-95.38236368,10,0
Wright,Missouri,37.27029221,-92.46914488,10,0
Anderson,Kentucky,38.00671029,-84.99171713,9,1
Ashland,Ohio,40.84772277,-82.27280781,9,0
Barton,Kansas,38.47889676,-98.75636726,9,0
Blackford,Indiana,40.47388153,-85.32499702,9,1
Bracken,Kentucky,38.69158994,-84.08532444,9,0
Breckinridge,Kentucky,37.77377239,-86.42885017,9,0
Bryan,Oklahoma,33.96472458,-96.25903472,9,1
Butler,Iowa,42.73172833,-92.79015971,9,0
Charlotte,Virginia,37.01909701,-78.66314092,9,0
Chicot,Arkansas,33.26458973,-91.29539209,9,0
Clinch,Georgia,30.91395822,-82.70432472,9,0
Conecuh,Alabama,31.43401703,-86.99320044,9,0
Cooper,Missouri,38.844478,-92.80896081,9,0
Dixie,Florida,29.60631086,-83.15724673,9,0
Douglas,Wisconsin,46.43222285,-91.91595768,9,0
East Carroll,Louisiana,32.73926954,-91.23425694,9,0
Ford,Illinois,40.59706922,-88.22350769,9,1
Gates,North Carolina,36.44667547,-76.69749701,9,0
Hardin,Iowa,42.38353877,-93.23654611,9,0
Henderson,Tennessee,35.65581134,-88.38600175,9,0
Hood River,Oregon,45.51872811,-121.6552036,9,0
Izard,Arkansas,36.09604046,-91.90847954,9,0
Kimball,Nebraska,41.19774275,-103.7148131,9,0
King William,Virginia,37.70965316,-77.09384941,9,1
Lanier,Georgia,31.0382857,-83.06472457,9,1
Lawrence,South Dakota,44.35919441,-103.7929428,9,0
Leelanau,Michigan,44.94430054,-85.80150326,9,0
Lewis,New York,43.7844157,-75.44903992,9,0
Lincoln,Wyoming,42.26376367,-110.6563997,9,0
Lyon,Minnesota,44.41327865,-95.83806103,9,0
Madison,Iowa,41.33081904,-94.01554631,9,1
Meigs,Tennessee,35.51558739,-84.81482914,9,0
Morris,Texas,33.11304005,-94.73255695,9,0
Morrow,Oregon,45.41846568,-119.584546,9,0
Northumberland,Virginia,37.89202088,-76.41949732,9,0
Orleans,Vermont,44.82964024,-72.24562697,9,0
Out of HI,Hawaii,,,9,0
Overton,Tennessee,36.34117832,-85.28989535,9,0
Polk,Nebraska,41.18813488,-97.56630712,9,0
Pulaski,Virginia,37.06474963,-80.71229738,9,0
Saunders,Nebraska,41.2278103,-96.63773905,9,0
Sharp,Arkansas,36.16258158,-91.47819342,9,0
Starr,Texas,26.56150059,-98.73892358,9,0
Stevens,Washington,48.40035475,-117.8542701,9,1
Swisher,Texas,34.53028891,-101.7349174,9,0
Tattnall,Georgia,32.04785085,-82.05539188,9,0
Teton,Idaho,43.75303583,-111.2056773,9,0
Trigg,Kentucky,36.80767017,-87.87333656,9,0
Watauga,North Carolina,36.23103603,-81.70033724,9,0
Wexford,Michigan,44.33853602,-85.57712739,9,2
Wheeler,Texas,35.40114335,-100.2699514,9,0
Yuma,Colorado,40.00346839,-102.4258673,9,0
Adams,Indiana,40.7457653,-84.93671406,8,1
Albany,Wyoming,41.65498705,-105.7235415,8,0
Amador,California,38.44583082,-120.65696,8,0
Archuleta,Colorado,37.19474156,-107.0476867,8,0
Benton,Missouri,38.29503305,-93.28756116,8,0
Bourbon,Kentucky,38.2054607,-84.21827874,8,1
Brown,Minnesota,44.24205652,-94.72562874,8,1
Buena Vista,Iowa,42.73545875,-95.15100162,8,0
Cherokee,Kansas,37.16928494,-94.8462897,8,0
Cooke,Texas,33.63979567,-97.21240912,8,0
Crawford,Kansas,37.50675523,-94.85245778,8,1
Crawford,Missouri,37.97663738,-91.30528104,8,0
Day,South Dakota,45.367281,-97.60737498,8,0
Ellis,Kansas,38.91458712,-99.31751551,8,0
Giles,Tennessee,35.20222469,-87.03992678,8,0
Hancock,Illinois,40.40423981,-91.16313899,8,0
Harvey,Kansas,38.04293782,-97.42747573,8,0
Henry,Kentucky,38.44942688,-85.11587507,8,0
Kingfisher,Oklahoma,35.94530008,-97.94193268,8,0
Lafayette,Arkansas,33.24116713,-93.60677071,8,1
Madison,Louisiana,32.36918118,-91.23973355,8,0
Madison,Montana,45.30080065,-111.9173017,8,1
McCurtain,Oklahoma,34.11664328,-94.77222373,8,0
Mercer,Illinois,41.20596782,-90.74290052,8,0
Nelson,Virginia,37.78790447,-78.88498513,8,0
Norman,Minnesota,47.32628443,-96.45620947,8,0
Osceola,Michigan,43.98992088,-85.32566756,8,0
Owyhee,Idaho,42.58016894,-116.1693871,8,0
Page,Iowa,40.7393172,-95.1497813,8,0
Palo Pinto,Texas,32.75310985,-98.31319001,8,1
Pamlico,North Carolina,35.15253315,-76.66559823,8,0
Park,Montana,45.48965095,-110.5264394,8,0
Parmer,Texas,34.52993409,-102.7844668,8,0
