county,state,Lat,Long_,Confirmed,Deaths
Los Angeles,California,34.30828379,-118.2282411,267801,6514
Miami-Dade,Florida,25.6112362,-80.55170587,169426,3231
Cook,Illinois,41.84144849,-87.81658794,143634,5210
Harris,Texas,29.85864939,-95.39339521,141353,2576
Maricopa,Arizona,33.34835867,-112.4918154,141211,3363
Dallas,Texas,32.76670599,-96.7779605,81175,1124
Broward,Florida,26.15184651,-80.48725556,76854,1379
Queens,New York,40.71088124,-73.81684712,72233,7248
Kings,New York,40.6361825,-73.94935552,68279,7326
Clark,Nevada,36.21458855,-115.0130241,66262,1379
Riverside,California,33.74314981,-115.9933578,58178,1189
Bexar,Texas,29.44928723,-98.52019748,57145,1297
San Bernardino,California,34.84060306,-116.1774685,54478,925
Orange,California,33.70147516,-117.7645998,53315,1216
Bronx,New York,40.85209301,-73.86282755,52920,4947
Tarrant,Texas,32.77143818,-97.29101614,47917,711
Nassau,New York,40.74066522,-73.58941873,46643,2201
San Diego,California,33.03484597,-116.7365326,46610,776
Suffolk,New York,40.88320119,-72.8012172,46387,2011
Palm Beach,Florida,26.64676272,-80.46536002,46283,1342
Hillsborough,Florida,27.9276559,-82.32013172,41826,628
Orange,Florida,28.51367621,-81.31799498,39973,445
Westchester,New York,41.16278376,-73.75741653,38098,1454
Philadelphia,Pennsylvania,40.00338507,-75.1379271,36187,1799
Wayne,Michigan,42.28098405,-83.281255,35021,2977
New York,New York,40.7672726,-73.97152637,33371,3176
Kern,California,35.34329425,-118.7277796,31947,369
Hidalgo,Texas,26.39418217,-98.18299696,31562,1630
Shelby,Tennessee,35.1864775,-89.89692423,30953,459
Salt Lake,Utah,40.66616532,-111.9216011,30784,251
Duval,Florida,30.33225875,-81.66976468,30207,378
Travis,Texas,30.33432034,-97.7853562,29252,426
Prince George's,Maryland,38.83070039,-76.8496441,29210,827
Mecklenburg,North Carolina,35.24469268,-80.8317671,28708,352
Milwaukee,Wisconsin,43.00486062,-87.96733172,28535,528
Fresno,California,36.75733899,-119.6466953,28336,382
Fulton,Georgia,33.79216944,-84.46319413,27529,575
Gwinnett,Georgia,33.96044201,-84.02137802,27358,404
Middlesex,Massachusetts,42.48607732,-71.39049229,27340,2146
Hennepin,Minnesota,45.00761521,-93.47694895,27177,931
Franklin,Ohio,39.96995815,-83.01115755,26961,607
Davidson,Tennessee,36.17007426,-86.78646056,26630,306
Pima,Arizona,32.0971334,-111.7890033,25412,622
Suffolk,Massachusetts,42.3279514,-71.07850442,24281,1135
St. Louis,Missouri,38.6377004,-90.4458375,24104,801
El Paso,Texas,31.76980765,-106.2363275,23784,522
Cameron,Texas,26.14524221,-97.48140372,22698,903
Bergen,New Jersey,40.96010917,-74.07164325,22406,2045
Montgomery,Maryland,39.13676329,-77.20358245,22360,844
Sacramento,California,38.45106826,-121.3425374,22269,406
King,Washington,47.49137892,-121.8346131,22103,768
Pinellas,Florida,27.93130349,-82.72239666,22004,744
Marion,Indiana,39.78163624,-86.13826325,21403,766
Alameda,California,37.64629437,-121.8929271,21189,406
Santa Clara,California,37.23104908,-121.6970462,21153,312
Essex,New Jersey,40.78681335,-74.24657979,21054,2129
Fairfax,Virginia,38.83677558,-77.27565836,20801,586
Hudson,New Jersey,40.73766234,-74.07515667,20643,1516
Oakland,Michigan,42.66090111,-83.38595416,20543,1200
Nueces,Texas,27.736286,-97.5433285,20456,412
Lee,Florida,26.58410348,-81.88399313,20377,465
San Joaquin,California,37.93433732,-121.2730061,20194,441
Fairfield,Connecticut,41.26809896,-73.3881171,20015,1422
Polk,Florida,27.95027105,-81.69732947,19849,529
Essex,Massachusetts,42.6687626,-70.94687179,19765,1281
Jefferson,Alabama,33.55554728,-86.895063,19752,350
Cobb,Georgia,33.94243204,-84.5761255,19551,426
Middlesex,New Jersey,40.43629879,-74.41426991,19444,1425
Passaic,New Jersey,41.03238628,-74.29954144,19004,1254
DeKalb,Georgia,33.76944049,-84.22396017,18647,362
Providence,Rhode Island,41.87064746,-71.57753536,18437,0
Utah,Utah,40.1166722,-111.6657662,18436,57
Oklahoma,Oklahoma,35.55140095,-97.40716948,17869,194
Baltimore,Maryland,39.45784712,-76.62911955,17837,623
Union,New Jersey,40.65835409,-74.30680092,17641,1355
Wake,North Carolina,35.78879266,-78.65249174,17596,242
Jefferson,Louisiana,29.74075478,-90.11115756,17530,568
Cuyahoga,Ohio,41.424119,-81.65918339,17490,656
DuPage,Illinois,41.85116968,-88.08642662,17471,561
Lake,Illinois,42.3224907,-88.00367925,16892,487
Tulsa,Oklahoma,36.11939621,-95.94013939,16887,160
Contra Costa,California,37.91923498,-121.9289527,16572,205
Stanislaus,California,37.55862499,-120.9970722,16452,354
Fort Bend,Texas,29.52704478,-95.77219463,16207,288
Douglas,Nebraska,41.29518299,-96.15085305,16013,192
Tulare,California,36.22026558,-118.8020203,15970,263
Polk,Iowa,41.68679484,-93.57767461,15962,262
Richmond,New York,40.58582155,-74.14808598,15890,1086
Charleston,South Carolina,32.82487866,-79.96512315,15817,260
Baltimore City,Maryland,39.30211911,-76.61151012,15525,487
Jefferson,Kentucky,38.18664655,-85.65931031,15513,304
District of Columbia,District of Columbia,38.90417773,-77.01655992,15250,624
Richland,South Carolina,34.01791263,-80.90267209,15250,240
Rockland,New York,41.15027894,-74.02560498,15167,675
East Baton Rouge,Louisiana,30.53842039,-91.09777565,15111,440
Hartford,Connecticut,41.80283011,-72.73103891,14539,1434
Macomb,Michigan,42.69158356,-82.92752801,14478,1021
Greenville,South Carolina,34.89502264,-82.37295012,14356,299
Worcester,Massachusetts,42.35026951,-71.90493363,14344,1101
New Haven,Connecticut,41.4080325,-72.93620426,14340,1115
Will,Illinois,41.44619267,-87.97862712,13984,378
Collin,Texas,33.18820114,-96.57264368,13537,145
Webb,Texas,27.7610369,-99.33237355,13474,289
Mobile,Alabama,30.78472347,-88.20842409,13449,292
Hamilton,Ohio,39.19673558,-84.54502924,13191,315
Ocean,New Jersey,39.8895449,-74.28089251,13158,1048
Denver,Colorado,39.76018276,-104.8725695,13116,435
Kane,Illinois,41.93842729,-88.42861412,13092,326
Ada,Idaho,43.4526575,-116.2415516,12862,147
Ventura,California,34.44465746,-119.0910613,12729,150
Yuma,Arizona,32.76895712,-113.9066674,12695,345
Collier,Florida,26.11091986,-81.34687065,12681,216
Orleans,Louisiana,30.06971951,-89.92660315,12569,587
Prince William,Virginia,38.70916224,-77.48713689,12449,203
Osceola,Florida,28.06312234,-81.14882926,12438,145
Escambia,Florida,30.67652764,-87.37284571,12243,228
Montgomery,Pennsylvania,40.21053671,-75.36652296,12180,878
Allegheny,Pennsylvania,40.46809875,-79.98167747,12162,355
Orange,New York,41.40337468,-74.30240757,12036,498
Denton,Texas,33.20521901,-97.11691153,11985,152
Imperial,California,33.0393082,-115.3669042,11835,317
Monmouth,New Jersey,40.26549699,-74.22240686,11827,867
Galveston,Texas,29.40167322,-94.90469073,11604,158
Manatee,Florida,27.47196942,-82.31831044,11458,291
Delaware,Pennsylvania,39.91680171,-75.40243663,11401,756
Yakima,Washington,46.45738486,-120.7380126,11395,258
Erie,New York,42.76249024,-78.73063652,11342,693
Lubbock,Texas,33.61008596,-101.8204789,11324,125
Brazoria,Texas,29.18757369,-95.44563172,11281,167
Kansas City,Missouri,39.0997,-94.5786,11147,125
San Francisco,California,37.75215114,-122.4385672,11143,101
Ramsey,Minnesota,45.01625271,-93.09872295,10985,320
Johnson,Kansas,38.88548175,-94.82250877,10952,146
Honolulu,Hawaii,21.45803166,-157.9712182,10939,107
Volusia,Florida,29.05858895,-81.18263252,10815,239
Montgomery,Texas,30.30079133,-95.50572772,10814,158
Lake,Indiana,41.41874274,-87.38277575,10618,323
Pinal,Arizona,32.90525627,-111.3449483,10547,207
Leon,Florida,30.45955727,-84.27491114,10482,69
Horry,South Carolina,33.9212828,-78.99555293,10353,196
Norfolk,Massachusetts,42.16073095,-71.20530408,10247,1058
New Castle,Delaware,39.57992638,-75.64054974,10106,311
Bristol,Massachusetts,41.79228404,-71.10872211,10018,697
Anne Arundel,Maryland,39.00670238,-76.60329337,9969,248
Camden,New Jersey,39.80343818,-74.96388753,9888,610
Monterey,California,36.21862405,-121.2413397,9884,71
Kent,Michigan,43.03197711,-85.54934642,9843,175
San Mateo,California,37.4228808,-122.3275546,9843,150
Marion,Florida,29.21227113,-82.05803627,9708,288
Plymouth,Massachusetts,41.94070556,-70.80802823,9671,769
Dane,Wisconsin,43.06601594,-89.41733797,9607,41
Hamilton,Tennessee,35.17670231,-85.16652245,9519,95
Knox,Tennessee,35.99508821,-83.94635435,9497,79
Washington,Arkansas,35.976844,-94.21800746,9415,117
Rutherford,Tennessee,35.84591405,-86.4107263,9361,89
Washoe,Nevada,40.66562265,-119.6631594,9268,156
Hall,Georgia,34.32207823,-83.81896936,9247,152
Arapahoe,Colorado,39.64977461,-104.3353617,9239,371
Pasco,Florida,28.30810945,-82.40227529,9204,208
Pulaski,Arkansas,34.77054088,-92.31355101,9163,149
Adams,Colorado,39.87432092,-104.3362578,9099,225
Santa Barbara,California,34.65329488,-120.0188492,9061,113
Seminole,Florida,28.7158582,-81.24060348,8998,208
Lafayette,Louisiana,30.2049055,-92.06959876,8959,132
Brown,Wisconsin,44.4526553,-88.00411844,8897,62
Merced,California,37.18922369,-120.7209035,8872,142
Montgomery,Alabama,32.2206831,-86.20969272,8852,184
Brevard,Florida,28.29409504,-80.73091022,8841,293
Bucks,Pennsylvania,40.33682119,-75.10836643,8789,607
Tuscaloosa,Alabama,33.28726072,-87.52556818,8654,118
Mercer,New Jersey,40.28047017,-74.70479631,8637,636
Guilford,North Carolina,36.07959451,-79.78824948,8597,180
Williamson,Texas,30.64655664,-97.6004854,8565,143
Caddo,Louisiana,32.57991587,-93.88375652,8538,353
Sedgwick,Kansas,37.6842718,-97.4608198,8478,86
Chatham,Georgia,32.00043026,-81.12489526,8428,159
Hampden,Massachusetts,42.13440424,-72.63235561,8199,776
Canyon,Idaho,43.61970148,-116.7095499,8168,101
Sarasota,Florida,27.18546175,-82.33174248,8142,254
Alachua,Florida,29.67866525,-82.35928158,8109,55
St. Lucie,Florida,27.37763908,-80.47106649,8000,275
McLennan,Texas,31.55255453,-97.20217694,7983,102
Madison,Alabama,34.76327133,-86.55069633,7927,78
Pierce,Washington,47.03892768,-122.1405958,7913,200
Montgomery,Ohio,39.75394919,-84.29050975,7883,163
Morris,New Jersey,40.86095313,-74.5455371,7860,831
Lancaster,Pennsylvania,40.03904563,-76.24770128,7859,458
Calcasieu,Louisiana,30.22931235,-93.35400434,7856,212
Durham,North Carolina,36.03638492,-78.87608331,7741,94
St. Charles,Missouri,38.77875681,-90.66662425,7678,120
Dakota,Minnesota,44.67172617,-93.06299363,7585,126
Kings,California,36.07409056,-119.8159973,7569,80
Jackson,Missouri,39.01002188,-94.34724536,7512,99
Lake,Florida,28.76202069,-81.7125123,7466,189
San Juan,Puerto Rico,18.386933,-66.061128,7433,0
Sonoma,California,38.52746429,-122.8862506,7412,122
Jefferson,Texas,29.8832777,-94.16434171,7402,133
Waukesha,Wisconsin,43.01833055,-88.30431188,7362,87
Lucas,Ohio,41.62101218,-83.65468618,7322,364
Lexington,South Carolina,33.89665987,-81.27146426,7278,158
Multnomah,Oregon,45.54747959,-122.4169351,7184,138
Hinds,Mississippi,32.2656285,-90.44435448,7148,160
Burlington,New Jersey,39.87681124,-74.66927768,7127,496
Richmond,Georgia,33.35777107,-82.07026432,7101,162
Clayton,Georgia,33.54187245,-84.35594188,7078,162
Berks,Pennsylvania,40.41570541,-75.92457766,7069,393
St. Louis City,Missouri,38.63555736,-90.24349225,7067,197
Forsyth,North Carolina,36.12859861,-80.25459052,7023,101
St. Tammany,Louisiana,30.40942847,-89.95642711,6941,253
Wyandotte,Kansas,39.11727348,-94.76378225,6929,134
Spartanburg,South Carolina,34.92960077,-81.99225984,6917,198
Snohomish,Washington,48.04615983,-121.7170703,6905,212
El Paso,Colorado,38.83240149,-104.5251411,6871,173
Virginia Beach,Virginia,36.73285734,-76.04566934,6826,90
Loudoun,Virginia,39.08990083,-77.63481877,6816,124
Spokane,Washington,47.62113146,-117.4046494,6801,165
Chester,Pennsylvania,39.97291773,-75.74768357,6777,367
Sussex,Delaware,38.66143781,-75.39031349,6740,206
Marin,California,38.07122463,-122.7210631,6716,118
Elkhart,Indiana,41.59761169,-85.85875695,6667,111
Minnehaha,South Dakota,43.67441641,-96.7910885,6650,81
St. Clair,Illinois,38.46996033,-89.93063427,6607,190
St. Joseph,Indiana,41.61756781,-86.29040834,6576,110
Benton,Arkansas,36.33644656,-94.25680817,6574,86
Bernalillo,New Mexico,35.05163625,-106.6703554,6452,177
Brazos,Texas,30.6636448,-96.30205577,6332,64
Greene,Missouri,37.2575872,-93.34230916,6312,58
Solano,California,38.26827353,-121.9357113,6309,63
Allen,Indiana,41.09194313,-85.06800636,6292,203
Lancaster,Nebraska,40.78416049,-96.68777155,6253,24
Ouachita,Louisiana,32.47645559,-92.15704172,6249,143
Anoka,Minnesota,45.27476015,-93.24604565,6182,135
Bay,Florida,30.26548745,-85.62122584,6057,104
Fayette,Kentucky,38.0368225,-84.45576892,6054,73
Bibb,Georgia,32.80904227,-83.70489165,6053,170
Butler,Ohio,39.44012838,-84.57388716,6040,111
Monroe,New York,43.14638895,-77.69322942,6026,289
Cherokee,Georgia,34.24393976,-84.47431861,6021,92
Shelby,Alabama,33.26879845,-86.66232561,6013,49
Muscogee,Georgia,32.50931999,-84.87142262,6009,169
Cleveland,Oklahoma,35.20413532,-97.32519562,6007,70
Chesterfield,Virginia,37.37373208,-77.5868014,5985,94
Winnebago,Illinois,42.33641854,-89.16085327,5959,149
Lee,Alabama,32.60154883,-85.35132246,5927,60
Hays,Texas,30.05669873,-98.02944344,5871,61
Somerset,New Jersey,40.56465737,-74.61683016,5798,573
Navajo,Arizona,35.3997715,-110.3218983,5787,235
Jefferson,Colorado,39.58635604,-105.2517692,5716,248
Madison,Illinois,38.83042506,-89.90422563,5698,136
DeSoto,Mississippi,34.87625235,-89.99091418,5623,61
Lehigh,Pennsylvania,40.6154815,-75.59435245,5623,353
Beaufort,South Carolina,32.39226291,-80.72619758,5622,83
Baldwin,Alabama,30.72774991,-87.72207058,5526,50
Berkeley,South Carolina,33.20222596,-79.94654523,5512,88
Woodbury,Iowa,42.38979414,-96.0459439,5509,64
Cumberland,North Carolina,35.04762133,-78.82623165,5500,76
Bell,Texas,31.03736027,-97.4785025,5473,84
Henrico,Virginia,37.53460572,-77.39326555,5453,211
York,South Carolina,34.97281497,-81.18085944,5371,75
Summit,Ohio,41.12464734,-81.53123079,5332,252
Santa Rosa,Florida,30.6934145,-87.02458128,5314,76
Williamson,Tennessee,35.89099229,-86.89281867,5310,36
St. Johns,Florida,29.90096506,-81.43589967,5308,70
Henry,Georgia,33.4533428,-84.1481466,5208,100
Gaston,North Carolina,35.29373559,-81.17477045,5162,83
Johnson,Iowa,41.67169354,-91.58754744,5147,27
Cass,North Dakota,46.93201724,-97.2444719,5122,77
Dutchess,New York,41.7648606,-73.74356679,5120,156
Davis,Utah,40.99001837,-112.1139997,5104,28
Clay,Florida,29.98319144,-81.85609986,5077,100
Howard,Maryland,39.25305293,-76.93126208,5061,122
Clarke,Georgia,33.95436462,-83.37124007,5024,44
Okaloosa,Florida,30.69143028,-86.59267105,4953,109
Florence,South Carolina,34.02361754,-79.70189312,4931,190
Pitt,North Carolina,35.59535426,-77.37353178,4918,29
Hamilton,Indiana,40.07306535,-86.05244729,4909,109
Martin,Florida,27.0772071,-80.43109784,4890,142
Sumner,Tennessee,36.46824103,-86.45917204,4865,98
Racine,Wisconsin,42.74753117,-88.05941254,4857,95
York,Pennsylvania,39.9210089,-76.73040131,4828,156
Norfolk,Virginia,36.89934014,-76.26420872,4824,78
Union,North Carolina,34.98960527,-80.52955873,4799,59
Ector,Texas,31.86898877,-102.5429428,4785,98
Potter,Texas,35.40133773,-101.893964,4780,63
Weld,Colorado,40.55499405,-104.3929621,4712,149
Champaign,Illinois,40.13919438,-88.20046615,4703,20
Boone,Missouri,38.99186229,-92.30723575,4686,10
Marion,Oregon,44.90287942,-122.5815117,4683,94
Richmond City,Virginia,37.53255773,-77.47966921,4637,61
McHenry,Illinois,42.32451172,-88.45248227,4581,118
Whitfield,Georgia,34.80987459,-84.96093476,4562,60
Genesee,Michigan,43.02244215,-83.70589709,4554,308
Benton,Washington,46.23946995,-119.5120834,4541,130
Robeson,North Carolina,34.64244496,-79.1025053,4530,75
Johnston,North Carolina,35.51745004,-78.36622717,4521,56
Washington,Oregon,45.55972701,-123.0955257,4519,60
Gloucester,New Jersey,39.71581067,-75.13995546,4511,227
Black Hawk,Iowa,42.4704581,-92.30524729,4500,90
Northampton,Pennsylvania,40.75182733,-75.30471829,4487,305
Madera,California,37.21513971,-119.7665589,4481,65
Tangipahoa,Louisiana,30.62888673,-90.40664996,4471,119
Anderson,South Carolina,34.51828081,-82.63959517,4463,176
Ellis,Texas,32.34894117,-96.79371841,4398,68
Hillsborough,New Hampshire,42.91537785,-71.7200253,4381,289
Outagamie,Wisconsin,44.41578887,-88.46565023,4373,29
Onondaga,New York,43.00491923,-76.19971155,4365,205
Warren,Kentucky,36.99903045,-86.42672751,4329,50
Boulder,Colorado,40.09313619,-105.3546767,4323,79
McKinley,New Mexico,35.5800772,-108.262245,4322,257
Chesapeake,Virginia,36.67670048,-76.30545744,4299,72
Weber-Morgan,Utah,41.27116049,-111.9145117,4295,31
New Hanover,North Carolina,34.25758282,-77.87075626,4293,30
Franklin,Washington,46.53351425,-118.9018212,4282,66
Jefferson,Missouri,38.25926778,-90.53870896,4240,59
Rapides,Louisiana,31.19778499,-92.52997303,4214,148
Southwest Utah,Utah,37.85447192,-111.4418764,4210,32
Anchorage,Alaska,61.14998174,-149.1426986,4194,35
Dorchester,South Carolina,33.0794369,-80.40502652,4173,91
Aiken,South Carolina,33.54338026,-81.63645384,4149,82
Luzerne,Pennsylvania,41.17823008,-75.98447579,4102,190
Atlantic,New Jersey,39.47538693,-74.65848483,4084,256
Coconino,Arizona,35.83883429,-111.7707178,4080,144
Linn,Iowa,42.07923082,-91.59809485,4078,112
Victoria,Texas,28.79780988,-96.96813006,4046,96
Stearns,Minnesota,45.55192576,-94.61078221,4045,24
Frederick,Maryland,39.47296601,-77.39999394,4037,131
Cabarrus,North Carolina,35.3877799,-80.55267168,4035,69
Forsyth,Georgia,34.22604035,-84.1231513,4007,45
Mohave,Arizona,35.70471703,-113.7577902,3977,227
Marshall,Alabama,34.36975964,-86.30486727,3961,43
Arlington,Virginia,38.8767675,-77.10139853,3951,149
Alamance,North Carolina,36.0434701,-79.39976137,3934,54
Lowndes,Georgia,30.83568832,-83.27056716,3900,82
Harrison,Mississippi,30.51359752,-89.12467576,3883,74
Washington,Minnesota,45.03864533,-92.88429635,3841,55
Alexandria,Virginia,38.814003,-77.08183073,3814,69
Jasper,Missouri,37.20351921,-94.34050458,3811,53
Dauphin,Pennsylvania,40.41377078,-76.77993242,3788,181
Columbia,Florida,30.22509788,-82.62160164,3787,54
Cumberland,New Jersey,39.37199394,-75.10712559,3784,159
Livingston,Louisiana,30.44143993,-90.73061664,3777,76
Smith,Texas,32.37474036,-95.2717568,3766,103
Ascension,Louisiana,30.20406249,-90.9132841,3750,98
Columbia,Georgia,33.54534185,-82.263524,3741,61
Vanderburgh,Indiana,38.02658833,-87.58763124,3719,31
Maverick,Texas,28.7429195,-100.3157686,3712,123
Walker,Texas,30.73872995,-95.57440968,3709,57
Midland,Texas,31.86904128,-102.0315682,3707,83
Sebastian,Arkansas,35.19605503,-94.27162713,3704,60
Bayamon,Puerto Rico,18.34946,-66.168435,3695,0
Winnebago,Wisconsin,44.06886922,-88.64477096,3681,26
Tom Green,Texas,31.40464436,-100.462443,3674,69
Lafourche,Louisiana,29.52470226,-90.40976986,3648,121
Sarpy,Nebraska,41.11314181,-96.11156432,3640,16
Terrebonne,Louisiana,29.37343766,-90.82626855,3630,115
Burleigh,North Dakota,46.97847375,-100.4645214,3582,43
Placer,California,39.06167234,-120.7240569,3577,45
Guadalupe,Texas,29.58165339,-97.94786822,3560,76
Washtenaw,Michigan,42.253105,-83.83853204,3560,116
Douglas,Georgia,33.70291126,-84.77026156,3550,71
San Luis Obispo,California,35.38822029,-120.4039028,3546,29
Calhoun,Alabama,33.77483727,-85.82630386,3534,44
Apache,Arizona,35.39465006,-109.4892383,3527,165
Etowah,Alabama,34.04567266,-86.04051873,3521,45
Jackson,Mississippi,30.54020656,-88.64184064,3521,70
Wilson,Tennessee,36.15496772,-86.29775884,3519,45
Kenosha,Wisconsin,42.57639354,-88.04051686,3511,65
Ingham,Michigan,42.59716886,-84.37472069,3506,47
Peoria,Illinois,40.78702156,-89.76078901,3494,50
Glynn,Georgia,31.23279254,-81.53811412,3454,95
Story,Iowa,42.03621213,-93.46499005,3453,17
Starr,Texas,26.56150059,-98.73892358,3409,164
Ottawa,Michigan,42.95996803,-85.9969107,3398,66
Wayne,North Carolina,35.36438125,-78.00027268,3381,67
Rowan,North Carolina,35.64003916,-80.52446628,3369,97
Bear River,Utah,41.52106798,-113.0832816,3351,11
Putnam,Tennessee,36.14005459,-85.50646123,3349,40
Dona Ana,New Mexico,32.35275771,-106.8329387,3343,55
San Juan,New Mexico,36.50838318,-108.320437,3327,199
Morgan,Alabama,34.45500589,-86.85475946,3314,28
Madison,Mississippi,32.63389156,-90.03513564,3312,89
Rankin,Mississippi,32.26469147,-89.94537876,3308,79
St. Landry,Louisiana,30.59724262,-92.00135806,3307,124
Jefferson,Arkansas,34.26767081,-91.92619839,3299,73
Dubuque,Iowa,42.46815349,-90.88181925,3283,41
Bossier,Louisiana,32.67932307,-93.60460152,3281,106
McLean,Illinois,40.48996987,-88.84621113,3279,23
Clark,Washington,45.77568046,-122.4829204,3234,62
Indian River,Florida,27.69308961,-80.60556721,3219,116
Sumter,South Carolina,33.91826534,-80.37942316,3215,77
Yellowstone,Montana,45.93955949,-108.2691486,3206,64
Catawba,North Carolina,35.66211129,-81.2132617,3173,52
Floyd,Georgia,34.26268279,-85.21577392,3161,45
Dougherty,Georgia,31.53328528,-84.21722377,3147,187
Houston,Georgia,32.45802497,-83.66879087,3139,82
Kaufman,Texas,32.5991417,-96.28734728,3136,47
Hernando,Florida,28.55364461,-82.42700204,3126,120
Buncombe,North Carolina,35.61113393,-82.53305,3125,82
Orangeburg,South Carolina,33.4391073,-80.79886287,3115,126
Montgomery,Tennessee,36.49609412,-87.38550661,3111,44
Marion,Ohio,40.58610662,-83.15736305,3103,47
Warren,Ohio,39.42581994,-84.16557457,3096,49
Albany,New York,42.60060306,-73.97723916,3095,134
Iredell,North Carolina,35.80950511,-80.8743128,3080,32
Mahoning,Ohio,41.01631101,-80.77287029,3073,281
La Crosse,Wisconsin,43.90632465,-91.11451093,3047,2
Charlotte,Florida,26.90131002,-81.92949121,3039,135
Harford,Maryland,39.55010644,-76.3077594,3021,76
Scott,Iowa,41.63935978,-90.61959493,3020,28
Johnson,Texas,32.37877812,-97.36615819,3011,50
Rock Island,Illinois,41.46613806,-90.57042164,2995,76
Umatilla,Oregon,45.59073056,-118.7353826,2976,41
Acadia,Louisiana,30.2950649,-92.41419698,2962,97
Bradley,Tennessee,35.15739424,-84.857186,2962,17
Craighead,Arkansas,35.83018283,-90.63235729,2950,22
Grant,Washington,47.20753737,-119.4500749,2937,21
Pickens,South Carolina,34.88807695,-82.72791551,2937,45
Saginaw,Michigan,43.33433923,-84.0513121,2932,139
Iberia,Louisiana,29.86803617,-91.75871777,2929,89
Kent,Delaware,39.08646628,-75.56884914,2925,116
Madison,Tennessee,35.61181957,-88.84076036,2921,64
Houston,Alabama,31.15197924,-85.29939599,2920,21
Bartow,Georgia,34.23732119,-84.83887523,2910,85
Kalamazoo,Michigan,42.24542231,-85.53038622,2888,93
Stark,Ohio,40.81482476,-81.36437305,2883,175
Bulloch,Georgia,32.39577406,-81.74811421,2880,28
Anderson,Texas,31.81534745,-95.65354823,2840,31
Santa Cruz,Arizona,31.52508998,-110.8479088,2836,63
Randolph,North Carolina,35.71015088,-79.80570339,2834,52
Randall,Texas,34.96585996,-101.8971322,2833,41
Butte,California,39.66727762,-121.6005252,2827,44
Jackson,Florida,30.7954597,-85.21500423,2810,77
Yolo,California,38.68278902,-121.9018288,2803,55
Troup,Georgia,33.03349196,-85.02812115,2802,96
Dallas,Iowa,41.68560356,-94.04127625,2798,38
Gadsden,Florida,30.57796289,-84.61915825,2797,46
Paulding,Georgia,33.91969522,-84.86848792,2776,53
Carroll,Georgia,33.58138199,-85.07976677,2769,68
Davidson,North Carolina,35.79115496,-80.21256572,2761,34
Ford,Kansas,37.69200114,-99.88825298,2760,10
Charles,Maryland,38.51092331,-76.98580666,2759,101
Lee,Mississippi,34.2918775,-88.68149954,2748,70
Hendricks,Indiana,39.76719009,-86.51037283,2747,123
Citrus,Florida,28.84804315,-82.47614748,2745,103
Kankakee,Illinois,41.13746989,-87.86205334,2741,77
Newport News,Virginia,37.08166899,-76.51754109,2733,38
Bonneville,Idaho,43.38713372,-111.6161537,2716,16
Comal,Texas,29.80811278,-98.27647225,2714,102
Suwannee,Florida,30.19746066,-82.9909967,2714,69
Shawnee,Kansas,39.04100763,-95.7557264,2681,32
Pickaway,Ohio,39.64170392,-83.0243386,2678,44
Elmore,Alabama,32.59785413,-86.14415284,2673,48
Orange,North Carolina,36.06092947,-79.12167935,2663,55
Kootenai,Idaho,47.67282258,-116.7020872,2654,34
Kanawha,West Virginia,38.33860077,-81.52857054,2651,78
Sevier,Tennessee,35.78077323,-83.52244332,2638,15
Harrisonburg,Virginia,38.43542574,-78.87536254,2631,34
Monroe,Indiana,39.16130004,-86.52414358,2627,36
Carolina,Puerto Rico,18.374986,-65.956831,2611,0
Coweta,Georgia,33.35334302,-84.76129976,2605,46
Washington,Wisconsin,43.36863664,-88.22974712,2604,32
Scott,Minnesota,44.6490231,-93.53340251,2603,33
Walworth,Wisconsin,42.66858202,-88.54163073,2584,35
Newton,Georgia,33.55514538,-83.8454714,2581,88
Douglas,Colorado,39.33133796,-104.930001,2574,60
Portsmouth,Virginia,36.85914825,-76.35971629,2559,59
Lackawanna,Pennsylvania,41.43564672,-75.60379201,2541,217
Rock,Wisconsin,42.67151616,-89.071479,2540,32
Blount,Tennessee,35.68938198,-83.92847788,2535,24
Yavapai,Arizona,34.59933926,-112.5538588,2532,82
Larimer,Colorado,40.66671597,-105.4625784,2530,52
Tippecanoe,Indiana,40.38872739,-86.89413959,2523,13
Forrest,Mississippi,31.18961454,-89.25832496,2500,75
Jones,Mississippi,31.62257767,-89.168969,2498,79
Centre,Pennsylvania,40.92058903,-77.82200624,2481,11
Faulkner,Arkansas,35.14719007,-92.33717519,2473,19
Olmsted,Minnesota,44.00374114,-92.40209944,2473,28
DeKalb,Alabama,34.45946862,-85.80782906,2432,21
Oneida,New York,43.24375382,-75.43710392,2412,123
Sangamon,Illinois,39.75836914,-89.65872023,2411,45
Maury,Tennessee,35.6187413,-87.07462444,2409,24
Clackamas,Oregon,45.18787398,-122.2179634,2408,61
Duplin,North Carolina,34.93449805,-77.93140529,2379,53
Santa Cruz,California,37.05580291,-122.0066524,2358,9
Nash,North Carolina,35.96575634,-77.98422508,2343,39
Johnson,Indiana,39.48994426,-86.10149107,2338,124
St. Clair,Alabama,33.71902176,-86.31029372,2330,36
Washington,Tennessee,36.29472368,-82.4945472,2328,36
Walker,Alabama,33.80270512,-87.30027177,2319,84
Lorain,Ohio,41.29553751,-82.15083537,2317,86
Pennington,South Dakota,44.0025835,-102.8240777,2311,37
Cumberland,Maine,43.8370751,-70.37226999,2307,70
Delaware,Ohio,40.27942393,-83.00457058,2281,20
Canadian,Oklahoma,35.5426055,-97.98465569,2267,17
Ulster,New York,41.89027881,-74.26252104,2260,95
Washington,Mississippi,33.28392041,-90.94196237,2259,77
Liberty,Texas,30.15152688,-94.81205615,2256,51
Harnett,North Carolina,35.36731853,-78.87243571,2244,53
Wilson,North Carolina,35.70625477,-77.917978,2240,49
Sampson,North Carolina,34.98820368,-78.36914061,2238,28
Clark,Indiana,38.48015445,-85.70510334,2236,57
Grand Forks,North Dakota,47.92093639,-97.45450447,2233,13
Payne,Oklahoma,36.07695283,-96.97584944,2231,6
Gregg,Texas,32.47940482,-94.81591935,2225,66
Robertson,Tennessee,36.52454807,-86.87346725,2225,35
Westmoreland,Pennsylvania,40.3137798,-79.46615476,2225,54
Cleveland,North Carolina,35.33553364,-81.55204486,2224,62
Twin Falls,Idaho,42.35440512,-114.6685381,2224,37
Sumter,Florida,28.70181754,-82.0794267,2222,67
Dakota,Nebraska,42.39040144,-96.56656425,2215,43
Greenwood,South Carolina,34.15272415,-82.12715789,2213,72
Sullivan,Tennessee,36.51240691,-82.30412917,2197,33
Lafayette,Mississippi,34.35687874,-89.48490961,2193,40
Onslow,North Carolina,34.72607366,-77.42908179,2193,25
Val Verde,Texas,29.89149232,-101.1525205,2186,104
Douglas,Kansas,38.88503636,-95.2925121,2177,10
Porter,Indiana,41.45986947,-87.06848888,2176,47
Barrow,Georgia,33.99148694,-83.71436292,2174,48
Talladega,Alabama,33.37823223,-86.16886178,2171,29
Lancaster,South Carolina,34.68270843,-80.70513032,2167,52
Highlands,Florida,27.34254618,-81.34071957,2156,86
Angelina,Texas,31.25457347,-94.60901487,2144,82
Pottawattamie,Iowa,41.33640314,-95.53907776,2141,39
Spotsylvania,Virginia,38.18574462,-77.655399,2136,44
Finney,Kansas,38.04340344,-100.7381938,2134,12
Pope,Arkansas,35.44871474,-93.03212219,2127,31
Putnam,Florida,29.60779729,-81.74230285,2127,39
Burke,North Carolina,35.74989637,-81.70755735,2120,38
Limestone,Alabama,34.81185586,-86.98310072,2119,20
Fairfield,Ohio,39.75107189,-82.63088163,2118,53
Baldwin,Georgia,33.06882326,-83.24701748,2109,56
Nassau,Florida,30.61037141,-81.80297522,2097,44
St. Martin,Louisiana,30.13112107,-91.61403569,2094,61
St. Francois,Missouri,37.81214171,-90.47598685,2092,11
Hendry,Florida,26.55386945,-81.16469006,2069,42
Lauderdale,Mississippi,32.40419769,-88.66229662,2064,125
Saline,Arkansas,34.64916145,-92.67583224,2064,23
Darlington,South Carolina,34.33358335,-79.96027485,2056,53
Coffee,Georgia,31.54892966,-82.8549206,2053,49
Fond du Lac,Wisconsin,43.75354908,-88.48885325,2045,13
Leavenworth,Kansas,39.20183497,-95.03620809,2039,11
Lebanon,Pennsylvania,40.36680311,-76.45651841,2037,59
Vermilion,Louisiana,29.83517605,-92.30292538,2037,61
Kenton,Kentucky,38.93950319,-84.53241199,2030,47
Henderson,North Carolina,35.33788927,-82.4766782,2021,64
Rockingham,New Hampshire,42.98499744,-71.12883377,2017,103
Hall,Nebraska,40.87257079,-98.50218293,2015,47
Lincoln,Arkansas,33.95317155,-91.74002806,2013,15
Stafford,Virginia,38.41758738,-77.45917053,2012,17
Kendall,Illinois,41.59081014,-88.42869583,2009,25
Buchanan,Missouri,39.65816401,-94.80138942,2006,16
Monongalia,West Virginia,39.63218457,-80.04766838,1999,5
Orange,Texas,30.11879481,-93.89412775,1996,43
Buena Vista,Iowa,42.73545875,-95.15100162,1992,12
Jackson,Georgia,34.13794553,-83.56814788,1987,32
Delaware,Indiana,40.22787247,-85.39732772,1985,62
Kershaw,South Carolina,34.33988254,-80.58763164,1985,37
Nobles,Minnesota,43.67434621,-95.75329576,1975,16
Wicomico,Maryland,38.37301947,-75.62705831,1975,48
Suffolk,Virginia,36.70155394,-76.63603554,1972,72
Parker,Texas,32.77757172,-97.80500621,1967,34
Walton,Florida,30.64204028,-86.16935664,1958,25
Stanly,North Carolina,35.31647813,-80.25093221,1956,56
Cass,Indiana,40.76135835,-86.34830753,1954,9
Carroll,Maryland,39.56453592,-77.02373735,1948,126
Crittenden,Arkansas,35.21247318,-90.30839406,1945,46
Hamblen,Tennessee,36.21990035,-83.26586179,1939,26
Licking,Ohio,40.09136236,-82.48185785,1936,63
Montgomery,Virginia,37.17746986,-80.37868691,1936,4
Columbiana,Ohio,40.76932373,-80.78094576,1932,80
Manassas,Virginia,38.7464321,-77.48509905,1920,25
St. Mary,Louisiana,29.69262097,-91.44702164,1917,77
Cullman,Alabama,34.13020303,-86.86888037,1907,20
Cochise,Arizona,31.87934684,-109.7516088,1905,71
Hot Spring,Arkansas,34.31709259,-92.95396325,1904,26
Wood,Ohio,41.36224827,-83.62285108,1902,72
Trumbull,Ohio,41.31735028,-80.76109643,1896,132
Georgetown,South Carolina,33.43443342,-79.33202141,1893,45
Garland,Arkansas,34.57692074,-93.14921604,1892,52
Eau Claire,Wisconsin,44.726614,-91.28609183,1887,6
Beaver,Pennsylvania,40.6825484,-80.34921611,1886,122
Colquitt,Georgia,31.18810588,-83.7677946,1878,33
Berrien,Michigan,41.95447397,-86.4131308,1877,74
Kent,Rhode Island,41.67106337,-71.57641596,1867,0
Rogers,Oklahoma,36.37004357,-95.60406759,1867,50
Grayson,Texas,33.62744998,-96.67753461,1866,45
Hale,Texas,34.07044901,-101.8268114,1865,54
Cumberland,Pennsylvania,40.1625372,-77.26130755,1859,77
Litchfield,Connecticut,41.7937534,-73.2451475,1857,141
Rockdale,Georgia,33.65145002,-84.02202167,1852,36
Fayette,Georgia,33.41357794,-84.49089434,1850,50
Bolivar,Mississippi,33.79696941,-90.87372121,1847,66
Gordon,Georgia,34.50487351,-84.87296253,1846,36
Chelan,Washington,47.87046092,-120.6173956,1845,15
New London,Connecticut,41.48896435,-72.10430976,1843,114
Vigo,Indiana,39.42944561,-87.39169027,1843,27
Dodge,Wisconsin,43.41576662,-88.70928178,1837,16
Monroe,Florida,25.20904673,-81.07812416,1835,22
Tipton,Tennessee,35.501942,-89.73694895,1832,19
Muskogee,Oklahoma,35.61318461,-95.37802952,1823,22
Hampton,Virginia,37.03513786,-76.35879121,1819,24
Bastrop,Texas,30.10370699,-97.31206354,1818,29
Coryell,Texas,31.39078397,-97.79936155,1818,12
Bee,Texas,28.41761668,-97.74215593,1814,33
Walton,Georgia,33.78017694,-83.73552314,1813,54
Clark,Ohio,39.91592258,-83.78498252,1810,40
Clay,Missouri,39.31132056,-94.41850862,1809,41
Riley,Kansas,39.28935726,-96.73420026,1807,8
St. Charles,Louisiana,29.90709658,-90.35555967,1803,59
Oktibbeha,Mississippi,33.42491685,-88.87905132,1801,52
Monroe,Pennsylvania,41.05934058,-75.34031025,1792,133
Dallas,Alabama,32.32688101,-87.1086671,1791,26
Marshall,Iowa,42.03586837,-92.9990819,1790,34
Washington,Maryland,39.60835778,-77.82002295,1787,37
Franklin,Alabama,34.44235334,-87.84289505,1781,29
Cape Girardeau,Missouri,37.38489388,-89.6843587,1779,15
Niagara,New York,43.19898042,-78.74777412,1777,101
Franklin,Pennsylvania,39.92956518,-77.72157791,1774,50
Tazewell,Illinois,40.50716185,-89.51404662,1774,25
Tift,Georgia,31.45743864,-83.5236119,1774,57
Autauga,Alabama,32.53952745,-86.64408227,1773,25
Russell,Alabama,32.28725256,-85.18415324,1763,3
Barnstable,Massachusetts,41.72980578,-70.28854339,1757,174
Madison,Kentucky,37.71659336,-84.27220275,1750,7
Wichita,Texas,33.98842886,-98.7041034,1741,24
East Feliciana,Louisiana,30.84425359,-91.04976723,1740,67
Franklin,Missouri,38.41127108,-91.07522826,1736,29
Clermont,Ohio,39.04847534,-84.15375786,1731,23
Granville,North Carolina,36.30337451,-78.65184241,1731,50
Flagler,Florida,29.45933576,-81.31508595,1726,23
Lamar,Mississippi,31.20572971,-89.5077704,1724,35
Lauderdale,Alabama,34.90171875,-87.65624729,1723,33
Guaynabo,Puerto Rico,18.345114,-66.114523,1720,0
Blue Earth,Minnesota,44.03554215,-94.06699781,1714,6
Roanoke City,Virginia,37.27791025,-79.96189766,1713,27
LaSalle,Illinois,41.3442613,-88.88633881,1712,57
Seward,Kansas,37.19324632,-100.8507201,1708,5
Sutter,California,39.03417539,-121.6945899,1705,11
Gibson,Tennessee,35.99438059,-88.93358327,1704,23
Madison,Indiana,40.16143691,-85.71964711,1689,75
Mississippi,Arkansas,35.76271485,-90.0519437,1681,50
Napa,California,38.50735751,-122.332839,1681,13
Laurens,South Carolina,34.48244419,-82.00490796,1676,56
Chatham,North Carolina,35.70394416,-79.25541492,1672,57
Colbert,Alabama,34.69847452,-87.80168544,1666,26
Trousdale,Tennessee,36.39026213,-86.16087954,1666,7
Caldwell,North Carolina,35.95204977,-81.54799522,1664,18
Moore,North Carolina,35.30885257,-79.48474178,1664,29
Wright,Minnesota,45.17297924,-93.96234781,1664,7
Garfield,Oklahoma,36.3791334,-97.78265517,1654,20
Laurens,Georgia,32.46325233,-82.92221316,1651,69
Sioux,Iowa,43.08221074,-96.1767568,1646,3
Habersham,Georgia,34.63331566,-83.53094677,1640,67
Lee,North Carolina,35.47623147,-79.17569362,1640,14
Brunswick,North Carolina,34.070565,-78.22814204,1639,27
Lake,Ohio,41.69710807,-81.23676539,1638,51
Craven,North Carolina,35.11833364,-77.08398081,1634,34
Washington,Louisiana,30.85288548,-90.03866652,1634,66
Chattahoochee,Georgia,32.34341231,-84.78809239,1633,1
Hunt,Texas,33.12351514,-96.08551032,1632,36
Rockwall,Texas,32.89779518,-96.40771592,1629,26
Malheur,Oregon,43.1937027,-117.6227395,1627,23
Lincoln,North Carolina,35.48508185,-81.21740317,1625,14
St. Louis,Minnesota,47.6048407,-92.46879855,1618,41
Blount,Alabama,33.98210918,-86.56790593,1617,15
Stark,North Dakota,46.80851182,-102.6576326,1616,14
Escambia,Alabama,31.1256789,-87.15918694,1611,24
Comanche,Oklahoma,34.65973764,-98.47195055,1599,13
Putnam,New York,41.42630093,-73.74965532,1599,63
Caguas,Puerto Rico,18.211615,-66.050779,1596,0
Sullivan,New York,41.71579493,-74.76394559,1591,48
Chilton,Alabama,32.85044126,-86.7173256,1588,30
Allen,Louisiana,30.65385745,-92.82442028,1586,50
St. John the Baptist,Louisiana,30.12597499,-90.4753503,1586,100
Hardeman,Tennessee,35.20772017,-88.99161161,1582,26
Jackson,Alabama,34.78144169,-85.99750489,1581,11
Neshoba,Mississippi,32.75339664,-89.11726492,1580,104
DeKalb,Illinois,41.89373302,-88.76958483,1579,38
Lowndes,Mississippi,33.47386518,-88.4419153,1579,58
Sheboygan,Wisconsin,43.72099677,-87.94579284,1578,16
Nacogdoches,Texas,31.62017125,-94.61803994,1576,62
Boone,Kentucky,38.97065142,-84.72615357,1574,25
Broome,New York,42.15903158,-75.81326086,1572,82
Middlesex,Connecticut,41.45949668,-72.53714864,1566,193
DeSoto,Florida,27.18677893,-81.80941373,1563,25
Cole,Missouri,38.50455671,-92.27860244,1559,14
Titus,Texas,33.21339719,-94.96797273,1557,28
Okeechobee,Florida,27.3863362,-80.88944347,1554,26
Cherokee,Texas,31.837258,-95.16559897,1547,30
Erie,Pennsylvania,41.99253829,-80.03301954,1544,38
Macon,Illinois,39.86064913,-88.96342505,1544,44
Walker,Georgia,34.73376362,-85.30165174,1531,35
Avoyelles,Louisiana,31.07796211,-92.00079449,1526,55
Caldwell,Texas,29.83668859,-97.61814775,1523,35
Texas,Oklahoma,36.74777635,-101.4889765,1519,9
Muskegon,Michigan,43.29123859,-86.15176712,1517,69
Cass,Missouri,38.64789422,-94.353399,1515,24
Monroe,Michigan,41.92734151,-83.53749864,1513,28
Panola,Mississippi,34.36398677,-89.95064249,1507,31
St. Francis,Arkansas,35.02201976,-90.74828138,1506,6
Wayne,Tennessee,35.23868267,-87.78644456,1499,5
Sussex,New Jersey,41.13891592,-74.69118243,1497,198
Thomas,Georgia,30.86392347,-83.91847289,1492,63
Ware,Georgia,31.05449097,-82.42224148,1492,59
Taylor,Texas,32.30163422,-99.89007449,1485,55
Newton,Missouri,36.90519407,-94.3394104,1481,15
Polk,Georgia,34.00267074,-85.18677781,1476,17
Wagoner,Oklahoma,35.96024096,-95.51911308,1476,26
Medina,Ohio,41.11770589,-81.8998621,1475,39
LaPorte,Indiana,41.54366008,-86.74072188,1474,41
Sunflower,Mississippi,33.60192578,-90.58882684,1473,46
Baker,Florida,30.33060121,-82.28467476,1470,12
Jim Wells,Texas,27.73103938,-98.0904705,1469,36
San Patricio,Texas,28.00880118,-97.51763891,1466,75
Greene,Ohio,39.69116283,-83.89032084,1465,33
Coles,Illinois,39.51949084,-88.22358557,1464,30
Miami,Ohio,40.0543329,-84.22871271,1454,51
Christian,Missouri,36.9711783,-93.18537118,1453,6
Allen,Ohio,40.77285242,-84.10802343,1441,69
Warren,New Jersey,40.85951833,-74.99556527,1441,171
Effingham,Georgia,32.36616021,-81.34280942,1439,23
Carver,Minnesota,44.82017001,-93.8009918,1429,7
Rockingham,Virginia,38.51006137,-78.87260325,1424,22
Oconee,South Carolina,34.75225169,-83.06742317,1419,26
Jefferson,Wisconsin,43.02054068,-88.77529134,1418,8
Portage,Wisconsin,44.47558711,-89.50152965,1415,4
Leflore,Mississippi,33.55545125,-90.29900733,1413,81
Lea,New Mexico,32.79215361,-103.4123733,1412,22
Clay,Minnesota,46.89289518,-96.48761922,1411,40
St. Bernard,Louisiana,29.87761636,-89.51887093,1410,30
Iberville,Louisiana,30.25734305,-91.3499598,1409,58
Warren,Mississippi,32.35810271,-90.83352619,1409,50
Covington,Alabama,31.2477854,-86.45050893,1403,27
Crawford,Arkansas,35.58928601,-94.2446814,1402,15
Schenectady,New York,42.81668777,-74.05278291,1402,48
Williamson,Illinois,37.73033511,-88.92994027,1401,45
Lynchburg,Virginia,37.40021399,-79.19888138,1396,13
Dale,Alabama,31.43037123,-85.61095742,1392,44
Floyd,Indiana,38.32117957,-85.90385377,1389,63
Dyer,Tennessee,36.05931946,-89.41542855,1387,14
Daviess,Kentucky,37.73028906,-87.0901948,1382,14
Marathon,Wisconsin,44.89792533,-89.75863384,1380,14
Livingston,Michigan,42.60302282,-83.91297209,1377,30
Columbus,North Carolina,34.26744084,-78.65801424,1374,57
Bowie,Texas,33.44626922,-94.41834132,1370,53
Bedford,Tennessee,35.51123746,-86.45549096,1364,17
Wharton,Texas,29.27765923,-96.22319248,1364,52
Edgecombe,North Carolina,35.91230639,-77.59436892,1362,47
Coffee,Alabama,31.39932826,-85.98901039,1359,6
Hardee,Florida,27.49293939,-81.80956574,1358,11
Calhoun,Michigan,42.24633834,-85.00493569,1357,45
Lincoln,South Dakota,43.27841182,-96.7203905,1355,2
Gallatin,Montana,45.54486106,-111.1692571,1353,4
Ozaukee,Wisconsin,43.38352225,-87.94625009,1353,19
Sandoval,New Mexico,35.68862401,-106.8687803,1351,42
Pottawatomie,Oklahoma,35.20614018,-96.94923008,1350,10
Toa Baja,Puerto Rico,18.431446,-66.213553,1349,0
San Benito,California,36.60308176,-121.069975,1345,11
Warrick,Indiana,38.08922676,-87.2716085,1344,40
Rice,Minnesota,44.3543376,-93.29658715,1343,8
Hardin,Texas,30.33364686,-94.38931817,1342,30
Washington,Pennsylvania,40.19208869,-80.24582867,1338,30
Whatcom,Washington,48.82227976,-121.7490018,1338,42
Tolland,Connecticut,41.85853803,-72.3308481,1337,67
Mower,Minnesota,43.67142874,-92.75234549,1336,5
Williamsburg,South Carolina,33.62190129,-79.72767442,1335,44
Wapello,Iowa,41.03064984,-92.40954728,1334,57
Spalding,Georgia,33.26310031,-84.28013991,1333,61
Evangeline,Louisiana,30.72985248,-92.39915924,1327,32
Toombs,Georgia,32.12059861,-82.32957247,1327,49
Surry,North Carolina,36.41689489,-80.69102283,1323,23
Taylor,Florida,30.04848048,-83.60445406,1322,13
Hunterdon,New Jersey,40.56335249,-74.91284156,1321,125
Lincoln,Louisiana,32.6003154,-92.6659741,1321,48
Howard,Indiana,40.48527731,-86.11351892,1318,63
Hardin,Kentucky,37.6976111,-85.96319251,1311,11
Chambers,Texas,29.70972016,-94.67154501,1309,8
Gila,Arizona,33.80190085,-110.8132779,1304,56
Christian,Kentucky,36.89267803,-87.49055367,1303,21
Hanover,Virginia,37.7583355,-77.49464673,1293,37
St. Mary's,Maryland,38.30058422,-76.6062928,1291,57
Camden,Georgia,30.92951916,-81.66601818,1290,9
Navarro,Texas,32.04620681,-96.47428766,1283,26
McCurtain,Oklahoma,34.11664328,-94.77222373,1279,34
Pontotoc,Mississippi,34.226046,-89.03636807,1279,16
Dickson,Tennessee,36.14669837,-87.35891709,1274,15
Webster,Iowa,42.42853483,-94.17987389,1272,14
Whitman,Washington,46.90022523,-117.5241763,1272,0
Toa Alta,Puerto Rico,18.362406,-66.246616,1266,0
Webster,Louisiana,32.70847669,-93.33121835,1263,23
Jackson,Illinois,37.78595185,-89.38232563,1261,24
Morton,North Dakota,46.71681782,-101.2822377,1257,24
Rockingham,North Carolina,36.39593137,-79.77504841,1257,14
Albemarle,Virginia,38.02080697,-78.55481085,1255,21
Coffee,Tennessee,35.49090731,-86.07311784,1254,13
Eagle,Colorado,39.62754308,-106.6933637,1254,10
Yell,Arkansas,35.00292371,-93.41171338,1254,29
Newberry,South Carolina,34.28629098,-81.59935761,1249,27
Kosciusko,Indiana,41.24521668,-85.86312322,1248,17
Jefferson Davis,Louisiana,30.26896765,-92.81210004,1241,39
Pike,Mississippi,31.17507789,-90.40392572,1240,51
Monroe,Mississippi,33.89236763,-88.4808438,1236,69
Wilkes,North Carolina,36.2084135,-81.16232895,1234,33
Lafayette,Florida,29.98484137,-83.18166636,1233,12
Chesterfield,South Carolina,34.64137396,-80.1564014,1230,37
Hampshire,Massachusetts,42.33997957,-72.65898478,1226,144
Cumberland,Tennessee,35.95271721,-84.99840585,1217,18
Charlottesville,Virginia,38.03527919,-78.48569588,1216,28
Willacy,Texas,26.47411727,-97.61535848,1214,49
Taney,Missouri,36.65465345,-93.04075153,1213,31
Franklin,North Carolina,36.081519,-78.28708884,1210,31
Lane,Oregon,43.93727035,-122.847753,1210,17
Pike,Alabama,31.80396383,-85.9408295,1205,10
Weakley,Tennessee,36.29896232,-88.71990865,1205,19
Fayette,Tennessee,35.19615831,-89.41399032,1204,19
Franklin,Louisiana,32.13675181,-91.67589857,1204,38
Sevier,Arkansas,33.99780401,-94.2424869,1203,18
Kitsap,Washington,47.63479026,-122.6436061,1201,13
Anderson,Tennessee,36.12684348,-84.19965764,1200,13
Medina,Texas,29.3557301,-99.11030298,1198,45
Rutherford,North Carolina,35.40114178,-81.92112099,1197,33
Culpeper,Virginia,38.48199985,-77.9563087,1196,17
Copiah,Mississippi,31.86977774,-90.44565118,1192,33
Obion,Tennessee,36.35732446,-89.14921589,1191,10
Brown,South Dakota,45.58994323,-98.35165355,1189,4
Henderson,Tennessee,35.65581134,-88.38600175,1189,24
Douglas,Washington,47.7361335,-119.692937,1186,9
Dodge,Nebraska,41.58071748,-96.65598179,1185,12
Loudon,Tennessee,35.73939663,-84.31145275,1184,6
Catoosa,Georgia,34.89872298,-85.13757014,1181,18
Lonoke,Arkansas,34.75392199,-91.88742357,1181,12
Bartholomew,Indiana,39.20744865,-85.89558181,1179,57
Carter,Tennessee,36.28969086,-82.12588974,1177,28
Scott,Mississippi,32.4067041,-89.53789439,1176,27
Accomack,Virginia,37.76707161,-75.63234615,1175,19
Moore,Texas,35.83769242,-101.8930281,1174,22
Clinton,Illinois,38.60704876,-89.42385254,1169,20
Chambers,Alabama,32.91360079,-85.39072749,1168,42
Hoke,North Carolina,35.01888303,-79.23651674,1167,17
Scotland,North Carolina,34.8386299,-79.4757978,1167,13
York,Maine,43.47808377,-70.71052375,1165,15
Tallapoosa,Alabama,32.86698258,-85.79833053,1164,85
Cherokee,South Carolina,35.05122251,-81.61828622,1163,36
Coahoma,Mississippi,34.22772299,-90.60415045,1162,29
Greene,Tennessee,36.17470125,-82.84691273,1161,44
Sherburne,Minnesota,45.44447208,-93.77617511,1161,14
Chaves,New Mexico,33.36406072,-104.4665365,1159,12
Plymouth,Iowa,42.737633,-96.21366621,1155,21
Portage,Ohio,41.16793482,-81.19735782,1155,66
Yuba,California,39.26255932,-121.3535644,1153,7
Decatur,Georgia,30.87967778,-84.57619536,1149,29
Pettis,Missouri,38.72798918,-93.28471706,1149,12
Jackson,Oregon,42.43201126,-122.7289309,1148,5
Bryan,Georgia,32.00979311,-81.44002948,1147,11
McMinn,Tennessee,35.42812616,-84.61520715,1146,25
Creek,Oklahoma,35.90230551,-96.37086028,1145,33
Atascosa,Texas,28.89333001,-98.52730485,1144,30
Calumet,Wisconsin,44.0816316,-88.21780273,1144,3
Schuylkill,Pennsylvania,40.70497338,-76.2150785,1143,52
Natchitoches,Louisiana,31.72321584,-93.09816516,1141,26
Lamar,Texas,33.66981763,-95.57404777,1136,34
Mercer,Ohio,40.54043046,-84.62912742,1132,18
Jefferson,Tennessee,36.04818632,-83.45148924,1130,14
Wayne,Georgia,31.5521809,-81.91894878,1128,30
El Dorado,California,38.77965956,-120.5233166,1127,4
Wakulla,Florida,30.16548905,-84.39895211,1126,10
Boone,Illinois,42.32359279,-88.82345779,1125,23
Clinton,Iowa,41.89981633,-90.53275096,1124,21
Adams,Illinois,39.98815591,-91.18786813,1123,10
Oldham,Kentucky,38.39791089,-85.448222,1122,25
Le Flore,Oklahoma,34.89851864,-94.70392124,1118,18
Johnson,Missouri,38.74719601,-93.80691168,1117,4
McDonald,Missouri,36.62869595,-94.34867205,1113,11
Lyon,Kansas,38.45576156,-96.15275715,1112,33
Marshall,Mississippi,34.76216286,-89.50299462,1111,17
Muscatine,Iowa,41.48370744,-91.1121697,1111,55
Liberty,Georgia,31.82588896,-81.49251135,1108,22
Platte,Nebraska,41.57246836,-97.52144359,1107,4
Lincoln,Mississippi,31.53288662,-90.45391915,1104,53
Skagit,Washington,48.48171488,-121.766131,1103,22
Clarendon,South Carolina,33.66610974,-80.21647898,1101,66
Clarke,Alabama,31.68099859,-87.83548597,1100,16
Bradford,Florida,29.95079741,-82.16611613,1099,8
Holmes,Mississippi,33.12345854,-90.08923538,1098,59
Grenada,Mississippi,33.77036166,-89.80245083,1095,36
Independence,Arkansas,35.74242707,-91.57001641,1095,19
Fairbanks North Star,Alaska,64.80726247,-146.5692662,1094,11
Crawford,Iowa,42.03718237,-95.3819718,1091,5
Pueblo,Colorado,38.17359144,-104.5127437,1090,37
Grimes,Texas,30.54579585,-95.98902499,1087,32
Thurston,Washington,46.9291895,-122.8290656,1087,17
Dawson,Nebraska,40.87028216,-99.8201461,1083,12
Jackson,Michigan,42.24807035,-84.42258681,1079,45
Cherokee,Oklahoma,35.90692775,-94.99980896,1078,8
Grady,Oklahoma,35.0167709,-97.88339847,1076,11
Washington,Florida,30.61359259,-85.66002461,1076,22
Warren,Tennessee,35.6728299,-85.77969117,1075,7
Manitowoc,Wisconsin,44.11946801,-87.80928853,1070,3
Trujillo Alto,Puerto Rico,18.336159,-65.998884,1070,0
Buffalo,Nebraska,40.85486962,-99.07500296,1069,4
Reno,Kansas,37.95230263,-98.08607292,1068,3
Lawrence,Tennessee,35.21675201,-87.39787695,1067,13
Macon,Tennessee,36.53157855,-86.00778595,1067,21
Henry,Virginia,36.68542395,-79.87634026,1065,24
Salem,New Jersey,39.58719656,-75.3469663,1064,89
Pointe Coupee,Louisiana,30.71409502,-91.60209535,1062,40
Yazoo,Mississippi,32.77890365,-90.39656148,1062,30
Shelby,Kentucky,38.21476019,-85.194223,1061,24
Cerro Gordo,Iowa,43.08177563,-93.2612239,1058,21
Gonzales,Texas,29.45634206,-97.49424032,1058,18
Stephens,Georgia,34.55151201,-83.29405315,1058,38
Cecil,Maryland,39.56647682,-75.94627411,1057,35
Lee,Arkansas,34.78498904,-90.78383866,1057,18
Ward,North Dakota,48.22390169,-101.5436763,1056,10
Monroe,Tennessee,35.44550387,-84.24902965,1052,18
Worcester,Maryland,38.21274277,-75.33200012,1050,27
Butler,Pennsylvania,40.91152759,-79.91351055,1049,25
Montgomery,North Carolina,35.33155144,-79.90416657,1049,30
Okanogan,Washington,48.54855019,-119.7387224,1049,10
Vernon,Louisiana,31.10884837,-93.18153838,1049,51
Emanuel,Georgia,32.59221302,-82.30239915,1047,30
Hardin,Tennessee,35.19732531,-88.18593755,1047,16
Simpson,Mississippi,31.91282117,-89.91716179,1047,46
Saratoga,New York,43.10904162,-73.86653895,1044,17
Chester,South Carolina,34.69249168,-81.1583216,1043,21
Waupaca,Wisconsin,44.47068056,-88.96534501,1043,20
Vance,North Carolina,36.36880673,-78.40670845,1042,44
Crawford,Kansas,37.50675523,-94.85245778,1041,8
Dillon,South Carolina,34.39007791,-79.37741872,1039,37
Woodward,Oklahoma,36.42316318,-99.26283045,1036,4
Levy,Florida,29.31829741,-82.74007147,1035,9
Matagorda,Texas,28.81955746,-96.01230294,1035,46
Flathead,Montana,48.29575866,-114.0520569,1034,17
Colleton,South Carolina,32.87582989,-80.67641292,1031,42
Appling,Georgia,31.74847232,-82.28909114,1028,28
Kandiyohi,Minnesota,45.1526059,-95.00586446,1026,2
Bannock,Idaho,42.67002716,-112.2233311,1025,4
Halifax,North Carolina,36.25669272,-77.6556109,1025,19
Northumberland,Pennsylvania,40.84785433,-76.70798222,1024,55
Cape May,New Jersey,39.15008829,-74.80170244,1023,96
Madison,Florida,30.44396917,-83.47398594,1014,19
Richmond,North Carolina,35.00417719,-79.74491009,1013,16
Marshall,Indiana,41.32467367,-86.26185087,1012,24
Lenoir,North Carolina,35.2403259,-77.64245615,1011,32
Camden,Missouri,38.02199522,-92.76083747,1008,11
St. Clair,Michigan,42.92655373,-82.67937954,1008,56
Bay,Michigan,43.70639106,-83.98731479,1006,50
Chicot,Arkansas,33.26458973,-91.29539209,1006,21
Tate,Mississippi,34.65133709,-89.94485778,1006,38
Beauregard,Louisiana,30.64836518,-93.34173616,1004,37
Santa Fe,New Mexico,35.50708973,-105.9774716,1004,6
Grant,Wisconsin,42.8671731,-90.7063218,1003,19
Kleberg,Texas,27.42435506,-97.69894948,1001,42
Pittsylvania,Virginia,36.81980341,-79.39731264,998,9
Summit,Utah,40.86688146,-110.9535882,998,1
Union,Mississippi,34.49162015,-89.00776006,998,24
DeWitt,Texas,29.08101855,-97.3568117,996,37
Berkeley,West Virginia,39.46704621,-78.02414609,995,13
Lauderdale,Tennessee,35.75893438,-89.6301591,994,16
Haywood,Tennessee,35.58332824,-89.28536625,992,21
Washington,Oklahoma,36.71380786,-95.90514104,992,40
Dubois,Indiana,38.36597551,-86.8792417,991,19
Williams,North Dakota,48.34522353,-103.4793387,991,7
Franklin,Tennessee,35.15634626,-86.09201039,989,9
Boone,Indiana,40.0509304,-86.46841646,986,46
McDowell,North Carolina,35.67736232,-82.0482425,986,26
Lavaca,Texas,29.38508402,-96.93186692,981,35
Frio,Texas,28.86751206,-99.10804207,975,9
Ellis,Kansas,38.91458712,-99.31751551,974,3
Union,Louisiana,32.83121059,-92.3749373,969,43
Marion,Alabama,34.13697363,-87.88704173,968,29
Pender,North Carolina,34.52265624,-77.90352133,967,5
Warren,Iowa,41.33559454,-93.56007641,965,6
Henderson,Texas,32.21128872,-95.85846587,963,23
Leake,Mississippi,32.7536828,-89.52402044,961,38
Bryan,Oklahoma,33.96472458,-96.25903472,960,4
Pittsburg,Oklahoma,34.92065823,-95.7513432,960,19
Rusk,Texas,32.10773545,-94.76176432,960,11
Vega Baja,Puerto Rico,18.428262,-66.397924,959,0
Windham,Connecticut,41.82972709,-71.98182316,958,15
Beaufort,North Carolina,35.48531943,-76.84325809,956,23
Union,Florida,30.04412971,-82.37497443,955,14
Elko,Nevada,41.14531606,-115.3577619,952,10
Erie,Ohio,41.36796058,-82.62904521,946,47
Garfield,Colorado,39.59921777,-107.902708,945,5
Hood,Texas,32.42990927,-97.83242024,945,27
Adams,Mississippi,31.47669768,-91.35326037,942,37
Calvert,Maryland,38.53961642,-76.56820632,942,28
Randolph,Illinois,38.05095369,-89.82512254,939,11
Karnes,Texas,28.90705334,-97.85960149,937,16
Fauquier,Virginia,38.73564842,-77.80647472,936,25
Tuscarawas,Ohio,40.44214695,-81.47226262,936,20
Wayne,Ohio,40.82925852,-81.88844833,936,68
Grant,Indiana,40.51587228,-85.65468702,933,34
Hancock,Indiana,39.82304555,-85.77566351,932,43
Marlboro,South Carolina,34.59905577,-79.67561152,932,11
Mendocino,California,39.4381191,-123.3911313,931,18
Sumter,Georgia,32.03650571,-84.19821492,930,62
Lake,Tennessee,36.3418017,-89.48921915,925,2
Noble,Indiana,41.39672484,-85.41966713,925,32
Marinette,Wisconsin,45.38553432,-88.033246,922,8
Bingham,Idaho,43.2167288,-112.3978437,914,10
St. Croix,Wisconsin,45.03437474,-92.45000068,914,8
Butler,Alabama,31.75300095,-86.68057478,913,39
Rensselaer,New York,42.71348136,-73.51089874,911,42
Lumpkin,Georgia,34.57286511,-84.00425681,908,14
West Baton Rouge,Louisiana,30.46058217,-91.30989571,908,41
Bladen,North Carolina,34.61296243,-78.56180059,906,15
De Soto,Louisiana,32.05457447,-93.74130302,906,35
Osage,Oklahoma,36.62888819,-96.39635704,906,13
Winona,Minnesota,43.98772283,-91.78081305,906,18
Roane,Tennessee,35.84923189,-84.52458689,905,5
Wayne,Mississippi,31.64135687,-88.69573913,905,21
Richland,Ohio,40.77180308,-82.5379961,903,19
Sauk,Wisconsin,43.42574087,-89.94966132,902,3
Big Horn,Montana,45.42335905,-107.492347,900,22
Carroll,Tennessee,35.97366108,-88.45189331,899,20
McNairy,Tennessee,35.17468549,-88.5647812,896,18
Pearl River,Mississippi,30.77090935,-89.58677275,894,53
Union,Arkansas,33.16887091,-92.59746952,892,36
Walla Walla,Washington,46.23040051,-118.4775539,892,6
Wilson,Texas,29.1732598,-98.08693082,892,26
Harrison,Texas,32.54935988,-94.36934071,891,31
Ross,Ohio,39.33705391,-83.06000914,890,24
Columbia,Pennsylvania,41.04821986,-76.40565017,889,35
Ponce,Puerto Rico,18.059498,-66.613748,889,0
Deaf Smith,Texas,34.96522957,-102.6054267,886,22
Barbour,Alabama,31.868263,-85.3871286,885,7
Bullitt,Kentucky,37.97162523,-85.68955617,885,9
Sequoyah,Oklahoma,35.49447108,-94.75463785,884,11
Frederick,Virginia,39.20172582,-78.25974949,883,13
Marion,South Carolina,34.07859748,-79.36400756,881,24
Roanoke,Virginia,37.26865804,-80.06396753,879,7
Laurel,Kentucky,37.10975748,-84.11321779,878,6
Oconto,Wisconsin,45.02715345,-88.26807503,878,4
Scott,Missouri,37.05588075,-89.56474493,878,17
Madison,Louisiana,32.36918118,-91.23973355,877,8
Tooele,Utah,40.44862644,-113.1295715,877,0
Campbell,Kentucky,38.94384345,-84.37875208,876,16
Payette,Idaho,44.00545243,-116.7647695,876,8
Danville,Virginia,36.58022376,-79.40395668,875,27
Gulf,Florida,29.93543004,-85.2427099,875,14
Greene,Arkansas,36.1173546,-90.55832668,873,10
Codington,South Dakota,44.97788119,-97.18827677,872,4
Effingham,Illinois,39.05935711,-88.58969584,870,2
Logan,Colorado,40.7249637,-103.110817,868,6
Marion,Mississippi,31.23132643,-89.8209217,868,35
Ottawa,Oklahoma,36.83532655,-94.81011909,866,6
Shawano,Wisconsin,44.78902246,-88.76443896,864,1
Prentiss,Mississippi,34.61810501,-88.51986294,863,17
Bledsoe,Tennessee,35.59942968,-85.20611967,862,4
McClain,Oklahoma,35.01123903,-97.44572302,861,7
Sabine,Louisiana,31.56388699,-93.55433981,857,13
Shasta,California,40.76391419,-122.0396884,856,17
Waller,Texas,30.01058447,-95.99011759,856,14
Polk,Texas,30.79472531,-94.8276624,855,22
James City,Virginia,37.31156958,-76.76950618,851,20
Johnson,Arkansas,35.56759135,-93.46036368,851,6
Hamilton,Florida,30.49673973,-82.94998918,849,8
Erath,Texas,32.23602653,-98.21773417,847,12
White,Tennessee,35.92929884,-85.45591799,847,9
Adams,Washington,46.98299757,-118.5601734,846,10
Jasper,Iowa,41.68576082,-93.05567785,845,32
Rhea,Tennessee,35.60536161,-84.93076643,844,12
Watauga,North Carolina,36.23103603,-81.70033724,841,1
White,Arkansas,35.25688493,-91.74908296,841,23
Deschutes,Oregon,43.91570171,-121.2289121,840,12
Chittenden,Vermont,44.46322849,-73.08359212,835,39
Adams,Pennsylvania,39.87140411,-77.21610347,833,26
Dixie,Florida,29.60631086,-83.15724673,832,7
Okmulgee,Oklahoma,35.64661916,-95.96432828,832,7
Tattnall,Georgia,32.04785085,-82.05539188,832,12
White,Georgia,34.64624278,-83.74905525,832,19
Itawamba,Mississippi,34.27993475,-88.3606733,831,21
Madison,Ohio,39.89381073,-83.40178317,830,12
Miller,Arkansas,33.31403423,-93.89285258,828,11
Arecibo,Puerto Rico,18.406631,-66.675077,827,0
Covington,Mississippi,31.63225413,-89.55389939,827,23
Madison,Nebraska,41.91676024,-97.6005481,827,5
Murray,Georgia,34.78897608,-84.74993177,826,6
Wood,Wisconsin,44.45537896,-90.04158336,826,5
Eddy,New Mexico,32.47167456,-104.3053527,824,7
Alcorn,Mississippi,34.88084463,-88.57996173,823,11
Hawkins,Tennessee,36.44355426,-82.94885298,822,18
Calhoun,Texas,28.47048236,-96.61633945,821,7
Graham,Arizona,32.93166885,-109.8882178,821,25
Gilmer,Georgia,34.69316688,-84.45802506,818,13
Cheatham,Tennessee,36.26136216,-87.08903581,815,10
Dawson,Georgia,34.44244079,-84.16964071,814,7
Edgefield,South Carolina,33.77221995,-81.96231108,814,18
Jasper,South Carolina,32.43171982,-81.02487495,814,20
Mayaguez,Puerto Rico,18.2013,-67.1452,813,0
Henry,Indiana,39.93029017,-85.39625719,809,26
St. James,Louisiana,30.02531716,-90.80212061,808,40
Mitchell,Georgia,31.22483255,-84.19381821,806,45
Shenandoah,Virginia,38.85905135,-78.56813762,806,58
Cabell,West Virginia,38.42424062,-82.23855912,804,10
Darke,Ohio,40.13412966,-84.6194517,804,42
Prince George,Virginia,37.18497668,-77.22922187,803,5
Washington,Rhode Island,41.45961631,-71.61435303,803,0
Burke,Georgia,33.05917989,-81.99928721,802,10
Fayette,Pennsylvania,39.92041012,-79.64291195,799,7
Des Moines,Iowa,40.92012606,-91.18326592,797,8
Lenawee,Michigan,41.89475156,-84.06603727,797,18
Harris,Georgia,32.73709786,-84.90538572,793,22
Jefferson,Georgia,33.05867328,-82.41609057,793,28
Beadle,South Dakota,44.41464384,-98.27858469,791,9
Curry,New Mexico,34.57421077,-103.3468876,790,6
Dunklin,Missouri,36.27167174,-90.09122243,789,8
Greensville,Virginia,36.67878901,-77.56351439,789,11
Upson,Georgia,32.87920671,-84.30024826,789,62
Pulaski,Kentucky,37.10466131,-84.57629079,787,10
Dorado,Puerto Rico,18.436115,-66.278669,786,0
Richland,Louisiana,32.41391005,-91.76634876,786,11
Colfax,Nebraska,41.57486951,-97.0868542,783,5
Uvalde,Texas,29.35739637,-99.76229172,783,34
George,Mississippi,30.86259065,-88.64436789,782,13
Morehouse,Louisiana,32.81686191,-91.80421614,780,22
Marshall,Tennessee,35.45798777,-86.76420988,778,5
Lincoln,Missouri,39.05345619,-90.95588181,776,3
Grady,Georgia,30.87454847,-84.23418364,774,22
Tallahatchie,Mississippi,33.95339918,-90.1729398,774,21
Muhlenberg,Kentucky,37.21425819,-87.14632053,773,12
Newton,Mississippi,32.40021118,-89.11843336,773,24
Ben Hill,Georgia,31.76095874,-83.22145359,772,24
Vermilion,Illinois,40.18417171,-87.73384359,770,4
St. Joseph,Michigan,41.91441767,-85.52797979,769,11
Jackson,Indiana,38.9091582,-86.03851889,768,9
Wayne,Indiana,39.8633444,-85.01044989,768,14
Allegan,Michigan,42.59147037,-85.89102866,765,7
Chattooga,Georgia,34.47197698,-85.34535662,765,22
Fairfield,South Carolina,34.39287073,-81.1195624,765,35
Jackson,Oklahoma,34.58781741,-99.41138784,765,10
Brookings,South Dakota,44.36974375,-96.79079945,763,2
Marion,Iowa,41.33445101,-93.09934783,763,7
Van Buren,Michigan,42.25190229,-86.01939087,763,17
Scott,Kentucky,38.29622293,-84.5816631,762,11
Wasatch,Utah,40.33110236,-111.1691419,762,7
Assumption,Louisiana,29.89946234,-91.06461642,761,24
Vega Alta,Puerto Rico,18.409346,-66.33725,761,0
Bedford,Virginia,37.3080028,-79.5281964,760,13
Nodaway,Missouri,40.36079813,-94.88133008,760,10
Wise,Texas,33.21570665,-97.65460265,760,14
Caddo,Oklahoma,35.17364557,-98.37534464,759,21
Henderson,Kentucky,37.79344553,-87.57392021,758,3
Overton,Tennessee,36.34117832,-85.28989535,758,6
Barren,Kentucky,36.96469836,-85.93338945,757,13
Howard,Texas,32.30621324,-101.4356444,757,16
Southampton,Virginia,36.72231125,-77.10642712,757,23
Union,Georgia,34.82995757,-83.98967069,757,20
Yamhill,Oregon,45.23330449,-123.3086963,757,13
Jerome,Idaho,42.68891267,-114.2655033,756,7
West Feliciana,Louisiana,30.87882871,-91.4148538,756,25
Cocke,Tennessee,35.9278914,-83.11828725,754,9
Hertford,North Carolina,36.3607755,-76.98104134,754,30
Franklin,Georgia,34.37525597,-83.23159927,753,13
Holmes,Florida,30.86747479,-85.81319222,753,7
Delaware,Oklahoma,36.40823634,-94.80325046,749,25
Morgan,Colorado,40.2627981,-103.8093302,747,48
Henry,Iowa,40.98767962,-91.54436349,746,4
Winston,Alabama,34.15030532,-87.37325922,745,12
Whiteside,Illinois,41.75509713,-89.91556058,743,20
Winston,Mississippi,33.08747908,-89.03391385,742,19
Yadkin,North Carolina,36.16222629,-80.66239436,742,8
Lassen,California,40.67311306,-120.5935099,740,0
Petersburg,Virginia,37.20530399,-77.39368102,740,29
Radford,Virginia,37.12222899,-80.5602732,740,1
Isle of Wight,Virginia,36.90579348,-76.70842863,739,19
Missoula,Montana,47.03728583,-113.9213508,739,3
Oconee,Georgia,33.83749973,-83.43679568,739,26
Saline,Nebraska,40.52418865,-97.14085859,737,2
Madison,Idaho,43.78141028,-111.6538474,736,1
Graves,Kentucky,36.72292505,-88.65143315,735,29
McCracken,Kentucky,37.05350953,-88.70445755,734,10
Tama,Iowa,42.07991767,-92.53266945,732,31
Smith,Tennessee,36.25359775,-85.95411046,731,11
Burnet,Texas,30.78801353,-98.181887,729,12
Morgan,Indiana,39.47899078,-86.44573375,729,38
Mercer,Pennsylvania,41.30248872,-80.25816981,728,17
Johnson,Tennessee,36.4552395,-81.84886538,726,2
Saline,Missouri,39.13734288,-93.20259964,726,9
Cassia,Idaho,42.28347888,-113.6012409,724,5
Marengo,Alabama,32.24767634,-87.78796182,724,20
Saline,Kansas,38.78369175,-97.65185177,724,11
Geauga,Ohio,41.49952319,-81.17935342,723,49
Belmont,Ohio,40.01625942,-80.9924051,722,27
Madison,Texas,30.96694679,-95.93003775,721,6
Boone,Arkansas,36.3084504,-93.09374925,720,12
Lee,South Carolina,34.16393091,-80.25690731,719,34
Mecklenburg,Virginia,36.67882005,-78.36131056,718,33
Fremont,Wyoming,43.04183996,-108.6296893,716,14
Jeff Davis,Georgia,31.80405727,-82.6372487,716,20
Lyon,Minnesota,44.41327865,-95.83806103,713,4
Hancock,Ohio,41.00250487,-83.66838948,712,10
Androscoggin,Maine,44.1664747,-70.20380627,711,10
Berkshire,Massachusetts,42.37428441,-73.20524838,711,49
Ogle,Illinois,42.04165196,-89.32184679,710,6
Barnwell,South Carolina,33.26679302,-81.43584352,709,16
Carteret,North Carolina,34.8932941,-76.54120135,708,5
Athens,Ohio,39.33425634,-82.04278644,707,2
Indiana,Pennsylvania,40.65241041,-79.08963285,707,12
Pasquotank,North Carolina,36.26723798,-76.25134778,707,30
Platte,Missouri,39.38154439,-94.77068479,704,10
Hawaii,Hawaii,19.60121157,-155.5210167,700,15
Isabella,Michigan,43.64060976,-84.84664923,700,13
San Juan,Utah,37.62762978,-109.8033714,700,29
Lee,Georgia,31.7793306,-84.14324253,698,25
Laramie,Wyoming,41.3070252,-104.6887497,695,4
Madison,Georgia,34.12920917,-83.21218732,691,8
Tishomingo,Mississippi,34.74023475,-88.23917219,691,38
Canovanas,Puerto Rico,18.328802,-65.887612,690,0
Lycoming,Pennsylvania,41.34310539,-77.06629984,690,25
Saluda,South Carolina,34.00795823,-81.72713237,689,21
Waseca,Minnesota,44.02211116,-93.58720034,689,8
Putnam,Georgia,33.32056115,-83.37552891,688,25
Plaquemines,Louisiana,29.42245447,-89.60322085,687,19
Monroe,Georgia,33.014289,-83.92097166,686,51
Chickasaw,Mississippi,33.91983202,-88.9481545,685,24
Minidoka,Idaho,42.85518524,-113.6357257,685,8
Blair,Pennsylvania,40.47961444,-78.34917412,679,18
Buckingham,Virginia,37.57242268,-78.52518834,679,9
Fannin,Texas,33.59564294,-96.10751083,679,15
Cascade,Montana,47.30797024,-111.3467922,677,5
Clinton,Michigan,42.94400871,-84.60145248,677,14
Daviess,Indiana,38.70186039,-87.07185406,677,28
Shelby,Indiana,39.52305623,-85.7915857,677,29
Carroll,Iowa,42.03617207,-94.86032705,674,5
Monroe,Illinois,38.27594376,-90.17761038,674,16
Tippah,Mississippi,34.76872156,-88.90988194,672,17
Custer,Oklahoma,35.63853802,-99.00170785,671,0
Washington,Georgia,32.96711864,-82.79357039,671,8
Attala,Mississippi,33.08658803,-89.57838564,670,25
Knox,Illinois,40.93148779,-90.2133034,670,3
Peach,Georgia,32.56934316,-83.82937,670,24
Grundy,Illinois,41.28569601,-88.41905692,669,5
Henry,Illinois,41.3533994,-90.13296166,666,5
Pickens,Alabama,33.28094866,-88.08818103,666,14
Carroll,Arkansas,36.3403856,-93.54270261,665,10
Dearborn,Indiana,39.14647946,-84.97333539,665,28
Blaine,Idaho,43.4085812,-113.9752658,664,6
Eaton,Michigan,42.59599185,-84.83740035,664,10
Marion,Missouri,39.80601912,-91.62203062,663,14
Callaway,Missouri,38.83674754,-91.92186505,662,3
Morgan,Illinois,39.71654544,-90.20255104,661,23
Ashtabula,Ohio,41.70860332,-80.74830218,659,48
Cowlitz,Washington,46.19074721,-122.6782231,659,7
Lawrence,Ohio,38.59743452,-82.53466552,659,22
Pulaski,Missouri,37.82462075,-92.20783203,659,5
Queen Anne's,Maryland,39.06198912,-76.03530977,659,26
Poinsett,Arkansas,35.57433534,-90.66268713,657,13
Webster,Missouri,37.2813734,-92.876329,657,5
Bibb,Alabama,32.99642064,-87.1251146,656,10
Butts,Georgia,33.2830945,-83.9543504,654,42
Lowndes,Alabama,32.1597283,-86.65158371,654,27
Randolph,Alabama,33.29526734,-85.45708831,654,13
Jackson,North Carolina,35.28814273,-83.14093385,653,7
Franklin,Kentucky,38.2379395,-84.87962551,652,12
Fannin,Georgia,34.86430205,-84.316964,651,22
Butler,Missouri,36.71462476,-90.40421163,650,7
Hill,Texas,31.99045053,-97.13423143,650,14
Jackson,Louisiana,32.30251776,-92.55692092,649,22
Shelby,Ohio,40.33163494,-84.20258189,649,10
Central Utah,Utah,39.37231946,-111.5758676,647,3
Caroline,Maryland,38.87172293,-75.82904158,646,7
Scurry,Texas,32.74613808,-100.9162664,646,4
Bamberg,South Carolina,33.21927586,-81.05659969,645,33
Broomfield,Colorado,39.95998787,-105.0566324,645,33
Elbert,Georgia,34.11302332,-82.83936148,645,3
Hampton,South Carolina,32.77419582,-81.13845571,645,26
Hale,Alabama,32.76039258,-87.63284988,644,28
Polk,Missouri,37.6162296,-93.39828174,644,3
Chester,Tennessee,35.42527478,-88.6095842,643,10
Bureau,Illinois,41.40385234,-89.5283051,641,11
Laclede,Missouri,37.65896829,-92.5888493,641,4
Washington,Texas,30.21498498,-96.40946246,640,48
LaGrange,Indiana,41.64232188,-85.42674232,639,11
Lee,Iowa,40.64181461,-91.48183025,639,7
Mayes,Oklahoma,36.30179091,-95.23175116,636,11
Rosebud,Montana,46.23397237,-106.729288,635,19
Geneva,Alabama,31.09389027,-85.83572839,634,4
Charlton,Georgia,30.78371028,-82.13951596,633,7
Giles,Tennessee,35.20222469,-87.03992678,631,17
Hopkins,Kentucky,37.30939025,-87.54670406,631,39
Trempealeau,Wisconsin,44.30360275,-91.35893614,630,2
Henry,Tennessee,36.33160906,-88.30121797,628,9
Winn,Louisiana,31.94449367,-92.63789413,628,18
Cherokee,North Carolina,35.1349263,-84.05970864,625,12
Perry,Missouri,37.70660776,-89.82741088,625,7
Lawrence,Missouri,37.10626634,-93.83293097,624,4
Lincoln,Tennessee,35.13738622,-86.58910106,624,1
Columbia,Wisconsin,43.46492199,-89.33589004,622,2
Howell,Missouri,36.77383887,-91.88683935,622,3
Naranjito,Puerto Rico,18.288019,-66.252703,622,0
Adair,Oklahoma,35.88494195,-94.65859267,621,10
Lawrence,Alabama,34.52041498,-87.31069453,621,23
Branch,Michigan,41.91600556,-85.05929476,619,5
Pickens,Georgia,34.46589159,-84.46406611,618,10
Logan,West Virginia,37.8299889,-81.93528571,617,41
Calhoun,Florida,30.40666734,-85.19394153,615,11
Fayette,West Virginia,38.02974928,-81.08286634,615,13
Mesa,Colorado,39.01787888,-108.469799,615,7
Franklin,Florida,29.83791238,-84.82731662,614,3
Lapeer,Michigan,43.09052506,-83.22153148,613,36
Cherokee,Alabama,34.17805983,-85.60638968,612,13
Manassas Park,Virginia,38.77058531,-77.44399307,612,8
Corozal,Puerto Rico,18.304264,-66.327738,611,0
Jefferson,Illinois,38.29980057,-88.9240025,611,38
Clinton,Indiana,40.30319754,-86.47277257,609,14
Haywood,North Carolina,35.55269063,-82.98196486,609,31
Auglaize,Ohio,40.55998859,-84.2242143,608,9
Jessamine,Kentucky,37.87119786,-84.58252003,608,0
Putnam,Ohio,41.02094889,-84.1336111,608,23
Bullock,Alabama,32.10030533,-85.71265535,606,14
Jackson,Texas,28.95472367,-96.57749563,606,16
Pierce,Georgia,31.35928155,-82.21598442,606,20
Midland,Michigan,43.64330771,-84.38804374,605,11
Greene,North Carolina,35.48544173,-77.67578087,604,5
Clarke,Mississippi,32.04158545,-88.6889622,603,46
Anson,North Carolina,34.97403241,-80.09953279,602,4
Walthall,Mississippi,31.14971548,-90.10446654,602,26
McDuffie,Georgia,33.47851918,-82.48252774,601,14
Matanuska-Susitna,Alaska,62.31305045,-149.5741743,600,2
Macon,North Carolina,35.14867843,-83.41696617,598,2
Bacon,Georgia,31.55456473,-82.45936528,597,14
Fayette,Texas,29.87788372,-96.92076062,597,20
Rio Grande,Puerto Rico,18.346329,-65.813742,597,0
Clay,Mississippi,33.65358105,-88.77784255,596,18
Kay,Oklahoma,36.81799745,-97.14421435,594,13
Dorchester,Maryland,38.45413522,-76.02752426,593,10
Hickman,Tennessee,35.80609681,-87.47643507,593,8
Wright,Iowa,42.73305373,-93.73515113,592,1
Columbia,New York,42.24819348,-73.63089095,591,37
Kerr,Texas,30.06040006,-99.34930144,591,10
Monroe,Alabama,31.56729412,-87.36995001,590,8
Bertie,North Carolina,36.0688473,-76.96545943,588,8
Hancock,Mississippi,30.41830223,-89.48851033,588,22
Clay,Alabama,33.26984193,-85.85836077,587,8
Harrison,Indiana,38.19467379,-86.10948271,587,24
Van Zandt,Texas,32.56483801,-95.83766469,586,19
Merrimack,New Hampshire,43.29662971,-71.6811573,583,23
Calloway,Kentucky,36.62093411,-88.2731593,582,8
Putnam,Indiana,39.66437981,-86.84517605,581,12
Prince Edward,Virginia,37.22554789,-78.43597949,580,12
Abbeville,South Carolina,34.22333378,-82.46170658,579,12
Cass,Michigan,41.91522292,-85.99405727,579,16
Glenn,California,39.59875897,-122.3938452,578,3
Valencia,New Mexico,34.71669834,-106.8103733,578,4
Jasper,Mississippi,32.01922104,-89.11786866,577,15
Pike,Pennsylvania,41.33155042,-75.03208106,577,22
Sandusky,Ohio,41.35624126,-83.137872,577,20
Jones,Texas,32.73997145,-99.87861576,575,0
Cambria,Pennsylvania,40.49527404,-78.71377428,574,7
Chautauqua,New York,42.2276921,-79.36691763,573,9
Washington,Virginia,36.72341572,-81.95666289,572,20
Brown,Texas,31.77430356,-98.99907113,570,25
DeKalb,Tennessee,35.97616272,-85.83689361,570,14
Jefferson,Idaho,43.82078483,-112.3131749,569,2
Limestone,Texas,31.5454767,-96.58095444,568,13
Union,South Carolina,34.68835752,-81.61730349,565,12
Clay,South Dakota,42.91296147,-96.97656917,563,5
Davie,North Carolina,35.93099927,-80.54496571,561,6
Palo Pinto,Texas,32.75310985,-98.31319001,561,15
Tehama,California,40.12570935,-122.2370171,560,5
Natrona,Wyoming,42.96180148,-106.797885,559,4
Putnam,West Virginia,38.50782345,-81.9082131,559,5
Talbot,Maryland,38.76618159,-76.10882561,559,6
Washington,Alabama,31.4092794,-88.20689944,559,13
Benton,Minnesota,45.69804958,-93.99514135,558,3
Jefferson,Florida,30.43669112,-83.89442308,557,9
Marion,Illinois,38.64963204,-88.91899208,554,0
Teton,Wyoming,43.93522482,-110.5890801,554,1
Jones,Georgia,33.02512137,-83.56019163,553,8
Logan,Kentucky,36.85949479,-86.877635,553,28
Steele,Minnesota,44.02240351,-93.22627088,553,2
Manati,Puerto Rico,18.420473,-66.490461,552,0
Carter,Oklahoma,34.25103751,-97.28552485,551,8
Crisp,Georgia,31.92289565,-83.76811843,551,17
Huron,Ohio,41.14651175,-82.59867951,551,7
Noxubee,Mississippi,33.11009499,-88.56949061,551,16
Strafford,New Hampshire,43.291833,-71.02336013,551,13
Cook,Georgia,31.16068491,-83.42947229,549,13
East Carroll,Louisiana,32.73926954,-91.23425694,549,4
Lake,California,39.10124298,-122.7536244,549,11
Adams,Nebraska,40.5244942,-98.50117804,548,12
Chippewa,Wisconsin,45.06939744,-91.28068855,546,0
Union,Ohio,40.30016061,-83.37239023,545,2
York,Virginia,37.24374789,-76.54412815,545,8
Freeborn,Minnesota,43.67385583,-93.34884422,544,4
La Paz,Arizona,33.72854224,-113.9810029,544,15
Macoupin,Illinois,39.26119767,-89.92424028,544,7
Meriwether,Georgia,33.04163534,-84.68859732,544,13
Fajardo,Puerto Rico,18.318373,-65.666866,543,0
Crockett,Tennessee,35.81830662,-89.14916269,542,19
Nicollet,Minnesota,44.35291112,-94.24710352,542,17
Perry,Alabama,32.64048341,-87.29770589,541,6
Crenshaw,Alabama,31.72941803,-86.31593104,540,32
Glades,Florida,26.95635849,-81.18996211,540,4
Carson City,Nevada,39.15509045,-119.7480219,539,8
Christian,Illinois,39.54581621,-89.27780482,539,11
Franklin,Illinois,37.99189086,-88.92567818,539,3
Fredericksburg,Virginia,38.2977863,-77.4922454,539,5
Meade,South Dakota,44.56676791,-102.7162741,537,5
Conecuh,Alabama,31.43401703,-86.99320044,536,11
Kewaunee,Wisconsin,44.51727459,-87.61468386,536,2
Smith,Mississippi,32.01744532,-89.50644846,536,15
Jefferson,Oregon,44.62806839,-121.17832,534,8
Nevada,California,39.30394768,-120.7627281,534,7
New Madrid,Missouri,36.59666326,-89.66070007,534,16
Crow Wing,Minnesota,46.48096553,-94.06755609,533,18
Gurabo,Puerto Rico,18.266461,-65.979705,533,0
Kittitas,Washington,47.12521214,-120.679439,533,22
Marion,Tennessee,35.12997174,-85.62265895,533,8
Wilcox,Alabama,31.98773215,-87.30891118,532,11
Pemiscot,Missouri,36.2130572,-89.78742322,531,10
Decatur,Tennessee,35.60048904,-88.11043779,530,7
Gibson,Indiana,38.30393723,-87.58054938,530,5
Polk,Oregon,44.90322804,-123.4128888,530,15
Watonwan,Minnesota,43.97823903,-94.61413846,530,4
Worth,Georgia,31.55162306,-83.85090513,530,30
Butler,Kansas,37.78134351,-96.83878537,529,3
Colusa,California,39.17881957,-122.2331726,529,6
Humacao,Puerto Rico,18.145211,-65.810174,529,0
Lafayette,Missouri,39.06986886,-93.78076396,529,2
Dickinson,Iowa,43.37787725,-95.1510206,528,6
Dunn,Wisconsin,44.94562799,-91.8962481,527,0
Monroe,Wisconsin,43.94641218,-90.618819,527,2
Alexander,North Carolina,35.9223796,-81.17751948,526,7
Fentress,Tennessee,36.38128818,-84.92870012,526,3
Knox,Indiana,38.68861576,-87.4194665,525,9
Wood,Texas,32.78722382,-95.38236368,525,23
Stephenson,Illinois,42.35129217,-89.662598,523,6
Calhoun,Mississippi,33.93683395,-89.33686647,522,12
Lewis,Washington,46.57756476,-122.3925769,522,4
Linn,Oregon,44.48899494,-122.5373154,522,13
Morovis,Puerto Rico,18.316963,-66.420383,521,0
Stewart,Georgia,32.07996777,-84.83208037,521,14
Albany,Wyoming,41.65498705,-105.7235415,520,0
Brooks,Georgia,30.83922642,-83.58303423,520,25
Raleigh,West Virginia,37.76936795,-81.2456041,520,8
Lawrence,Pennsylvania,40.99206278,-80.33393706,519,23
Newport,Rhode Island,41.5642026,-71.26569799,518,0
Oceana,Michigan,43.64124435,-86.26726673,518,6
Liberty,Florida,30.23766008,-84.8829258,516,8
Green,Wisconsin,42.6794956,-89.60243287,515,3
Lawrence,Indiana,38.84112637,-86.48361629,515,29
Union,Illinois,37.47119609,-89.25548938,515,24
Shiawassee,Michigan,42.953928,-84.14585902,513,32
Stutsman,North Dakota,46.97962541,-98.95637318,512,3
Boone,Iowa,42.03657094,-93.9313999,511,8
Concordia,Louisiana,31.44817835,-91.63814433,511,14
Gilchrist,Florida,29.72856978,-82.79880657,511,12
Montgomery,Indiana,40.04034823,-86.89335024,511,21
Scioto,Ohio,38.80270163,-82.98907345,511,7
Tuscola,Michigan,43.46606813,-83.41897025,509,31
Miller,Missouri,38.21450288,-92.42610898,508,1
Stoddard,Missouri,36.85571651,-89.9444155,508,13
Chisago,Minnesota,45.5021011,-92.90861945,507,1
Claiborne,Louisiana,32.82308512,-92.99526883,507,23
Hart,Georgia,34.34626973,-82.96567682,507,13
Henry,Alabama,31.51148016,-85.24267944,507,5
Beckham,Oklahoma,35.26862449,-99.68128023,505,2
Nye,Nevada,38.04264256,-116.4722702,505,15
Craig,Oklahoma,36.76268118,-95.20916602,503,1
Nelson,Kentucky,37.80335779,-85.4657193,502,4
San Lorenzo,Puerto Rico,18.147987,-65.976392,502,0
Todd,Minnesota,46.06996226,-94.89785296,502,2
Greene,Georgia,33.5769205,-83.17139104,501,23
Humboldt,California,40.69923009,-123.876044,501,7
Bell,Kentucky,36.73355174,-83.67766671,500,14
Carroll,Virginia,36.73066666,-80.73455942,500,24
Austin,Texas,29.88548725,-96.27736949,499,9
Grays Harbor,Washington,47.14003705,-123.7820567,499,7
Morrow,Oregon,45.41846568,-119.584546,499,6
Winchester,Virginia,39.17054517,-78.17325058,499,4
Barton,Kansas,38.47889676,-98.75636726,498,7
Augusta,Virginia,38.16404586,-79.12461614,497,7
Tunica,Mississippi,34.64967704,-90.37481167,497,15
Bremer,Iowa,42.77461496,-92.31795937,495,7
Grant,Louisiana,31.59882456,-92.56124347,495,30
Milam,Texas,30.7858183,-96.97718698,495,6
Cherokee,Kansas,37.16928494,-94.8462897,494,7
McLeod,Minnesota,44.82367677,-94.27287017,494,2
Phillips,Arkansas,34.43268455,-90.84800154,494,12
Early,Georgia,31.32155345,-84.90255207,493,33
Madison,New York,42.91653905,-75.67266639,493,17
Oswego,New York,43.42778894,-76.14635194,493,3
Knox,Kentucky,36.89225732,-83.85403396,492,9
Smyth,Virginia,36.84455636,-81.53344948,491,13
Barry,Missouri,36.70978521,-93.82919888,490,6
Las Piedras,Puerto Rico,18.187527,-65.869468,488,0
Phelps,Missouri,37.87736118,-91.79351727,488,8
DeKalb,Indiana,41.39804622,-84.99906934,487,11
Colorado,Texas,29.622098,-96.5273805,486,4
White,Indiana,40.74911165,-86.86492015,486,14
Seneca,Ohio,41.12351311,-83.12783209,485,14
Bienville,Louisiana,32.34569994,-93.05398492,484,32
Logan,Oklahoma,35.91899576,-97.44352845,483,1
Macon,Alabama,32.38759944,-85.69267724,483,18
Banks,Georgia,34.35607081,-83.49644388,482,8
Grand Traverse,Michigan,44.69565625,-85.55585247,482,8
Lincoln,Oregon,44.64252874,-123.869912,482,13
Morgan,Georgia,33.59232073,-83.49129491,481,2
McDonough,Illinois,40.45674722,-90.67775541,480,15
Shelby,Texas,31.79211404,-94.14550696,480,27
Warren,Missouri,38.76529479,-91.16124662,479,1
Houghton,Michigan,46.89988536,-88.68495385,475,1
Haralson,Georgia,33.79602175,-85.21005667,473,8
Jasper,Texas,30.74685667,-94.02667579,473,25
Ontario,New York,42.85145728,-77.30874425,473,35
Le Sueur,Minnesota,44.37136597,-93.72844721,472,4
Union,Pennsylvania,40.96188846,-77.05996014,472,6
Howard,Arkansas,34.09007427,-93.9934871,471,10
Ottawa,Ohio,41.53781826,-83.0940185,469,30
Saunders,Nebraska,41.2278103,-96.63773905,469,3
Barron,Wisconsin,45.42372701,-91.84833627,466,4
Stone,Missouri,36.75000327,-93.45256475,466,4
Washington,Iowa,41.33577126,-91.71725711,466,11
Claiborne,Mississippi,31.97061673,-90.90702196,465,16
Montgomery,Mississippi,33.49419589,-89.61729103,465,20
Sussex,Virginia,36.92432914,-77.25791182,465,11
Logan,Illinois,40.12581572,-89.36638784,464,1
Allegany,Maryland,39.62357628,-78.69280486,463,22
Carbon,Pennsylvania,40.91545395,-75.7068525,463,28
Fayette,Alabama,33.72076938,-87.73886638,462,8
Summit,Colorado,39.63803232,-106.1150762,462,4
Chemung,New York,42.13891056,-76.7638805,461,3
Martin,North Carolina,35.84326734,-77.10860251,460,10
Candler,Georgia,32.40209349,-82.07702563,458,19
Decatur,Indiana,39.30712658,-85.50087166,458,39
Ohio,Kentucky,37.47751843,-86.85368087,457,9
Douglas,Wisconsin,46.43222285,-91.91595768,455,0
Calhoun,South Carolina,33.66926881,-80.77722168,454,17
Campbell,Tennessee,36.40355516,-84.1510856,454,4
Northampton,North Carolina,36.41736238,-77.39769443,452,17
Columbia,Arkansas,33.21230701,-93.22642793,451,18
Campbell,Virginia,37.20553386,-79.09678609,450,4
Crawford,Illinois,39.0032229,-87.75954624,450,3
Seminole,Oklahoma,35.16478725,-96.61686741,450,6
Berrien,Georgia,31.27590016,-83.2252992,449,12
Catano,Puerto Rico,18.437269,-66.143306,449,0
Kenai Peninsula,Alaska,60.24429722,-151.5388884,449,3
Barranquitas,Puerto Rico,18.201592,-66.30963,446,0
Lincoln,Oklahoma,35.70270942,-96.8812462,446,10
Union,Oregon,45.30915495,-118.0068979,446,2
Boyd,Kentucky,38.36176608,-82.68652187,445,8
Otter Tail,Minnesota,46.40846929,-95.70835255,445,4
Oneida,Wisconsin,45.70677897,-89.51944105,443,2
Claiborne,Tennessee,36.48319149,-83.65947309,442,5
Pike,Kentucky,37.47088263,-82.39487445,442,3
Atkinson,Georgia,31.29633502,-82.87545866,441,3
Lawrence,Arkansas,36.04188196,-91.10867198,441,12
Stokes,North Carolina,36.4017975,-80.23893369,441,3
Beltrami,Minnesota,47.97373527,-94.93732139,440,5
Cooke,Texas,33.63979567,-97.21240912,440,6
Preble,Ohio,39.7420247,-84.64787018,440,15
Duval,Texas,27.68184592,-98.50864568,439,15
Miami,Indiana,40.76940965,-86.04525048,438,3
Pierce,Wisconsin,44.71850291,-92.4224416,438,7
Sumter,Alabama,32.59117397,-88.19916205,438,19
Hughes,South Dakota,44.39091534,-99.99661148,437,5
Catahoula,Louisiana,31.66778967,-91.84526385,436,10
Person,North Carolina,36.38989032,-78.97217358,436,7
Yalobusha,Mississippi,34.02824175,-89.7076205,436,14
Aguadilla,Puerto Rico,18.459681,-67.120815,435,0
Armstrong,Pennsylvania,40.81665618,-79.46290811,435,18
Lyon,Nevada,39.01777974,-119.1870479,435,7
Nez Perce,Idaho,46.32638236,-116.7500975,435,24
Cross,Arkansas,35.29631396,-90.77185818,434,13
Bleckley,Georgia,32.43829035,-83.33035166,433,21
Dawson,Texas,32.74255572,-101.9477242,433,9
Lawrence,Mississippi,31.55147224,-90.10841127,433,13
Parmer,Texas,34.52993409,-102.7844668,433,7
Stephens,Oklahoma,34.48556989,-97.85141892,433,5
Ashley,Arkansas,33.19153461,-91.7698471,431,10
Audrain,Missouri,39.215877,-91.84242683,431,4
Cooper,Missouri,38.844478,-92.80896081,431,2
Jefferson,West Virginia,39.30776166,-77.86014147,431,4
Salinas,Puerto Rico,18.010387,-66.256592,431,0
Louisa,Iowa,41.21842119,-91.26102611,429,15
Evans,Georgia,32.15328841,-81.8870105,428,6
Greene,Indiana,39.03630547,-86.96223202,427,35
Dodge,Georgia,32.17265114,-83.16948926,426,12
Martin,Minnesota,43.67429718,-94.55099908,426,10
Andrews,Texas,32.30468633,-102.6376548,425,9
Perry,Mississippi,31.17161885,-88.99281835,424,19
Woodford,Illinois,40.78579374,-89.20973757,424,6
Fayette,Indiana,39.63684962,-85.17797541,423,13
LaSalle,Louisiana,31.67884782,-92.15907765,423,7
Washington,Missouri,37.96130078,-90.87948158,423,10
Cibola,New Mexico,34.91131525,-107.998876,422,21
Jenkins,Georgia,32.79248718,-81.96040187,421,29
Muskingum,Ohio,39.96575964,-81.94363275,421,3
Luna,New Mexico,32.18179341,-107.7508826,419,6
Fayette,Illinois,39.00072038,-89.02452658,418,3
Galax,Virginia,36.66601852,-80.91703124,418,30
Warren,Virginia,38.90847745,-78.20280433,418,7
Pontotoc,Oklahoma,34.72959848,-96.68337199,417,3
Randolph,Arkansas,36.3415714,-91.02455531,417,22
Johnson,Georgia,32.70211082,-82.66166794,416,22
Latah,Idaho,46.81587887,-116.7113698,416,0
Steuben,New York,42.2689144,-77.3829924,416,42
Franklin City,Virginia,36.6831435,-76.93859681,415,9
Mercer,West Virginia,37.40481169,-81.11023142,415,28
Delta,Michigan,45.9048491,-86.9080745,414,7
Pawnee,Kansas,38.18108732,-99.23692334,414,1
Scotts Bluff,Nebraska,41.85070896,-103.7080986,414,8
Screven,Georgia,32.74976524,-81.60779441,414,10
Greenup,Kentucky,38.54332505,-82.9215658,413,4
Tompkins,New York,42.44945765,-76.47229843,413,0
Yankton,South Dakota,43.00924485,-97.39467635,413,4
Wise,Virginia,36.9746148,-82.62410519,411,9
Delaware,Iowa,42.47104597,-91.3664492,410,3
Franklin,Massachusetts,42.58119713,-72.58602547,410,68
Mahaska,Iowa,41.33521503,-92.64083907,410,19
St. Helena,Louisiana,30.82210324,-90.71013176,408,4
Freestone,Texas,31.70422788,-96.15072516,407,2
Logan,Arkansas,35.21413234,-93.71951016,407,1
Montgomery,Kansas,37.19236568,-95.74329258,407,6
Arkansas,Arkansas,34.29145151,-91.37277296,406,8
Livingston,Missouri,39.78110272,-93.54645978,406,1
Bristol,Rhode Island,41.71018079,-71.28652315,404,0
Huntingdon,Pennsylvania,40.42162652,-77.97673273,403,6
Crawford,Missouri,37.97663738,-91.30528104,402,4
Lawrence,South Dakota,44.35919441,-103.7929428,402,4
Union,South Dakota,42.83112163,-96.6557828,402,7
Grayson,Kentucky,37.46231118,-86.34248968,400,14
Jasper,Indiana,41.02078733,-87.11553319,399,2
Polk,Tennessee,35.12245443,-84.52075859,399,10
Yauco,Puerto Rico,18.080374,-66.858814,399,0
Cass,Illinois,39.96991073,-90.24734436,398,11
Clark,Wisconsin,44.73483377,-90.61207486,397,8
Harlan,Kentucky,36.85699301,-83.21899516,397,10
Rio Arriba,New Mexico,36.51072137,-106.6931674,397,13
Amherst,Virginia,37.60308293,-79.14548696,396,4
Mason,Washington,47.35007586,-123.1863685,396,4
Livingston,Illinois,40.89188292,-88.55784752,395,6
Wayne,West Virginia,38.14901357,-82.42287994,395,11
Hopewell,Virginia,37.29186313,-77.29754684,393,7
Page,Virginia,38.61807452,-78.48797204,393,29
Jersey,Illinois,39.08869046,-90.35393073,392,15
Hancock,Georgia,33.2721566,-82.99766919,391,42
Holmes,Ohio,40.56163713,-81.92635677,390,9
Juncos,Puerto Rico,18.223793,-65.909109,390,0
Shelby,Illinois,39.39133527,-88.80611122,390,4
Maui,Hawaii,20.86399628,-156.5689097,388,9
Greene,Mississippi,31.21444233,-88.63922281,387,17
Steuben,Indiana,41.64423868,-85.00101094,387,7
Upshur,Texas,32.73706798,-94.93999853,387,10
Grainger,Tennessee,36.27469206,-83.51254721,386,3
Dinwiddie,Virginia,37.07544585,-77.63451754,385,11
O'Brien,Iowa,43.08310673,-95.62474482,385,9
Telfair,Georgia,31.92829517,-82.93491155,384,18
Allendale,South Carolina,32.98837386,-81.35321066,383,6
Montrose,Colorado,38.40214114,-108.2639022,383,13
Cleburne,Alabama,33.67679204,-85.52005899,382,5
Martinsville,Virginia,36.68212094,-79.86352771,382,17
Panola,Texas,32.1639596,-94.30552481,381,26
Scott,Indiana,38.68672078,-85.74627859,381,11
Warren,New York,43.56173026,-73.8433699,381,33
Fluvanna,Virginia,37.84157909,-78.27715475,379,9
Juneau,Wisconsin,43.92456975,-90.11120239,379,2
Humphreys,Mississippi,33.12825718,-90.52252707,378,15
Clinch,Georgia,30.91395822,-82.70432472,377,6
Quitman,Mississippi,34.25157572,-90.28908,377,5
Goodhue,Minnesota,44.40849741,-92.7234195,376,9
Mingo,West Virginia,37.73048351,-82.13338365,376,9
Menominee,Michigan,45.58038692,-87.55370409,375,1
Stone,Mississippi,30.79187949,-89.11547539,375,12
Live Oak,Texas,28.35101362,-98.1246786,374,9
Houston,Texas,31.31925973,-95.42226208,373,11
Ohio,West Virginia,40.0955451,-80.62203992,373,6
Lincoln,Nebraska,41.04658298,-100.7475374,372,2
Montgomery,Illinois,39.23198845,-89.47809254,372,13
Lee,Illinois,41.74583951,-89.29977132,371,1
Cass,Texas,33.07499881,-94.34646905,370,15
Lamar,Alabama,33.77995024,-88.09668032,370,2
Garvin,Oklahoma,34.70418038,-97.30811132,369,5
Hempstead,Arkansas,33.73325583,-93.66935133,369,4
Ionia,Michigan,42.94502238,-85.07413319,368,7
Jackson,Kentucky,37.41866422,-83.99825483,368,17
Pecos,Texas,30.78097267,-102.7241261,368,5
Whitley,Kentucky,36.75700531,-84.14541217,366,2
Harrison,West Virginia,39.2853852,-80.37919577,365,9
Iroquois,Illinois,40.74717633,-87.82466784,365,19
Lamar,Georgia,33.07841647,-84.14263877,365,18
Union,Tennessee,36.28590426,-83.83651902,364,2
Wood,West Virginia,39.20967886,-81.5162836,364,6
Marquette,Michigan,46.4338914,-87.64043701,362,12
Newaygo,Michigan,43.554374,-85.80070107,361,2
Washington,Idaho,44.45275475,-116.7847688,361,6
La Salle,Texas,28.34453111,-99.09908775,359,11
Morgan,Missouri,38.4181765,-92.88791859,359,1
Red River,Louisiana,32.09530039,-93.34213308,359,22
San Sebastian,Puerto Rico,18.328646,-66.971214,359,0
Brunswick,Virginia,36.76366949,-77.8593436,358,5
Caswell,North Carolina,36.39312665,-79.33353281,358,4
Cowley,Kansas,37.23781842,-96.83776647,358,5
Little River,Arkansas,33.70375665,-94.23468591,358,25
Drew,Arkansas,33.59035001,-91.71777921,357,7
Miami,Kansas,38.56383358,-94.83832189,357,1
Zavala,Texas,28.86617238,-99.76050829,357,16
Avery,North Carolina,36.07569796,-81.92308483,356,0
Chowan,North Carolina,36.12908077,-76.60118385,356,3
Seminole,Georgia,30.93464824,-84.86823924,356,9
Camp,Texas,32.97195142,-94.97790104,355,11
Caroline,Virginia,38.02679129,-77.34901405,354,5
Cayey,Puerto Rico,18.102851,-66.14914,354,0
Hopkins,Texas,33.14875072,-95.56351139,354,8
Roosevelt,Montana,48.29607488,-105.0079268,354,4
Floyd,Iowa,43.0600053,-92.78940097,352,3
Harvey,Kansas,38.04293782,-97.42747573,352,7
Madison,Arkansas,36.01038185,-93.72524943,352,3
Uinta,Wyoming,41.2878183,-110.5475782,352,2
Wright,Missouri,37.27029221,-92.46914488,352,0
Bollinger,Missouri,37.32449052,-90.02725304,351,1
Choctaw,Alabama,32.02227341,-88.2656443,351,12
Hockley,Texas,33.60771256,-102.3431676,351,8
Franklin,Iowa,42.73270384,-93.26256925,350,18
Jackson,Iowa,42.17178824,-90.57354837,350,3
Perry,Illinois,38.08510853,-89.36856219,350,15
Richmond,Virginia,37.937575,-76.72920628,349,4
West Carroll,Louisiana,32.78550125,-91.461201,349,10
Halifax,Virginia,36.76654925,-78.93512622,348,6
Hillsdale,Michigan,41.88753639,-84.59312019,348,27
Kingfisher,Oklahoma,35.94530008,-97.94193268,348,2
Waushara,Wisconsin,44.11324419,-89.24317107,348,2
Franklin,Kansas,38.56443815,-95.28644341,347,3
Stone,Arkansas,35.86251946,-92.15684085,347,12
Juana Diaz,Puerto Rico,18.050764,-66.494581,346,0
Baxter,Arkansas,36.28784385,-92.33782872,345,2
Brantley,Georgia,31.19576557,-81.97743999,344,10
Warren,North Carolina,36.39728256,-78.10652228,344,7
Adair,Missouri,40.19058551,-92.60078167,343,0
Benson,North Dakota,48.0683985,-99.35916363,343,6
Gaines,Texas,32.74055318,-102.6353295,343,9
Moca,Puerto Rico,18.377805,-67.080952,343,0
Bradley,Arkansas,33.46755808,-92.15980837,342,8
Cabo Rojo,Puerto Rico,18.040993,-67.154391,342,0
Clark,Arkansas,34.04613432,-93.17484713,342,4
Elmore,Idaho,43.3507101,-115.4701578,342,3
Jefferson Davis,Mississippi,31.56884708,-89.8267099,342,11
Butler,Kentucky,37.20946153,-86.68748787,341,16
Posey,Indiana,38.02097333,-87.86480429,340,0
Rabun,Georgia,34.88389445,-83.40304637,340,9
Saline,Illinois,37.75332999,-88.54119706,340,4
Itasca,Minnesota,47.51009045,-93.63092229,339,14
Winneshiek,Iowa,43.29094334,-91.84422722,339,6
Aguada,Puerto Rico,18.360255,-67.175131,338,0
Burleson,Texas,30.49273808,-96.62158484,338,6
Dooly,Georgia,32.15630737,-83.79746561,338,14
Otsego,New York,42.63492579,-75.03151402,338,5
Sullivan,Indiana,39.08952258,-87.41414469,338,12
Webster,Mississippi,33.61300486,-89.28392912,338,13
Allen,Kentucky,36.75197631,-86.19457544,337,9
Benton,Tennessee,36.07110411,-88.06849355,337,9
Jefferson,Ohio,40.38614126,-80.76259514,336,4
Lamb,Texas,34.06859623,-102.3516289,336,22
Orocovis,Puerto Rico,18.215046,-66.433604,336,0
Pine,Minnesota,46.12105238,-92.74070188,336,0
Wilkinson,Georgia,32.80291082,-83.17140684,336,18
Fulton,New York,43.11363907,-74.41798804,335,24
Orleans,New York,43.2516977,-78.2320066,335,54
Perry,Kentucky,37.25023553,-83.22922731,335,9
Sweetwater,Wyoming,41.65943896,-108.8827882,335,2
Herkimer,New York,43.42034246,-74.96145307,334,10
Benton,Missouri,38.29503305,-93.28756116,333,3
Chaffee,Colorado,38.74745778,-106.1926573,333,19
Zapata,Texas,27.00156391,-99.16987152,333,6
Amite,Mississippi,31.17467303,-90.80501621,332,10
Lyon,Iowa,43.38107862,-96.20926845,332,4
Warren,Illinois,40.84925021,-90.6147432,332,2
Wheeler,Georgia,32.12009104,-82.72574721,332,11
Atchison,Kansas,39.53185661,-95.30870026,331,2
Cleburne,Arkansas,35.53864922,-92.02640019,331,8
Jackson,Tennessee,36.36380466,-85.67239905,331,5
Randolph,Georgia,31.76622818,-84.75732369,331,29
Towns,Georgia,34.91369188,-83.7410746,331,9
Cass,Nebraska,40.90899107,-96.13971217,330,2
Oglethorpe,Georgia,33.8786296,-83.08278123,330,11
Transylvania,North Carolina,35.20383864,-82.79638423,330,7
Union,Kentucky,37.66166713,-87.94300009,330,3
Door,Wisconsin,44.95856458,-87.30002707,329,3
Owyhee,Idaho,42.58016894,-116.1693871,329,5
Terrell,Georgia,31.77527543,-84.44069698,329,32
Bond,Illinois,38.88829622,-89.43534887,328,5
Clay,Iowa,43.08247182,-95.15096481,328,4
Kendall,Texas,29.94414155,-98.7113588,328,7
Lares,Puerto Rico,18.269035,-66.867236,328,0
Hamilton,Iowa,42.38382428,-93.70197703,327,3
Douglas,Minnesota,45.93348491,-95.45335469,326,2
Gem,Idaho,44.06482372,-116.398376,326,2
Pike,Georgia,33.09310242,-84.38790389,326,10
Texas,Missouri,37.31728859,-91.96564727,326,2
Defiance,Ohio,41.32398837,-84.49076944,325,11
Orange,Virginia,38.24530219,-78.015604,325,4
Benton,Iowa,42.08011739,-92.06463573,324,1
Bosque,Texas,31.89978581,-97.63613524,324,6
Clay,Kentucky,37.16451126,-83.712575,324,6
Jackson,Arkansas,35.59802983,-91.21494602,324,1
Aransas,Texas,28.10556197,-96.9995047,323,18
Clearfield,Pennsylvania,41.00110782,-78.47592663,323,6
Greene,New York,42.275797,-74.12384884,323,18
McIntosh,Oklahoma,35.37235506,-95.66599306,323,5
St. Lawrence,New York,44.4976179,-75.06550039,322,4
Bonner,Idaho,48.29996017,-116.6017932,321,0
Genesee,New York,43.0022601,-78.19135193,321,5
Moniteau,Missouri,38.63571781,-92.57976951,321,4
Carroll,Mississippi,33.44834567,-89.91994479,320,12
Grayson,Virginia,36.65677234,-81.23215889,320,13
Morgan,Tennessee,36.13248031,-84.64880098,320,3
Choctaw,Oklahoma,34.02807439,-95.54771129,319,2
Henry,Ohio,41.3339642,-84.06830637,318,14
Wayne,New York,43.15494365,-77.02976528,318,5
Brooks,Texas,27.03103197,-98.21808402,317,22
Calaveras,California,38.20537103,-120.552913,317,14
Clark,Kentucky,37.9689263,-84.14615986,316,8
Jennings,Indiana,38.99588883,-85.62710784,316,12
Polk,Minnesota,47.77372465,-96.40134647,316,4
Montcalm,Michigan,43.31082541,-85.15252824,315,6
Winnebago,Iowa,43.37751174,-93.73407298,315,13
Cidra,Puerto Rico,18.173559,-66.161179,314,0
Snyder,Pennsylvania,40.77129231,-77.06840691,314,4
Young,Texas,33.17659707,-98.68790885,314,6
Island,Washington,48.14713305,-122.5216407,313,12
Polk,North Carolina,35.27820615,-82.16812354,313,11
Douglas,Illinois,39.76768052,-88.21854195,312,7
Gillespie,Texas,30.31824095,-98.94676915,312,10
Logan,Ohio,40.38996525,-83.76784341,312,3
Pulaski,Georgia,32.23334561,-83.4754996,312,22
Franklin,Indiana,39.4142482,-85.06062647,311,25
Adair,Kentucky,37.10459774,-85.28129668,310,19
Benton,Oregon,44.49167306,-123.4316987,310,6
Gray,Texas,35.40081878,-100.8129222,310,6
Hatillo,Puerto Rico,18.410928,-66.796326,310,0
Grundy,Tennessee,35.38433717,-85.72142731,309,5
Robertson,Texas,31.02539637,-96.51272246,309,3
Champaign,Ohio,40.13923427,-83.76875242,308,3
Isanti,Minnesota,45.56181234,-93.29487636,307,1
Refugio,Texas,28.3238976,-97.15766311,307,14
Barry,Michigan,42.59513984,-85.30834519,306,4
Madison,Missouri,37.47865134,-90.3467143,306,1
Crawford,Pennsylvania,41.68447709,-80.10760592,305,3
Northampton,Virginia,37.34062933,-75.87751591,305,31
Wilkinson,Mississippi,31.16078225,-91.31018819,305,18
Hardin,Iowa,42.38353877,-93.23654611,304,1
Kent,Maryland,39.24976208,-76.04741541,304,24
Montgomery,Georgia,32.17201038,-82.53527476,304,5
Poweshiek,Iowa,41.68625425,-92.53155731,304,8
Turner,Georgia,31.71612656,-83.62069378,304,22
Yabucoa,Puerto Rico,18.070399,-65.896289,304,0
Campbell,Wyoming,44.24886082,-105.5474404,303,1
Greene,Alabama,32.85504247,-87.95684022,303,15
Ripley,Indiana,39.10235626,-85.26212744,303,8
Atoka,Oklahoma,34.37366573,-96.03802487,302,1
Botetourt,Virginia,37.55531756,-79.80982182,302,10
Clay,Indiana,39.39561833,-87.11723506,302,5
Geary,Kansas,38.99871131,-96.7577178,302,2
Marshall,Kentucky,36.8800707,-88.32803576,302,4
Caldwell,Louisiana,32.0902519,-92.11752148,301,3
Tazewell,Virginia,37.12191123,-81.56685568,301,2
Comanche,Texas,31.94854689,-98.55876441,300,4
Douglas,Nevada,38.912862,-119.6171333,300,1
Mississippi,Missouri,36.82516239,-89.29505753,300,3
Clinton,Ohio,39.41485808,-83.80852286,299,13
Perry,Ohio,39.73508655,-82.23804971,298,9
Taylor,Kentucky,37.3677562,-85.3329931,298,7
Amador,California,38.44583082,-120.65696,296,16
Gunnison,Colorado,38.66611652,-107.0320729,296,7
Hughes,Oklahoma,35.04912569,-96.24921145,296,4
Washington,New York,43.31153794,-73.43043448,296,14
Clay,Arkansas,36.36826212,-90.4148172,295,8
Davison,South Dakota,43.67490933,-98.14458906,295,2
Irwin,Georgia,31.60213036,-83.27501387,295,4
Lanier,Georgia,31.0382857,-83.06472457,295,5
Desha,Arkansas,33.83011025,-91.25500948,294,5
Susquehanna,Pennsylvania,41.82147784,-75.80071959,293,28
Cannon,Tennessee,35.80990797,-86.05738983,292,0
Wasco,Oregon,45.16292781,-121.1670954,292,3
Brown,Ohio,38.93416837,-83.86788395,290,2
Kemper,Mississippi,32.75462946,-88.64105766,290,15
Louisa,Virginia,37.97850256,-77.96274807,290,6
McIntosh,Georgia,31.49683595,-81.40163426,290,7
Coamo,Puerto Rico,18.097597,-66.36014,289,0
Sheridan,Wyoming,44.79048913,-106.8862389,289,4
Unicoi,Tennessee,36.10890856,-82.43709629,289,1
Juneau,Alaska,58.45031811,-134.200436,288,1
Orange,Indiana,38.5411892,-86.49523093,288,24
Guayama,Puerto Rico,18.007516,-66.133908,287,0
Knox,Ohio,40.39830217,-82.42027563,286,15
Buchanan,Iowa,42.4709188,-91.83510825,285,1
Gooding,Idaho,42.96927962,-114.8108306,284,1
Boyle,Kentucky,37.62680923,-84.8633779,283,0
Camuy,Puerto Rico,18.418578,-66.860206,283,0
Lafayette,Wisconsin,42.66005229,-90.1317729,283,0
Dade,Georgia,34.8549167,-85.50490424,282,5
Montgomery,Kentucky,38.03253032,-83.9145241,282,3
Roosevelt,New Mexico,34.02097406,-103.4799493,282,4
Oglala Lakota,South Dakota,43.33749164,-102.5555498,281,3
Becker,Minnesota,46.93479392,-95.67158144,280,2
Franklin,Arkansas,35.51202821,-93.89299569,280,2
Klamath,Oregon,42.68762984,-121.6496461,280,2
Wayne,Illinois,38.42955355,-88.42586459,280,5
Glacier,Montana,48.70513576,-112.9934235,279,1
Whitley,Indiana,41.13863784,-85.50791236,279,6
Haskell,Oklahoma,35.222576,-95.11513306,278,4
Carroll,Indiana,40.5807832,-86.56198812,277,13
Green Lake,Wisconsin,43.80025981,-89.04679553,277,0
McPherson,Kansas,38.39184858,-97.64769869,277,1
Patrick,Virginia,36.6801638,-80.2865648,277,25
Simpson,Kentucky,36.74058474,-86.58047435,277,8
Falls,Texas,31.25350609,-96.93630086,276,5
Jones,Iowa,42.12118609,-91.13139641,276,3
Lake,Montana,47.64514965,-114.0898013,276,1
Somerset,Maryland,38.1163542,-75.75118623,276,5
Lewis and Clark,Montana,47.12610041,-112.394698,275,3
Westmoreland,Virginia,38.11021557,-76.80213247,275,3
Adams,Indiana,40.7457653,-84.93671406,274,3
Kossuth,Iowa,43.20405458,-94.20691791,274,0
Dare,North Carolina,35.66520691,-75.71767334,273,3
Woodford,Kentucky,38.04178222,-84.7417556,273,0
Casey,Kentucky,37.32533118,-84.92726209,272,15
Forest,Wisconsin,45.66678019,-88.77084892,272,4
Grant,Kansas,37.56227336,-101.3079758,272,5
McLean,North Dakota,47.60766714,-101.3182418,272,3
Butler,Iowa,42.73172833,-92.79015971,271,2
Carlton,Minnesota,46.59180601,-92.67601019,271,1
Goochland,Virginia,37.71714806,-77.90381514,271,7
Wabash,Indiana,40.84704239,-85.79328272,271,8
Gratiot,Michigan,43.29265605,-84.60505416,270,15
Green,Kentucky,37.26484328,-85.5540745,270,8
Loiza,Puerto Rico,18.425688,-65.89943,270,0
Pamlico,North Carolina,35.15253315,-76.66559823,270,2
Runnels,Texas,31.8314342,-99.97616148,270,6
Aguas Buenas,Puerto Rico,18.251619,-66.126806,269,0
Florida,Puerto Rico,18.373715,-66.560488,269,0
Lee,Virginia,36.70586667,-83.12606515,269,7
Marion,West Virginia,39.50984542,-80.24244659,269,3
Washington,Indiana,38.60219804,-86.1049363,269,1
Ashe,North Carolina,36.43296207,-81.49862729,268,1
Isabela,Puerto Rico,18.44981,-67.005093,268,0
Washington,Nebraska,41.52815707,-96.22019892,268,4
Conway,Arkansas,35.26205537,-92.70506566,267,3
Salem,Virginia,37.2836193,-80.06219455,267,6
Shelby,Iowa,41.6850066,-95.31015553,267,1
Starke,Indiana,41.27890281,-86.64686895,267,7
Clarke,Iowa,41.02868181,-93.78499767,266,3
Grant,Arkansas,34.29017991,-92.42320562,266,2
Sharkey,Mississippi,32.88149103,-90.8159538,266,13
Waynesboro,Virginia,38.06451466,-78.90293905,266,3
Wilkes,Georgia,33.78290391,-82.74286107,266,5
Emmet,Iowa,43.37782951,-94.67858943,265,10
Nottoway,Virginia,37.1435975,-78.05065922,265,18
Wells,Indiana,40.72934187,-85.22132966,265,4
Allamakee,Iowa,43.28383218,-91.37860922,264,6
Jackson,West Virginia,38.84263974,-81.68148753,264,23
Marquette,Wisconsin,43.81911946,-89.40073763,264,1
Morrison,Minnesota,46.01265363,-94.27341528,264,2
Jackson,Ohio,39.01914254,-82.6181856,263,6
Jo Daviess,Illinois,42.36542373,-90.21094405,263,2
Otero,New Mexico,32.61348406,-105.7417604,263,13
Ouachita,Arkansas,33.58839816,-92.87795984,263,6
San German,Puerto Rico,18.111484,-67.038581,263,0
Russell,Virginia,36.9302832,-82.10095486,262,5
Clayton,Iowa,42.84443388,-91.34133693,261,3
Luquillo,Puerto Rico,18.342114,-65.725097,261,0
Morrow,Ohio,40.5236356,-82.7892599,261,2
Polk,Arkansas,34.48254879,-94.22728802,261,4
Washington,Ohio,39.45690571,-81.49121382,261,23
Cattaraugus,New York,42.24778241,-78.67923096,260,6
La Plata,Colorado,37.28632032,-107.8429014,260,2
Miller,Georgia,31.16568912,-84.73151117,260,1
Spencer,Indiana,38.01519732,-87.0079644,259,3
Andrew,Missouri,39.98492163,-94.80163024,258,2
Emporia,Virginia,36.69455571,-77.53406129,258,26
Humphreys,Tennessee,36.03958805,-87.77992872,258,3
Randolph,Missouri,39.44007257,-92.4971374,258,2
Treutlen,Georgia,32.40422134,-82.56904553,258,8
Castro,Texas,34.53016752,-102.2617243,257,5
Chickasaw,Iowa,43.06001295,-92.31773347,257,0
