county,state,Lat,Long_,Confirmed,Deaths
Los Angeles,California,34.30828379,-118.2282411,236986,5701
New York City,New York,40.7672726,-73.97152637,233140,23674
Miami-Dade,Florida,25.6112362,-80.55170587,154757,2346
Maricopa,Arizona,33.34835867,-112.4918154,132704,2896
Cook,Illinois,41.84144849,-87.81658794,123691,5039
Harris,Texas,29.85864939,-95.39339521,101670,2140
Broward,Florida,26.15184651,-80.48725556,70147,1169
Dallas,Texas,32.76670599,-96.7779605,69881,926
Clark,Nevada,36.21458855,-115.0130241,57756,1099
Riverside,California,33.74314981,-115.9933578,51734,997
Orange,California,33.70147516,-117.7645998,47459,947
San Bernardino,California,34.84060306,-116.1774685,46407,715
Bexar,Texas,29.44928723,-98.52019748,45811,1046
Suffolk,New York,40.88320119,-72.8012172,44641,2001
Nassau,New York,40.74066522,-73.58941873,44450,2196
Palm Beach,Florida,26.64676272,-80.46536002,41195,1094
Tarrant,Texas,32.77143818,-97.29101614,38451,590
San Diego,California,33.03484597,-116.7365326,37499,673
Westchester,New York,41.16278376,-73.75741653,36825,1449
Hillsborough,Florida,27.9276559,-82.32013172,36354,540
Orange,Florida,28.51367621,-81.31799498,35245,369
Philadelphia,Pennsylvania,40.00338507,-75.1379271,33343,1749
Wayne,Michigan,42.28098405,-83.281255,30820,2872
Kern,California,35.34329425,-118.7277796,28612,251
Hidalgo,Texas,26.39418217,-98.18299696,27077,1145
Shelby,Tennessee,35.1864775,-89.89692423,26504,377
Travis,Texas,30.33432034,-97.7853562,26239,374
Duval,Florida,30.33225875,-81.66976468,26017,249
Prince George's,Maryland,38.83070039,-76.8496441,25817,785
Middlesex,Massachusetts,42.48607732,-71.39049229,25019,2062
Mecklenburg,North Carolina,35.24469268,-80.8317671,24744,284
Fulton,Georgia,33.79216944,-84.46319413,24378,498
Fresno,California,36.75733899,-119.6466953,24071,239
Gwinnett,Georgia,33.96044201,-84.02137802,23812,322
Milwaukee,Wisconsin,43.00486062,-87.96733172,23676,485
Salt Lake,Utah,40.66616532,-111.9216011,23355,229
Davidson,Tennessee,36.17007426,-86.78646056,23181,251
Hennepin,Minnesota,45.00761521,-93.47694895,22305,877
Suffolk,Massachusetts,42.3279514,-71.07850442,22036,1105
Bergen,New Jersey,40.96010917,-74.07164325,21454,2031
Franklin,Ohio,39.96995815,-83.01115755,21133,556
Pima,Arizona,32.0971334,-111.7890033,21001,567
Cameron,Texas,26.14524221,-97.48140372,20739,712
Essex,New Jersey,40.78681335,-74.24657979,20219,2110
Hudson,New Jersey,40.73766234,-74.07515667,20088,1506
El Paso,Texas,31.76980765,-106.2363275,19925,410
Montgomery,Maryland,39.13676329,-77.20358245,19733,818
Pinellas,Florida,27.93130349,-82.72239666,19681,641
King,Washington,47.49137892,-121.8346131,19155,722
Fairfield,Connecticut,41.26809896,-73.3881171,18721,1413
Nueces,Texas,27.736286,-97.5433285,18536,339
St. Louis,Missouri,38.6377004,-90.4458375,18507,726
Middlesex,New Jersey,40.43629879,-74.41426991,18361,1417
Lee,Florida,26.58410348,-81.88399313,18332,414
Passaic,New Jersey,41.03238628,-74.29954144,18249,1245
Marion,Indiana,39.78163624,-86.13826325,17976,746
Fairfax,Virginia,38.83677558,-77.27565836,17959,549
Essex,Massachusetts,42.6687626,-70.94687179,17824,1228
Oakland,Michigan,42.66090111,-83.38595416,17694,1157
Alameda,California,37.64629437,-121.8929271,17621,244
Union,New Jersey,40.65835409,-74.30680092,17040,1350
Sacramento,California,38.45106826,-121.3425374,16909,265
San Joaquin,California,37.93433732,-121.2730061,16845,305
Providence,Rhode Island,41.87064746,-71.57753536,16668,0
Polk,Florida,27.95027105,-81.69732947,16569,425
Cobb,Georgia,33.94243204,-84.5761255,16536,381
Santa Clara,California,37.23104908,-121.6970462,16393,240
DeKalb,Georgia,33.76944049,-84.22396017,16278,293
Jefferson,Louisiana,29.74075478,-90.11115756,16269,541
Cuyahoga,Ohio,41.424119,-81.65918339,15316,570
Jefferson,Alabama,33.55554728,-86.895063,15175,286
Baltimore,Maryland,39.45784712,-76.62911955,15043,599
Fort Bend,Texas,29.52704478,-95.77219463,14761,230
Wake,North Carolina,35.78879266,-78.65249174,14387,197
Baltimore City,Maryland,39.30211911,-76.61151012,14243,455
Lake,Illinois,42.3224907,-88.00367925,14223,462
DuPage,Illinois,41.85116968,-88.08642662,14200,533
Rockland,New York,41.15027894,-74.02560498,14183,674
Stanislaus,California,37.55862499,-120.9970722,14101,245
District of Columbia,District of Columbia,38.90417773,-77.01655992,13794,605
Tulare,California,36.22026558,-118.8020203,13673,224
New Haven,Connecticut,41.4080325,-72.93620426,13584,1109
East Baton Rouge,Louisiana,30.53842039,-91.09777565,13520,405
Charleston,South Carolina,32.82487866,-79.96512315,13503,231
Worcester,Massachusetts,42.35026951,-71.90493363,13319,1046
Hartford,Connecticut,41.80283011,-72.73103891,13307,1426
Contra Costa,California,37.91923498,-121.9289527,13259,172
Douglas,Nebraska,41.29518299,-96.15085305,13095,155
Oklahoma,Oklahoma,35.55140095,-97.40716948,12974,150
Tulsa,Oklahoma,36.11939621,-95.94013939,12831,128
Polk,Iowa,41.68679484,-93.57767461,12792,222
Macomb,Michigan,42.69158356,-82.92752801,12454,964
Yuma,Arizona,32.76895712,-113.9066674,12142,315
Greenville,South Carolina,34.89502264,-82.37295012,11851,253
Mobile,Alabama,30.78472347,-88.20842409,11778,247
Collier,Florida,26.11091986,-81.34687065,11471,172
Orange,New York,41.40337468,-74.30240757,11382,494
Orleans,Louisiana,30.06971951,-89.92660315,11279,574
Jefferson,Kentucky,38.18664655,-85.65931031,11167,264
Will,Illinois,41.44619267,-87.97862712,11136,357
Denver,Colorado,39.76018276,-104.8725695,11077,425
Ocean,New Jersey,39.8895449,-74.28089251,11069,1020
Kane,Illinois,41.93842729,-88.42861412,11002,312
Escambia,Florida,30.67652764,-87.37284571,10999,183
Ada,Idaho,43.4526575,-116.2415516,10930,118
Osceola,Florida,28.06312234,-81.14882926,10892,128
Montgomery,Pennsylvania,40.21053671,-75.36652296,10871,861
Yakima,Washington,46.45738486,-120.7380126,10869,238
Hamilton,Ohio,39.19673558,-84.54502924,10836,284
Collin,Texas,33.18820114,-96.57264368,10785,108
Monmouth,New Jersey,40.26549699,-74.22240686,10647,856
Prince William,Virginia,38.70916224,-77.48713689,10577,183
Imperial,California,33.0393082,-115.3669042,10573,286
Utah,Utah,40.1166722,-111.6657662,10539,46
Webb,Texas,27.7610369,-99.33237355,10434,236
Galveston,Texas,29.40167322,-94.90469073,10430,136
Ventura,California,34.44465746,-119.0910613,10412,107
Manatee,Florida,27.47196942,-82.31831044,10310,254
Richland,South Carolina,34.01791263,-80.90267209,10257,193
Delaware,Pennsylvania,39.91680171,-75.40243663,10187,722
Allegheny,Pennsylvania,40.46809875,-79.98167747,10065,304
Denton,Texas,33.20521901,-97.11691153,9745,125
Erie,New York,42.76249024,-78.73063652,9668,676
Norfolk,Massachusetts,42.16073095,-71.20530408,9439,1011
Pinal,Arizona,32.90525627,-111.3449483,9435,180
Horry,South Carolina,33.9212828,-78.99555293,9239,178
San Francisco,California,37.75215114,-122.4385672,9149,82
Volusia,Florida,29.05858895,-81.18263252,9126,186
Camden,New Jersey,39.80343818,-74.96388753,9054,588
Bristol,Massachusetts,41.79228404,-71.10872211,9022,655
Plymouth,Massachusetts,41.94070556,-70.80802823,9007,739
Brazoria,Texas,29.18757369,-95.44563172,8981,131
Lake,Indiana,41.41874274,-87.38277575,8872,293
Ramsey,Minnesota,45.01625271,-93.09872295,8856,296
Kansas City,Missouri,39.0997,-94.5786,8837,66
Montgomery,Texas,30.30079133,-95.50572772,8515,119
Mercer,New Jersey,40.28047017,-74.70479631,8303,625
Kent,Michigan,43.03197711,-85.54934642,8284,162
Marion,Florida,29.21227113,-82.05803627,8261,165
Lafayette,Louisiana,30.2049055,-92.06959876,8205,110
Anne Arundel,Maryland,39.00670238,-76.60329337,8132,232
Arapahoe,Colorado,39.64977461,-104.3353617,7968,365
New Castle,Delaware,39.57992638,-75.64054974,7927,300
Santa Barbara,California,34.65329488,-120.0188492,7916,90
Pasco,Florida,28.30810945,-82.40227529,7915,172
San Mateo,California,37.4228808,-122.3275546,7911,130
Seminole,Florida,28.7158582,-81.24060348,7896,169
Williamson,Texas,30.64655664,-97.6004854,7867,119
Hamilton,Tennessee,35.17670231,-85.16652245,7763,70
Johnson,Kansas,38.88548175,-94.82250877,7754,116
Merced,California,37.18922369,-120.7209035,7744,112
Rutherford,Tennessee,35.84591405,-86.4107263,7670,67
Bucks,Pennsylvania,40.33682119,-75.10836643,7666,585
Hampden,Massachusetts,42.13440424,-72.63235561,7591,746
Montgomery,Alabama,32.2206831,-86.20969272,7551,157
Monterey,California,36.21862405,-121.2413397,7451,53
Morris,New Jersey,40.86095313,-74.5455371,7442,829
Hall,Georgia,34.32207823,-83.81896936,7365,120
Adams,Colorado,39.87432092,-104.3362578,7331,196
Calcasieu,Louisiana,30.22931235,-93.35400434,7285,181
Caddo,Louisiana,32.57991587,-93.88375652,7278,313
Brevard,Florida,28.29409504,-80.73091022,7092,205
Sarasota,Florida,27.18546175,-82.33174248,7091,198
Lubbock,Texas,33.61008596,-101.8204789,7035,92
Canyon,Idaho,43.61970148,-116.7095499,7004,73
Washoe,Nevada,40.66562265,-119.6631594,6951,133
Honolulu,Hawaii,21.45803166,-157.9712182,6915,47
Chatham,Georgia,32.00043026,-81.12489526,6866,121
Pulaski,Arkansas,34.77054088,-92.31355101,6855,99
St. Lucie,Florida,27.37763908,-80.47106649,6822,233
Durham,North Carolina,36.03638492,-78.87608331,6753,83
Sedgwick,Kansas,37.6842718,-97.4608198,6693,50
Washington,Arkansas,35.976844,-94.21800746,6673,55
Pierce,Washington,47.03892768,-122.1405958,6661,164
Jefferson,Texas,29.8832777,-94.16434171,6586,106
Lancaster,Pennsylvania,40.03904563,-76.24770128,6578,429
Guilford,North Carolina,36.07959451,-79.78824948,6572,168
Hinds,Mississippi,32.2656285,-90.44435448,6396,137
Clayton,Georgia,33.54187245,-84.35594188,6344,132
Burlington,New Jersey,39.87681124,-74.66927768,6327,481
Lucas,Ohio,41.62101218,-83.65468618,6256,341
Lake,Florida,28.76202069,-81.7125123,6213,99
Sussex,Delaware,38.66143781,-75.39031349,6208,195
Knox,Tennessee,35.99508821,-83.94635435,6099,51
Snohomish,Washington,48.04615983,-121.7170703,6077,208
Leon,Florida,30.45955727,-84.27491114,6067,31
Madison,Alabama,34.76327133,-86.55069633,6048,45
St. Louis City,Missouri,38.63555736,-90.24349225,6032,188
Kings,California,36.07409056,-119.8159973,6021,72
McLennan,Texas,31.55255453,-97.20217694,6008,79
Marin,California,38.07122463,-122.7210631,5999,95
Forsyth,North Carolina,36.12859861,-80.25459052,5984,70
Berks,Pennsylvania,40.41570541,-75.92457766,5942,379
St. Tammany,Louisiana,30.40942847,-89.95642711,5917,235
El Paso,Colorado,38.83240149,-104.5251411,5898,150
Wyandotte,Kansas,39.11727348,-94.76378225,5882,113
Virginia Beach,Virginia,36.73285734,-76.04566934,5876,65
Richmond,Georgia,33.35777107,-82.07026432,5853,117
Multnomah,Oregon,45.54747959,-122.4169351,5833,113
Loudoun,Virginia,39.08990083,-77.63481877,5825,117
Bernalillo,New Mexico,35.05163625,-106.6703554,5721,152
Dakota,Minnesota,44.67172617,-93.06299363,5585,110
Chester,Pennsylvania,39.97291773,-75.74768357,5561,355
Lexington,South Carolina,33.89665987,-81.27146426,5550,134
Navajo,Arizona,35.3997715,-110.3218983,5546,218
Elkhart,Indiana,41.59761169,-85.85875695,5485,97
St. Charles,Missouri,38.77875681,-90.66662425,5473,96
Sonoma,California,38.52746429,-122.8862506,5469,78
Waukesha,Wisconsin,43.01833055,-88.30431188,5416,73
Ouachita,Louisiana,32.47645559,-92.15704172,5400,127
Monroe,New York,43.14638895,-77.69322942,5385,289
Muscogee,Georgia,32.50931999,-84.87142262,5384,126
Somerset,New Jersey,40.56465737,-74.61683016,5373,566
Bibb,Georgia,32.80904227,-83.70489165,5351,113
Hays,Texas,30.05669873,-98.02944344,5340,55
Solano,California,38.26827353,-121.9357113,5328,46
Montgomery,Ohio,39.75394919,-84.29050975,5301,120
Dane,Wisconsin,43.06601594,-89.41733797,5294,39
Bay,Florida,30.26548745,-85.62122584,5289,77
Jackson,Missouri,39.01002188,-94.34724536,5254,77
Brown,Wisconsin,44.4526553,-88.00411844,5194,58
Benton,Arkansas,36.33644656,-94.25680817,5185,47
Spokane,Washington,47.62113146,-117.4046494,5158,128
Lehigh,Pennsylvania,40.6154815,-75.59435245,5152,342
St. Clair,Illinois,38.46996033,-89.93063427,5107,170
Alachua,Florida,29.67866525,-82.35928158,5082,31
Minnehaha,South Dakota,43.67441641,-96.7910885,5028,70
San Juan,Puerto Rico,18.386933,-66.061128,4993,0
Tuscaloosa,Alabama,33.28726072,-87.52556818,4954,87
Chesterfield,Virginia,37.37373208,-77.5868014,4946,78
St. Joseph,Indiana,41.61756781,-86.29040834,4922,90
Allen,Indiana,41.09194313,-85.06800636,4826,177
Spartanburg,South Carolina,34.92960077,-81.99225984,4823,142
Dutchess,New York,41.7648606,-73.74356679,4815,153
Bell,Texas,31.03736027,-97.4785025,4706,61
Jefferson,Colorado,39.58635604,-105.2517692,4694,236
Berkeley,South Carolina,33.20222596,-79.94654523,4676,76
Cherokee,Georgia,34.24393976,-84.47431861,4653,75
Beaufort,South Carolina,32.39226291,-80.72619758,4635,65
Santa Rosa,Florida,30.6934145,-87.02458128,4566,55
Brazos,Texas,30.6636448,-96.30205577,4550,54
Anoka,Minnesota,45.27476015,-93.24604565,4516,120
Henrico,Virginia,37.53460572,-77.39326555,4467,191
DeSoto,Mississippi,34.87625235,-89.99091418,4456,43
Henry,Georgia,33.4533428,-84.1481466,4310,71
Howard,Maryland,39.25305293,-76.93126208,4300,117
Norfolk,Virginia,36.89934014,-76.26420872,4297,49
Summit,Ohio,41.12464734,-81.53123079,4281,234
Williamson,Tennessee,35.89099229,-86.89281867,4260,27
St. Johns,Florida,29.90096506,-81.43589967,4239,56
Martin,Florida,27.0772071,-80.43109784,4222,114
Baldwin,Alabama,30.72774991,-87.72207058,4199,34
Ector,Texas,31.86898877,-102.5429428,4181,68
McKinley,New Mexico,35.5800772,-108.262245,4170,242
Winnebago,Illinois,42.33641854,-89.16085327,4153,146
Florence,South Carolina,34.02361754,-79.70189312,4120,149
York,South Carolina,34.97281497,-81.18085944,4107,46
Northampton,Pennsylvania,40.75182733,-75.30471829,4080,299
Benton,Washington,46.23946995,-119.5120834,4057,122
Okaloosa,Florida,30.69143028,-86.59267105,4055,75
Woodbury,Iowa,42.38979414,-96.0459439,4028,56
Potter,Texas,35.40133773,-101.893964,4007,51
Hillsborough,New Hampshire,42.91537785,-71.7200253,4001,285
Weld,Colorado,40.55499405,-104.3929621,4001,146
Sumner,Tennessee,36.46824103,-86.45917204,3972,86
Tangipahoa,Louisiana,30.62888673,-90.40664996,3965,91
Fayette,Kentucky,38.0368225,-84.45576892,3946,52
Gaston,North Carolina,35.29373559,-81.17477045,3946,63
Racine,Wisconsin,42.74753117,-88.05941254,3931,89
Genesee,Michigan,43.02244215,-83.70589709,3927,303
Cumberland,North Carolina,35.04762133,-78.82623165,3914,65
Whitfield,Georgia,34.80987459,-84.96093476,3902,50
Franklin,Washington,46.53351425,-118.9018212,3874,56
Onondaga,New York,43.00491923,-76.19971155,3832,204
Madison,Illinois,38.83042506,-89.90422563,3818,95
Clay,Florida,29.98319144,-81.85609986,3809,75
Union,North Carolina,34.98960527,-80.52955873,3806,48
Lancaster,Nebraska,40.78416049,-96.68777155,3796,20
Richmond City,Virginia,37.53255773,-77.47966921,3767,45
Shelby,Alabama,33.26879845,-86.66232561,3758,40
Victoria,Texas,28.79780988,-96.96813006,3755,75
McHenry,Illinois,42.32451172,-88.45248227,3743,114
Davis,Utah,40.99001837,-112.1139997,3741,23
Luzerne,Pennsylvania,41.17823008,-75.98447579,3730,187
Cleveland,Oklahoma,35.20413532,-97.32519562,3721,63
Johnston,North Carolina,35.51745004,-78.36622717,3717,50
Rapides,Louisiana,31.19778499,-92.52997303,3711,134
Atlantic,New Jersey,39.47538693,-74.65848483,3707,251
Ellis,Texas,32.34894117,-96.79371841,3700,55
Hamilton,Indiana,40.07306535,-86.05244729,3692,107
Butler,Ohio,39.44012838,-84.57388716,3686,73
Washington,Oregon,45.55972701,-123.0955257,3673,39
Marion,Oregon,44.90287942,-122.5815117,3662,77
Chesapeake,Virginia,36.67670048,-76.30545744,3660,47
Black Hawk,Iowa,42.4704581,-92.30524729,3641,73
Gloucester,New Jersey,39.71581067,-75.13995546,3610,219
Madera,California,37.21513971,-119.7665589,3567,54
Mohave,Arizona,35.70471703,-113.7577902,3566,202
Cumberland,New Jersey,39.37199394,-75.10712559,3530,155
Southwest Utah,Utah,37.85447192,-111.4418764,3522,27
Dorchester,South Carolina,33.0794369,-80.40502652,3484,72
Arlington,Virginia,38.8767675,-77.10139853,3457,138
Walker,Texas,30.73872995,-95.57440968,3443,46
Marshall,Alabama,34.36975964,-86.30486727,3441,39
Lowndes,Georgia,30.83568832,-83.27056716,3426,63
Frederick,Maryland,39.47296601,-77.39999394,3413,123
Cass,North Dakota,46.93201724,-97.2444719,3375,76
Robeson,North Carolina,34.64244496,-79.1025053,3368,59
Alexandria,Virginia,38.814003,-77.08183073,3333,61
Livingston,Louisiana,30.44143993,-90.73061664,3330,64
Apache,Arizona,35.39465006,-109.4892383,3323,151
Terrebonne,Louisiana,29.37343766,-90.82626855,3296,96
Columbia,Florida,30.22509788,-82.62160164,3295,32
Coconino,Arizona,35.83883429,-111.7707178,3269,123
Ascension,Louisiana,30.20406249,-90.9132841,3267,90
Maverick,Texas,28.7429195,-100.3157686,3248,78
Weber-Morgan,Utah,41.27116049,-111.9145117,3243,29
Lafourche,Louisiana,29.52470226,-90.40976986,3236,107
York,Pennsylvania,39.9210089,-76.73040131,3232,117
Johnson,Iowa,41.67169354,-91.58754744,3218,26
Dauphin,Pennsylvania,40.41377078,-76.77993242,3214,161
Midland,Texas,31.86904128,-102.0315682,3201,65
Stearns,Minnesota,45.55192576,-94.61078221,3192,21
Warren,Kentucky,36.99903045,-86.42672751,3176,25
Harrison,Mississippi,30.51359752,-89.12467576,3174,53
San Juan,New Mexico,36.50838318,-108.320437,3167,190
Smith,Texas,32.37474036,-95.2717568,3158,57
Tom Green,Texas,31.40464436,-100.462443,3158,48
Douglas,Georgia,33.70291126,-84.77026156,3105,62
Pitt,North Carolina,35.59535426,-77.37353178,3088,17
Cabarrus,North Carolina,35.3877799,-80.55267168,3069,52
Columbia,Georgia,33.54534185,-82.263524,3055,43
Lee,Alabama,32.60154883,-85.35132246,3031,48
St. Landry,Louisiana,30.59724262,-92.00135806,3026,110
Alamance,North Carolina,36.0434701,-79.39976137,3012,44
Anderson,South Carolina,34.51828081,-82.63959517,2997,110
Marion,Ohio,40.58610662,-83.15736305,2995,46
Forsyth,Georgia,34.22604035,-84.1231513,2975,31
Glynn,Georgia,31.23279254,-81.53811412,2957,65
Dougherty,Georgia,31.53328528,-84.21722377,2949,178
Kenosha,Wisconsin,42.57639354,-88.04051686,2920,62
New Hanover,North Carolina,34.25758282,-77.87075626,2903,21
Jackson,Mississippi,30.54020656,-88.64184064,2897,59
Placer,California,39.06167234,-120.7240569,2875,32
Linn,Iowa,42.07923082,-91.59809485,2873,93
Washtenaw,Michigan,42.253105,-83.83853204,2846,115
Madison,Mississippi,32.63389156,-90.03513564,2845,82
Mahoning,Ohio,41.01631101,-80.77287029,2825,264
Anchorage,Alaska,61.14998174,-149.1426986,2819,21
Washington,Minnesota,45.03864533,-92.88429635,2808,54
Indian River,Florida,27.69308961,-80.60556721,2801,96
Sumter,South Carolina,33.91826534,-80.37942316,2793,63
San Luis Obispo,California,35.38822029,-120.4039028,2792,21
Sebastian,Arkansas,35.19605503,-94.27162713,2790,32
Rankin,Mississippi,32.26469147,-89.94537876,2785,60
Acadia,Louisiana,30.2950649,-92.41419698,2781,93
Orangeburg,South Carolina,33.4391073,-80.79886287,2776,94
Dona Ana,New Mexico,32.35275771,-106.8329387,2772,41
Sarpy,Nebraska,41.11314181,-96.11156432,2753,15
Wayne,North Carolina,35.36438125,-78.00027268,2751,51
Wilson,Tennessee,36.15496772,-86.29775884,2739,31
Albany,New York,42.60060306,-73.97723916,2736,131
Kaufman,Texas,32.5991417,-96.28734728,2725,36
Morgan,Alabama,34.45500589,-86.85475946,2723,22
Greene,Missouri,37.2575872,-93.34230916,2718,10
Santa Cruz,Arizona,31.52508998,-110.8479088,2718,57
Rowan,North Carolina,35.64003916,-80.52446628,2708,60
Iberia,Louisiana,29.86803617,-91.75871777,2695,86
Clarke,Georgia,33.95436462,-83.37124007,2691,26
Bossier,Louisiana,32.67932307,-93.60460152,2667,92
Starr,Texas,26.56150059,-98.73892358,2635,124
Charlotte,Florida,26.90131002,-81.92949121,2602,109
Umatilla,Oregon,45.59073056,-118.7353826,2599,35
Houston,Georgia,32.45802497,-83.66879087,2587,65
Etowah,Alabama,34.04567266,-86.04051873,2578,38
Kent,Delaware,39.08646628,-75.56884914,2566,109
Troup,Georgia,33.03349196,-85.02812115,2557,82
Bear River,Utah,41.52106798,-113.0832816,2526,9
Catawba,North Carolina,35.66211129,-81.2132617,2512,43
Hernando,Florida,28.55364461,-82.42700204,2506,79
Jefferson,Missouri,38.25926778,-90.53870896,2486,31
Anderson,Texas,31.81534745,-95.65354823,2482,18
Johnson,Texas,32.37877812,-97.36615819,2470,42
Pickaway,Ohio,39.64170392,-83.0243386,2470,42
Vanderburgh,Indiana,38.02658833,-87.58763124,2452,18
Saginaw,Michigan,43.33433923,-84.0513121,2449,131
Montgomery,Tennessee,36.49609412,-87.38550661,2418,28
Bradley,Tennessee,35.15739424,-84.857186,2416,16
Suwannee,Florida,30.19746066,-82.9909967,2388,56
Bayamon,Puerto Rico,18.34946,-66.168435,2384,0
Harford,Maryland,39.55010644,-76.3077594,2381,69
Randolph,North Carolina,35.71015088,-79.80570339,2370,43
Bartow,Georgia,34.23732119,-84.83887523,2361,68
Buncombe,North Carolina,35.61113393,-82.53305,2347,67
Charles,Maryland,38.51092331,-76.98580666,2331,93
Dallas,Iowa,41.68560356,-94.04127625,2306,38
Jackson,Florida,30.7954597,-85.21500423,2301,65
Comal,Texas,29.80811278,-98.27647225,2297,94
Aiken,South Carolina,33.54338026,-81.63645384,2293,57
Yolo,California,38.68278902,-121.9018288,2287,51
Yavapai,Arizona,34.59933926,-112.5538588,2277,76
Putnam,Tennessee,36.14005459,-85.50646123,2275,27
Iredell,North Carolina,35.80950511,-80.8743128,2271,19
Peoria,Illinois,40.78702156,-89.76078901,2271,40
Oneida,New York,43.24375382,-75.43710392,2264,120
Boulder,Colorado,40.09313619,-105.3546767,2261,79
Carroll,Georgia,33.58138199,-85.07976677,2260,57
Gadsden,Florida,30.57796289,-84.61915825,2254,31
Stark,Ohio,40.81482476,-81.36437305,2250,151
Hendricks,Indiana,39.76719009,-86.51037283,2241,111
Ford,Kansas,37.69200114,-99.88825298,2239,10
Newton,Georgia,33.55514538,-83.8454714,2234,58
Calhoun,Alabama,33.77483727,-85.82630386,2225,26
Champaign,Illinois,40.13919438,-88.20046615,2210,20
Boone,Missouri,38.99186229,-92.30723575,2209,6
Jasper,Missouri,37.20351921,-94.34050458,2207,34
Sevier,Tennessee,35.78077323,-83.52244332,2200,11
Warren,Ohio,39.42581994,-84.16557457,2198,42
Floyd,Georgia,34.26268279,-85.21577392,2193,29
Newport News,Virginia,37.08166899,-76.51754109,2190,21
Paulding,Georgia,33.91969522,-84.86848792,2184,31
Cumberland,Maine,43.8370751,-70.37226999,2171,70
Grant,Washington,47.20753737,-119.4500749,2166,14
Portsmouth,Virginia,36.85914825,-76.35971629,2161,34
Coweta,Georgia,33.35334302,-84.76129976,2153,26
Ulster,New York,41.89027881,-74.26252104,2152,94
Kootenai,Idaho,47.67282258,-116.7020872,2150,29
Orange,North Carolina,36.06092947,-79.12167935,2143,50
Randall,Texas,34.96585996,-101.8971322,2125,27
Clark,Washington,45.77568046,-122.4829204,2122,54
Pickens,South Carolina,34.88807695,-82.72791551,2118,33
Jones,Mississippi,31.62257767,-89.168969,2111,71
Scott,Iowa,41.63935978,-90.61959493,2111,19
Kankakee,Illinois,41.13746989,-87.86205334,2107,71
Davidson,North Carolina,35.79115496,-80.21256572,2106,32
Forrest,Mississippi,31.18961454,-89.25832496,2098,61
Shawnee,Kansas,39.04100763,-95.7557264,2098,22
Rock Island,Illinois,41.46613806,-90.57042164,2094,52
Lee,Mississippi,34.2918775,-88.68149954,2086,51
Story,Iowa,42.03621213,-93.46499005,2079,16
Duplin,North Carolina,34.93449805,-77.93140529,2065,50
Lorain,Ohio,41.29553751,-82.15083537,2059,81
Ottawa,Michigan,42.95996803,-85.9969107,2042,63
Citrus,Florida,28.84804315,-82.47614748,2031,54
DeKalb,Alabama,34.45946862,-85.80782906,2026,14
Lackawanna,Pennsylvania,41.43564672,-75.60379201,2012,213
Jefferson,Arkansas,34.26767081,-91.92619839,2002,47
Johnson,Indiana,39.48994426,-86.10149107,1990,120
Dakota,Nebraska,42.39040144,-96.56656425,1977,42
Angelina,Texas,31.25457347,-94.60901487,1968,65
Dubuque,Iowa,42.46815349,-90.88181925,1966,36
Washington,Mississippi,33.28392041,-90.94196237,1964,59
Douglas,Colorado,39.33133796,-104.930001,1958,60
Olmsted,Minnesota,44.00374114,-92.40209944,1958,24
Hendry,Florida,26.55386945,-81.16469006,1955,39
Elmore,Alabama,32.59785413,-86.14415284,1950,42
Blount,Tennessee,35.68938198,-83.92847788,1940,17
St. Martin,Louisiana,30.13112107,-91.61403569,1922,55
Scott,Minnesota,44.6490231,-93.53340251,1916,31
Val Verde,Texas,29.89149232,-101.1525205,1912,86
Yellowstone,Montana,45.93955949,-108.2691486,1906,41
Kalamazoo,Michigan,42.24542231,-85.53038622,1890,87
Guadalupe,Texas,29.58165339,-97.94786822,1885,71
Larimer,Colorado,40.66671597,-105.4625784,1880,39
Clackamas,Oregon,45.18787398,-122.2179634,1878,55
Finney,Kansas,38.04340344,-100.7381938,1876,12
Burleigh,North Dakota,46.97847375,-100.4645214,1865,14
Cass,Indiana,40.76135835,-86.34830753,1854,9
Vermilion,Louisiana,29.83517605,-92.30292538,1853,41
Nobles,Minnesota,43.67434621,-95.75329576,1847,13
Gregg,Texas,32.47940482,-94.81591935,1840,44
Hall,Nebraska,40.87257079,-98.50218293,1823,46
Buena Vista,Iowa,42.73545875,-95.15100162,1822,12
Orange,Texas,30.11879481,-93.89412775,1817,35
Burke,North Carolina,35.74989637,-81.70755735,1816,28
Cochise,Arizona,31.87934684,-109.7516088,1805,58
Robertson,Tennessee,36.52454807,-86.87346725,1788,26
Rockingham,New Hampshire,42.98499744,-71.12883377,1787,100
Columbiana,Ohio,40.76932373,-80.78094576,1786,64
Highlands,Florida,27.34254618,-81.34071957,1781,60
Manassas,Virginia,38.7464321,-77.48509905,1778,23
Westmoreland,Pennsylvania,40.3137798,-79.46615476,1778,49
Walker,Alabama,33.80270512,-87.30027177,1776,68
Carolina,Puerto Rico,18.374986,-65.956831,1766,0
Houston,Alabama,31.15197924,-85.29939599,1766,14
Butte,California,39.66727762,-121.6005252,1765,21
Greenwood,South Carolina,34.15272415,-82.12715789,1761,37
Spotsylvania,Virginia,38.18574462,-77.655399,1759,38
Sumter,Florida,28.70181754,-82.0794267,1754,48
Coffee,Georgia,31.54892966,-82.8549206,1751,36
Putnam,Florida,29.60779729,-81.74230285,1750,36
Craighead,Arkansas,35.83018283,-90.63235729,1746,14
St. Mary,Louisiana,29.69262097,-91.44702164,1746,68
Ingham,Michigan,42.59716886,-84.37472069,1735,37
Trumbull,Ohio,41.31735028,-80.76109643,1735,117
Santa Cruz,California,37.05580291,-122.0066524,1726,7
Colquitt,Georgia,31.18810588,-83.7677946,1723,26
Chelan,Washington,47.87046092,-120.6173956,1713,11
Lauderdale,Mississippi,32.40419769,-88.66229662,1709,106
Monroe,Florida,25.20904673,-81.07812416,1704,15
Monroe,Pennsylvania,41.05934058,-75.34031025,1704,127
Sangamon,Illinois,39.75836914,-89.65872023,1701,37
Georgetown,South Carolina,33.43443342,-79.33202141,1699,37
Lebanon,Pennsylvania,40.36680311,-76.45651841,1694,57
Wilson,North Carolina,35.70625477,-77.917978,1694,36
Hot Spring,Arkansas,34.31709259,-92.95396325,1693,20
Outagamie,Wisconsin,44.41578887,-88.46565023,1692,19
Kenton,Kentucky,38.93950319,-84.53241199,1680,41
Clark,Indiana,38.48015445,-85.70510334,1677,51
Madison,Tennessee,35.61181957,-88.84076036,1675,36
Henderson,North Carolina,35.33788927,-82.4766782,1674,60
Maury,Tennessee,35.6187413,-87.07462444,1674,14
Litchfield,Connecticut,41.7937534,-73.2451475,1673,139
Barrow,Georgia,33.99148694,-83.71436292,1671,37
Liberty,Texas,30.15152688,-94.81205615,1670,42
Carroll,Maryland,39.56453592,-77.02373735,1665,122
Kent,Rhode Island,41.67106337,-71.57641596,1664,0
Pope,Arkansas,35.44871474,-93.03212219,1658,14
Fairfield,Ohio,39.75107189,-82.63088163,1653,40
Walworth,Wisconsin,42.66858202,-88.54163073,1652,27
Washington,Tennessee,36.29472368,-82.4945472,1650,9
Bonneville,Idaho,43.38713372,-111.6161537,1647,9
Porter,Indiana,41.45986947,-87.06848888,1642,41
Twin Falls,Idaho,42.35440512,-114.6685381,1640,34
Stafford,Virginia,38.41758738,-77.45917053,1639,10
Parker,Texas,32.77757172,-97.80500621,1632,24
Rockdale,Georgia,33.65145002,-84.02202167,1630,31
Hamblen,Tennessee,36.21990035,-83.26586179,1625,20
Leavenworth,Kansas,39.20183497,-95.03620809,1624,9
Kendall,Illinois,41.59081014,-88.42869583,1623,23
St. Charles,Louisiana,29.90709658,-90.35555967,1621,55
Crittenden,Arkansas,35.21247318,-90.30839406,1619,30
Rock,Wisconsin,42.67151616,-89.071479,1613,26
Walton,Florida,30.64204028,-86.16935664,1612,20
Bulloch,Georgia,32.39577406,-81.74811421,1610,21
Faulkner,Arkansas,35.14719007,-92.33717519,1610,8
Marshall,Iowa,42.03586837,-92.9990819,1606,29
Barnstable,Massachusetts,41.72980578,-70.28854339,1598,165
Trousdale,Tennessee,36.39026213,-86.16087954,1596,6
Niagara,New York,43.19898042,-78.74777412,1595,101
Darlington,South Carolina,34.33358335,-79.96027485,1592,45
Hale,Texas,34.07044901,-101.8268114,1591,41
Limestone,Alabama,34.81185586,-86.98310072,1591,14
Suffolk,Virginia,36.70155394,-76.63603554,1590,59
Sampson,North Carolina,34.98820368,-78.36914061,1587,20
Lancaster,South Carolina,34.68270843,-80.70513032,1582,35
Delaware,Ohio,40.27942393,-83.00457058,1580,20
Berrien,Michigan,41.95447397,-86.4131308,1578,70
St. Clair,Alabama,33.71902176,-86.31029372,1577,25
Nassau,Florida,30.61037141,-81.80297522,1574,16
Bastrop,Texas,30.10370699,-97.31206354,1571,25
Harnett,North Carolina,35.36731853,-78.87243571,1566,45
Pottawattamie,Iowa,41.33640314,-95.53907776,1565,34
Baldwin,Georgia,33.06882326,-83.24701748,1563,48
Kershaw,South Carolina,34.33988254,-80.58763164,1550,29
Nash,North Carolina,35.96575634,-77.98422508,1547,21
Washington,Wisconsin,43.36863664,-88.22974712,1543,29
Cleveland,North Carolina,35.33553364,-81.55204486,1537,32
Licking,Ohio,40.09136236,-82.48185785,1536,57
Sullivan,Tennessee,36.51240691,-82.30412917,1534,25
Beaver,Pennsylvania,40.6825484,-80.34921611,1532,96
New London,Connecticut,41.48896435,-72.10430976,1526,106
Tippecanoe,Indiana,40.38872739,-86.89413959,1515,13
Saline,Arkansas,34.64916145,-92.67583224,1509,11
Russell,Alabama,32.28725256,-85.18415324,1507,2
Sullivan,New York,41.71579493,-74.76394559,1506,48
Wicomico,Maryland,38.37301947,-75.62705831,1506,47
Hampton,Virginia,37.03513786,-76.35879121,1505,15
St. John the Baptist,Louisiana,30.12597499,-90.4753503,1503,95
Bee,Texas,28.41761668,-97.74215593,1496,22
Franklin,Pennsylvania,39.92956518,-77.72157791,1493,46
Fayette,Georgia,33.41357794,-84.49089434,1492,36
Granville,North Carolina,36.30337451,-78.65184241,1490,41
Canadian,Oklahoma,35.5426055,-97.98465569,1488,11
Cumberland,Pennsylvania,40.1625372,-77.26130755,1487,72
Putnam,New York,41.42630093,-73.74965532,1487,63
Gordon,Georgia,34.50487351,-84.87296253,1481,28
Tift,Georgia,31.45743864,-83.5236119,1479,48
Franklin,Alabama,34.44235334,-87.84289505,1475,25
DeSoto,Florida,27.18677893,-81.80941373,1460,21
Laurens,South Carolina,34.48244419,-82.00490796,1456,54
Chatham,North Carolina,35.70394416,-79.25541492,1452,56
Middlesex,Connecticut,41.45949668,-72.53714864,1438,192
Titus,Texas,33.21339719,-94.96797273,1436,22
Washington,Louisiana,30.85288548,-90.03866652,1436,60
Allen,Louisiana,30.65385745,-92.82442028,1434,37
Winnebago,Wisconsin,44.06886922,-88.64477096,1433,21
Walton,Georgia,33.78017694,-83.73552314,1429,46
Bolivar,Mississippi,33.79696941,-90.87372121,1428,46
Stanly,North Carolina,35.31647813,-80.25093221,1427,31
Grayson,Texas,33.62744998,-96.67753461,1421,24
Onslow,North Carolina,34.72607366,-77.42908179,1421,14
Neshoba,Mississippi,32.75339664,-89.11726492,1411,99
Jackson,Georgia,34.13794553,-83.56814788,1406,25
Lincoln,Arkansas,33.95317155,-91.74002806,1406,13
Lee,North Carolina,35.47623147,-79.17569362,1403,12
Dallas,Alabama,32.32688101,-87.1086671,1400,25
Lamar,Mississippi,31.20572971,-89.5077704,1399,26
Caldwell,North Carolina,35.95204977,-81.54799522,1393,14
Hunt,Texas,33.12351514,-96.08551032,1392,27
Tipton,Tennessee,35.501942,-89.73694895,1392,14
Cullman,Alabama,34.13020303,-86.86888037,1387,11
Warren,New Jersey,40.85951833,-74.99556527,1387,171
Cherokee,Texas,31.837258,-95.16559897,1385,14
Clark,Ohio,39.91592258,-83.78498252,1383,23
Sussex,New Jersey,41.13891592,-74.69118243,1383,197
Napa,California,38.50735751,-122.332839,1382,13
Colbert,Alabama,34.69847452,-87.80168544,1381,19
Lauderdale,Alabama,34.90171875,-87.65624729,1373,22
Seward,Kansas,37.19324632,-100.8507201,1373,4
Brunswick,North Carolina,34.070565,-78.22814204,1372,24
Garland,Arkansas,34.57692074,-93.14921604,1368,28
Thomas,Georgia,30.86392347,-83.91847289,1367,47
Oktibbeha,Mississippi,33.42491685,-88.87905132,1360,46
Sutter,California,39.03417539,-121.6945899,1325,8
Clay,Missouri,39.31132056,-94.41850862,1323,30
McLean,Illinois,40.48996987,-88.84621113,1323,16
Erie,Pennsylvania,41.99253829,-80.03301954,1321,30
Iberville,Louisiana,30.25734305,-91.3499598,1319,53
Nacogdoches,Texas,31.62017125,-94.61803994,1318,48
Ware,Georgia,31.05449097,-82.42224148,1318,42
Muskegon,Michigan,43.29123859,-86.15176712,1313,65
Mississippi,Arkansas,35.76271485,-90.0519437,1304,20
Habersham,Georgia,34.63331566,-83.53094677,1301,61
St. Francis,Arkansas,35.02201976,-90.74828138,1299,3
Kanawha,West Virginia,38.33860077,-81.52857054,1294,27
Rockwall,Texas,32.89779518,-96.40771592,1293,21
Lafayette,Mississippi,34.35687874,-89.48490961,1288,34
Wood,Ohio,41.36224827,-83.62285108,1288,61
Lake,Ohio,41.69710807,-81.23676539,1285,44
Autauga,Alabama,32.53952745,-86.64408227,1284,22
Warren,Mississippi,32.35810271,-90.83352619,1281,46
Flagler,Florida,29.45933576,-81.31508595,1279,15
Laurens,Georgia,32.46325233,-82.92221316,1276,40
Broome,New York,42.15903158,-75.81326086,1274,69
Panola,Mississippi,34.36398677,-89.95064249,1269,23
Washington,Maryland,39.60835778,-77.82002295,1267,32
Douglas,Kansas,38.88503636,-95.2925121,1264,8
Avoyelles,Louisiana,31.07796211,-92.00079449,1261,43
Rogers,Oklahoma,36.37004357,-95.60406759,1260,40
Taylor,Texas,32.30163422,-99.89007449,1260,33
Monroe,Michigan,41.92734151,-83.53749864,1258,26
Boone,Kentucky,38.97065142,-84.72615357,1255,25
Lowndes,Mississippi,33.47386518,-88.4419153,1252,53
Wichita,Texas,33.98842886,-98.7041034,1252,14
Grand Forks,North Dakota,47.92093639,-97.45450447,1251,10
Moore,North Carolina,35.30885257,-79.48474178,1251,21
Madison,Indiana,40.16143691,-85.71964711,1245,68
Sunflower,Mississippi,33.60192578,-90.58882684,1241,36
Jackson,Alabama,34.78144169,-85.99750489,1237,7
Buchanan,Missouri,39.65816401,-94.80138942,1234,10
Sandoval,New Mexico,35.68862401,-106.8687803,1234,37
Schenectady,New York,42.81668777,-74.05278291,1231,44
Caldwell,Texas,29.83668859,-97.61814775,1230,32
San Patricio,Texas,28.00880118,-97.51763891,1226,57
Talladega,Alabama,33.37823223,-86.16886178,1224,17
Leflore,Mississippi,33.55545125,-90.29900733,1222,74
Clermont,Ohio,39.04847534,-84.15375786,1220,14
St. Bernard,Louisiana,29.87761636,-89.51887093,1213,26
Okeechobee,Florida,27.3863362,-80.88944347,1211,15
Pennington,South Dakota,44.0025835,-102.8240777,1211,33
Comanche,Oklahoma,34.65973764,-98.47195055,1209,11
Hardin,Texas,30.33364686,-94.38931817,1206,19
Hunterdon,New Jersey,40.56335249,-74.91284156,1206,124
Guaynabo,Puerto Rico,18.345114,-66.114523,1203,0
Hardeman,Tennessee,35.20772017,-88.99161161,1201,22
Escambia,Alabama,31.1256789,-87.15918694,1190,21
Taylor,Florida,30.04848048,-83.60445406,1183,5
LaSalle,Illinois,41.3442613,-88.88633881,1180,45
Harrisonburg,Virginia,38.43542574,-78.87536254,1179,32
Lafayette,Florida,29.98484137,-83.18166636,1177,7
Williamsburg,South Carolina,33.62190129,-79.72767442,1171,36
Eagle,Colorado,39.62754308,-106.6933637,1169,9
Roanoke City,Virginia,37.27791025,-79.96189766,1169,15
Wharton,Texas,29.27765923,-96.22319248,1169,41
Polk,Georgia,34.00267074,-85.18677781,1168,15
Mower,Minnesota,43.67142874,-92.75234549,1165,3
Rice,Minnesota,44.3543376,-93.29658715,1159,8
Douglas,Washington,47.7361335,-119.692937,1146,7
Jefferson Davis,Louisiana,30.26896765,-92.81210004,1146,35
Sevier,Arkansas,33.99780401,-94.2424869,1146,12
Hampshire,Massachusetts,42.33997957,-72.65898478,1144,136
Spalding,Georgia,33.26310031,-84.28013991,1144,48
LaPorte,Indiana,41.54366008,-86.74072188,1140,31
Accomack,Virginia,37.76707161,-75.63234615,1139,18
Medina,Ohio,41.11770589,-81.8998621,1139,37
Wright,Minnesota,45.17297924,-93.96234781,1137,6
Baker,Florida,30.33060121,-82.28467476,1136,4
Yell,Arkansas,35.00292371,-93.41171338,1133,23
Vigo,Indiana,39.42944561,-87.39169027,1132,15
Blue Earth,Minnesota,44.03554215,-94.06699781,1124,5
Texas,Oklahoma,36.74777635,-101.4889765,1124,7
Chambers,Texas,29.70972016,-94.67154501,1123,5
Surry,North Carolina,36.41689489,-80.69102283,1118,15
Moore,Texas,35.83769242,-101.8930281,1112,18
Tolland,Connecticut,41.85853803,-72.3308481,1112,65
La Crosse,Wisconsin,43.90632465,-91.11451093,1109,1
Pike,Mississippi,31.17507789,-90.40392572,1109,44
Culpeper,Virginia,38.48199985,-77.9563087,1103,13
Medina,Texas,29.3557301,-99.11030298,1103,35
Wagoner,Oklahoma,35.96024096,-95.51911308,1102,23
Gila,Arizona,33.80190085,-110.8132779,1095,47
Bedford,Tennessee,35.51123746,-86.45549096,1094,14
St. Mary's,Maryland,38.30058422,-76.6062928,1091,55
Scott,Mississippi,32.4067041,-89.53789439,1087,22
Malheur,Oregon,43.1937027,-117.6227395,1085,17
Carver,Minnesota,44.82017001,-93.8009918,1084,4
Lea,New Mexico,32.79215361,-103.4123733,1084,10
Hardee,Florida,27.49293939,-81.80956574,1083,9
DeKalb,Illinois,41.89373302,-88.76958483,1082,33
Dodge,Wisconsin,43.41576662,-88.70928178,1076,5
Franklin,Louisiana,32.13675181,-91.67589857,1076,28
Monongalia,West Virginia,39.63218457,-80.04766838,1075,5
Allen,Ohio,40.77285242,-84.10802343,1071,51
Columbus,North Carolina,34.26744084,-78.65801424,1067,51
Chattahoochee,Georgia,32.34341231,-84.78809239,1066,2
Lincoln,North Carolina,35.48508185,-81.21740317,1066,10
Livingston,Michigan,42.60302282,-83.91297209,1066,29
Whatcom,Washington,48.82227976,-121.7490018,1065,39
Navarro,Texas,32.04620681,-96.47428766,1058,14
East Feliciana,Louisiana,30.84425359,-91.04976723,1056,43
Newton,Missouri,36.90519407,-94.3394104,1056,13
Wapello,Iowa,41.03064984,-92.40954728,1053,48
Copiah,Mississippi,31.86977774,-90.44565118,1048,31
Gallatin,Montana,45.54486106,-111.1692571,1046,3
Gibson,Tennessee,35.99438059,-88.93358327,1045,13
Caguas,Puerto Rico,18.211615,-66.050779,1044,0
Howard,Indiana,40.48527731,-86.11351892,1044,61
Bartholomew,Indiana,39.20744865,-85.89558181,1036,54
Evangeline,Louisiana,30.72985248,-92.39915924,1034,24
Toombs,Georgia,32.12059861,-82.32957247,1030,13
Floyd,Indiana,38.32117957,-85.90385377,1027,54
Holmes,Mississippi,33.12345854,-90.08923538,1027,54
Pontotoc,Mississippi,34.226046,-89.03636807,1025,11
Fond du Lac,Wisconsin,43.75354908,-88.48885325,1022,9
Miami,Ohio,40.0543329,-84.22871271,1022,43
Rockingham,Virginia,38.51006137,-78.87260325,1022,20
Tazewell,Illinois,40.50716185,-89.51404662,1019,9
San Benito,California,36.60308176,-121.069975,1018,7
Webster,Louisiana,32.70847669,-93.33121835,1016,19
Effingham,Georgia,32.36616021,-81.34280942,1010,14
Cass,Missouri,38.64789422,-94.353399,1009,9
Kosciusko,Indiana,41.24521668,-85.86312322,1009,16
Monroe,Mississippi,33.89236763,-88.4808438,1009,56
Franklin,North Carolina,36.081519,-78.28708884,1008,28
Monroe,Indiana,39.16130004,-86.52414358,1008,36
Wilkes,North Carolina,36.2084135,-81.16232895,1002,20
Payne,Oklahoma,36.07695283,-96.97584944,1001,5
Washington,Pennsylvania,40.19208869,-80.24582867,1001,25
Sheboygan,Wisconsin,43.72099677,-87.94579284,1000,8
Lee,Arkansas,34.78498904,-90.78383866,999,10
Oconee,South Carolina,34.75225169,-83.06742317,999,18
Skagit,Washington,48.48171488,-121.766131,997,22
Dawson,Nebraska,40.87028216,-99.8201461,995,9
Washington,Florida,30.61359259,-85.66002461,995,15
Camden,Georgia,30.92951916,-81.66601818,993,7
McCurtain,Oklahoma,34.11664328,-94.77222373,993,29
Webster,Iowa,42.42853483,-94.17987389,993,8
Albemarle,Virginia,38.02080697,-78.55481085,990,17
McDonald,Missouri,36.62869595,-94.34867205,985,9
Chilton,Alabama,32.85044126,-86.7173256,983,10
Dale,Alabama,31.43037123,-85.61095742,983,36
Grimes,Texas,30.54579585,-95.98902499,982,29
Okanogan,Washington,48.54855019,-119.7387224,981,6
Schuylkill,Pennsylvania,40.70497338,-76.2150785,980,51
Blount,Alabama,33.98210918,-86.56790593,979,7
Salem,New Jersey,39.58719656,-75.3469663,975,88
Delaware,Indiana,40.22787247,-85.39732772,971,55
Kitsap,Washington,47.63479026,-122.6436061,962,9
Clarendon,South Carolina,33.66610974,-80.21647898,959,62
Decatur,Georgia,30.87967778,-84.57619536,958,21
Jim Wells,Texas,27.73103938,-98.0904705,957,24
Chicot,Arkansas,33.26458973,-91.29539209,948,10
Calhoun,Michigan,42.24633834,-85.00493569,947,44
Coahoma,Mississippi,34.22772299,-90.60415045,946,17
Walker,Georgia,34.73376362,-85.30165174,946,21
Lincoln,Mississippi,31.53288662,-90.45391915,944,50
Franklin,Missouri,38.41127108,-91.07522826,943,19
Muscatine,Iowa,41.48370744,-91.1121697,943,51
Yazoo,Mississippi,32.77890365,-90.39656148,943,19
Wayne,Georgia,31.5521809,-81.91894878,941,22
Vernon,Louisiana,31.10884837,-93.18153838,939,38
El Dorado,California,38.77965956,-120.5233166,938,2
Newberry,South Carolina,34.28629098,-81.59935761,938,15
Chesterfield,South Carolina,34.64137396,-80.1564014,937,25
Greene,Ohio,39.69116283,-83.89032084,932,16
St. Francois,Missouri,37.81214171,-90.47598685,932,4
Beauregard,Louisiana,30.64836518,-93.34173616,928,31
Pointe Coupee,Louisiana,30.71409502,-91.60209535,928,37
Daviess,Kentucky,37.73028906,-87.0901948,923,11
Simpson,Mississippi,31.91282117,-89.91716179,923,39
Dyer,Tennessee,36.05931946,-89.41542855,917,9
Grenada,Mississippi,33.77036166,-89.80245083,917,31
Bowie,Texas,33.44626922,-94.41834132,914,43
Cape Girardeau,Missouri,37.38489388,-89.6843587,914,7
Coffee,Alabama,31.39932826,-85.98901039,914,5
Loudon,Tennessee,35.73939663,-84.31145275,914,3
Rutherford,North Carolina,35.40114178,-81.92112099,914,19
Marshall,Mississippi,34.76216286,-89.50299462,912,11
Lynchburg,Virginia,37.40021399,-79.19888138,911,5
Tallapoosa,Alabama,32.86698258,-85.79833053,911,79
Natchitoches,Louisiana,31.72321584,-93.09816516,908,22
Lyon,Kansas,38.45576156,-96.15275715,906,17
St. Clair,Michigan,42.92655373,-82.67937954,901,53
Clarke,Alabama,31.68099859,-87.83548597,900,12
Liberty,Georgia,31.82588896,-81.49251135,900,17
Macon,Tennessee,36.53157855,-86.00778595,896,15
Matagorda,Texas,28.81955746,-96.01230294,895,38
Macon,Illinois,39.86064913,-88.96342505,894,26
Yuba,California,39.26255932,-121.3535644,893,6
Dodge,Nebraska,41.58071748,-96.65598179,892,11
Jackson,Illinois,37.78595185,-89.38232563,892,20
Edgecombe,North Carolina,35.91230639,-77.59436892,891,19
Dickson,Tennessee,36.14669837,-87.35891709,890,9
Cape May,New Jersey,39.15008829,-74.80170244,888,92
Thurston,Washington,46.9291895,-122.8290656,888,12
Lincoln,Louisiana,32.6003154,-92.6659741,887,39
Levy,Florida,29.31829741,-82.74007147,886,6
Taney,Missouri,36.65465345,-93.04075153,886,3
Hardin,Kentucky,37.6976111,-85.96319251,885,9
Ozaukee,Wisconsin,43.38352225,-87.94625009,885,18
Craven,North Carolina,35.11833364,-77.08398081,884,26
Crawford,Arkansas,35.58928601,-94.2446814,883,6
Shelby,Kentucky,38.21476019,-85.194223,882,23
Vance,North Carolina,36.36880673,-78.40670845,882,42
Madison,Kentucky,37.71659336,-84.27220275,881,3
Colleton,South Carolina,32.87582989,-80.67641292,877,39
Leake,Mississippi,32.7536828,-89.52402044,875,31
Wakulla,Florida,30.16548905,-84.39895211,873,7
Marshall,Indiana,41.32467367,-86.26185087,871,23
Sherburne,Minnesota,45.44447208,-93.77617511,871,12
Appling,Georgia,31.74847232,-82.28909114,869,23
Garfield,Oklahoma,36.3791334,-97.78265517,865,11
Chambers,Alabama,32.91360079,-85.39072749,860,38
Coles,Illinois,39.51949084,-88.22358557,860,21
Fayette,Tennessee,35.19615831,-89.41399032,859,10
Toa Alta,Puerto Rico,18.362406,-66.246616,858,0
Union,Mississippi,34.49162015,-89.00776006,857,21
Hoke,North Carolina,35.01888303,-79.23651674,853,12
Sioux,Iowa,43.08221074,-96.1767568,852,3
Anderson,Tennessee,36.12684348,-84.19965764,851,8
Tate,Mississippi,34.65133709,-89.94485778,851,32
Clay,Minnesota,46.89289518,-96.48761922,850,40
Coryell,Texas,31.39078397,-97.79936155,850,10
Jefferson,Wisconsin,43.02054068,-88.77529134,848,6
Tuscarawas,Ohio,40.44214695,-81.47226262,848,16
Boone,Illinois,42.32359279,-88.82345779,846,23
Madison,Florida,30.44396917,-83.47398594,844,14
Sumter,Georgia,32.03650571,-84.19821492,844,59
Toa Baja,Puerto Rico,18.431446,-66.213553,844,0
Platte,Nebraska,41.57246836,-97.52144359,842,3
Wayne,Mississippi,31.64135687,-88.69573913,842,21
Halifax,North Carolina,36.25669272,-77.6556109,841,10
Pueblo,Colorado,38.17359144,-104.5127437,841,34
Montgomery,North Carolina,35.33155144,-79.90416657,840,17
Portage,Ohio,41.16793482,-81.19735782,838,65
Madison,Texas,30.96694679,-95.93003775,834,5
Summit,Utah,40.86688146,-110.9535882,832,1
Garfield,Colorado,39.59921777,-107.902708,830,4
Lincoln,South Dakota,43.27841182,-96.7203905,830,2
Chester,South Carolina,34.69249168,-81.1583216,829,18
Saratoga,New York,43.10904162,-73.86653895,829,17
Christian,Kentucky,36.89267803,-87.49055367,824,10
Bryan,Georgia,32.00979311,-81.44002948,823,9
Rensselaer,New York,42.71348136,-73.51089874,823,40
Lake,Tennessee,36.3418017,-89.48921915,822,1
Willacy,Texas,26.47411727,-97.61535848,822,42
Catoosa,Georgia,34.89872298,-85.13757014,821,17
West Baton Rouge,Louisiana,30.46058217,-91.30989571,820,38
Dubois,Indiana,38.36597551,-86.8792417,819,17
DeWitt,Texas,29.08101855,-97.3568117,817,25
Boone,Indiana,40.0509304,-86.46841646,814,46
Butler,Alabama,31.75300095,-86.68057478,813,36
Henderson,Tennessee,35.65581134,-88.38600175,813,6
Crawford,Iowa,42.03718237,-95.3819718,812,3
Pike,Alabama,31.80396383,-85.9408295,809,7
St. Louis,Minnesota,47.6048407,-92.46879855,808,23
De Soto,Louisiana,32.05457447,-93.74130302,807,32
Union,Louisiana,32.83121059,-92.3749373,807,39
Gulf,Florida,29.93543004,-85.2427099,806,10
Santa Fe,New Mexico,35.50708973,-105.9774716,806,4
Williamson,Illinois,37.73033511,-88.92994027,806,11
Gonzales,Texas,29.45634206,-97.49424032,805,12
Henry,Virginia,36.68542395,-79.87634026,803,15
Covington,Alabama,31.2477854,-86.45050893,800,22
Mercer,Ohio,40.54043046,-84.62912742,799,17
Kandiyohi,Minnesota,45.1526059,-95.00586446,798,1
Warren,Tennessee,35.6728299,-85.77969117,798,7
Jackson,Michigan,42.24807035,-84.42258681,797,40
Stephens,Georgia,34.55151201,-83.29405315,796,24
Worcester,Maryland,38.21274277,-75.33200012,794,23
Hancock,Indiana,39.82304555,-85.77566351,793,41
Bay,Michigan,43.70639106,-83.98731479,792,41
Lamar,Texas,33.66981763,-95.57404777,791,24
Carter,Tennessee,36.28969086,-82.12588974,790,18
Deaf Smith,Texas,34.96522957,-102.6054267,790,19
Oldham,Kentucky,38.39791089,-85.448222,790,23
Harrison,Texas,32.54935988,-94.36934071,787,26
Noble,Indiana,41.39672484,-85.41966713,787,30
Pottawatomie,Oklahoma,35.20614018,-96.94923008,787,9
Cerro Gordo,Iowa,43.08177563,-93.2612239,786,20
Henderson,Texas,32.21128872,-95.85846587,786,16
Weakley,Tennessee,36.29896232,-88.71990865,785,11
Windham,Connecticut,41.82972709,-71.98182316,785,15
Obion,Tennessee,36.35732446,-89.14921589,782,7
Madison,Louisiana,32.36918118,-91.23973355,781,7
Berkeley,West Virginia,39.46704621,-78.02414609,780,11
Chittenden,Vermont,44.46322849,-73.08359212,779,39
Greene,Tennessee,36.17470125,-82.84691273,779,11
Marion,Mississippi,31.23132643,-89.8209217,776,25
York,Maine,43.47808377,-70.71052375,776,15
Cole,Missouri,38.50455671,-92.27860244,775,4
Polk,Texas,30.79472531,-94.8276624,774,16
Bledsoe,Tennessee,35.59942968,-85.20611967,772,3
Calvert,Maryland,38.53961642,-76.56820632,772,28
Creek,Oklahoma,35.90230551,-96.37086028,769,21
Cecil,Maryland,39.56647682,-75.94627411,768,31
Eau Claire,Wisconsin,44.726614,-91.28609183,768,6
McDowell,North Carolina,35.67736232,-82.0482425,767,24
Cherokee,South Carolina,35.05122251,-81.61828622,765,32
McMinn,Tennessee,35.42812616,-84.61520715,765,21
Shenandoah,Virginia,38.85905135,-78.56813762,763,48
Hanover,Virginia,37.7583355,-77.49464673,762,34
Jackson,Oregon,42.43201126,-122.7289309,762,2
Elko,Nevada,41.14531606,-115.3577619,761,3
Washington,Oklahoma,36.71380786,-95.90514104,761,39
Butler,Pennsylvania,40.91152759,-79.91351055,760,18
Adams,Mississippi,31.47669768,-91.35326037,759,31
Clinton,Iowa,41.89981633,-90.53275096,758,9
Frederick,Virginia,39.20172582,-78.25974949,758,10
Pettis,Missouri,38.72798918,-93.28471706,758,8
Cumberland,Tennessee,35.95271721,-84.99840585,757,8
Erie,Ohio,41.36796058,-82.62904521,756,36
Hood,Texas,32.42990927,-97.83242024,756,21
St. James,Louisiana,30.02531716,-90.80212061,755,35
Marathon,Wisconsin,44.89792533,-89.75863384,753,13
Jefferson,Tennessee,36.04818632,-83.45148924,752,6
Lenoir,North Carolina,35.2403259,-77.64245615,752,12
Pender,North Carolina,34.52265624,-77.90352133,752,4
Johnson,Arkansas,35.56759135,-93.46036368,749,4
Coffee,Tennessee,35.49090731,-86.07311784,742,6
Warren,Iowa,41.33559454,-93.56007641,742,5
Dillon,South Carolina,34.39007791,-79.37741872,735,28
Sabine,Louisiana,31.56388699,-93.55433981,735,13
Adams,Illinois,39.98815591,-91.18786813,734,7
Karnes,Texas,28.90705334,-97.85960149,734,11
Gilmer,Georgia,34.69316688,-84.45802506,733,5
Rockingham,North Carolina,36.39593137,-79.77504841,733,8
Warrick,Indiana,38.08922676,-87.2716085,732,31
Fauquier,Virginia,38.73564842,-77.80647472,731,9
Independence,Arkansas,35.74242707,-91.57001641,731,4
Walla Walla,Washington,46.23040051,-118.4775539,731,4
Pearl River,Mississippi,30.77090935,-89.58677275,726,48
Lawrence,Tennessee,35.21675201,-87.39787695,725,9
James City,Virginia,37.31156958,-76.76950618,723,18
Colfax,Nebraska,41.57486951,-97.0868542,718,5
Harris,Georgia,32.73709786,-84.90538572,718,21
Haywood,Tennessee,35.58332824,-89.28536625,718,10
Lassen,California,40.67311306,-120.5935099,715,0
Lauderdale,Tennessee,35.75893438,-89.6301591,712,12
Trujillo Alto,Puerto Rico,18.336159,-65.998884,712,0
Morgan,Colorado,40.2627981,-103.8093302,711,48
Covington,Mississippi,31.63225413,-89.55389939,709,17
Rusk,Texas,32.10773545,-94.76176432,709,4
Muskogee,Oklahoma,35.61318461,-95.37802952,706,16
Mitchell,Georgia,31.22483255,-84.19381821,705,44
Graham,Arizona,32.93166885,-109.8882178,702,22
Cheatham,Tennessee,36.26136216,-87.08903581,701,10
Emanuel,Georgia,32.59221302,-82.30239915,698,22
Randolph,Illinois,38.05095369,-89.82512254,697,7
Murray,Georgia,34.78897608,-84.74993177,695,3
Pittsylvania,Virginia,36.81980341,-79.39731264,695,4
Washington,Rhode Island,41.45961631,-71.61435303,694,0
Wayne,Ohio,40.82925852,-81.88844833,693,61
Bradford,Florida,29.95079741,-82.16611613,692,5
Marion,Alabama,34.13697363,-87.88704173,691,28
Bladen,North Carolina,34.61296243,-78.56180059,689,9
Richland,Ohio,40.77180308,-82.5379961,689,17
Winston,Mississippi,33.08747908,-89.03391385,688,19
Reno,Kansas,37.95230263,-98.08607292,687,1
Hamilton,Florida,30.49673973,-82.94998918,686,4
Riley,Kansas,39.28935726,-96.73420026,686,5
Dixie,Florida,29.60631086,-83.15724673,685,4
Deschutes,Oregon,43.91570171,-121.2289121,681,11
Jackson,Indiana,38.9091582,-86.03851889,681,8
Monroe,Tennessee,35.44550387,-84.24902965,681,14
Lonoke,Arkansas,34.75392199,-91.88742357,679,3
Richland,Louisiana,32.41391005,-91.76634876,678,9
Belmont,Ohio,40.01625942,-80.9924051,677,26
Jasper,South Carolina,32.43171982,-81.02487495,676,18
Logan,Colorado,40.7249637,-103.110817,675,5
Fayette,Pennsylvania,39.92041012,-79.64291195,674,6
George,Mississippi,30.86259065,-88.64436789,674,12
Lavaca,Texas,29.38508402,-96.93186692,674,29
Tooele,Utah,40.44862644,-113.1295715,673,0
Lane,Oregon,43.93727035,-122.847753,672,5
Plymouth,Iowa,42.737633,-96.21366621,672,18
St. Joseph,Michigan,41.91441767,-85.52797979,671,11
Campbell,Kentucky,38.94384345,-84.37875208,670,13
Marlboro,South Carolina,34.59905577,-79.67561152,670,5
Union,Arkansas,33.16887091,-92.59746952,670,20
Uvalde,Texas,29.35739637,-99.76229172,670,17
Madison,Ohio,39.89381073,-83.40178317,669,11
Clinton,Illinois,38.60704876,-89.42385254,667,17
Greensville,Virginia,36.67878901,-77.56351439,665,11
Chaves,New Mexico,33.36406072,-104.4665365,663,6
San Juan,Utah,37.62762978,-109.8033714,663,28
Marion,South Carolina,34.07859748,-79.36400756,661,17
Tattnall,Georgia,32.04785085,-82.05539188,659,6
Lumpkin,Georgia,34.57286511,-84.00425681,656,12
Mendocino,California,39.4381191,-123.3911313,656,16
Curry,New Mexico,34.57421077,-103.3468876,655,3
Assumption,Louisiana,29.89946234,-91.06461642,654,22
Erath,Texas,32.23602653,-98.21773417,654,8
Ross,Ohio,39.33705391,-83.06000914,654,10
Hardin,Tennessee,35.19732531,-88.18593755,653,9
Northumberland,Pennsylvania,40.84785433,-76.70798222,652,31
Berkshire,Massachusetts,42.37428441,-73.20524838,651,46
Muhlenberg,Kentucky,37.21425819,-87.14632053,651,11
Hawkins,Tennessee,36.44355426,-82.94885298,649,12
Grady,Georgia,30.87454847,-84.23418364,647,9
Lee,Georgia,31.7793306,-84.14324253,646,23
Buckingham,Virginia,37.57242268,-78.52518834,644,8
Richmond,North Carolina,35.00417719,-79.74491009,643,9
Newton,Mississippi,32.40021118,-89.11843336,642,14
Upson,Georgia,32.87920671,-84.30024826,640,53
Waller,Texas,30.01058447,-95.99011759,640,8
Burnet,Texas,30.78801353,-98.181887,637,12
Burke,Georgia,33.05917989,-81.99928721,636,8
Rhea,Tennessee,35.60536161,-84.93076643,635,3
Ponce,Puerto Rico,18.059498,-66.613748,633,0
Buffalo,Nebraska,40.85486962,-99.07500296,632,3
Dawson,Georgia,34.44244079,-84.16964071,632,6
Waupaca,Wisconsin,44.47068056,-88.96534501,632,17
Graves,Kentucky,36.72292505,-88.65143315,630,29
Jefferson,Georgia,33.05867328,-82.41609057,630,15
Wise,Texas,33.21570665,-97.65460265,630,12
Payette,Idaho,44.00545243,-116.7647695,628,4
Sauk,Wisconsin,43.42574087,-89.94966132,628,3
Lee,South Carolina,34.16393091,-80.25690731,627,30
Saline,Nebraska,40.52418865,-97.14085859,627,2
Wasatch,Utah,40.33110236,-111.1691419,625,6
Frio,Texas,28.86751206,-99.10804207,624,7
Big Horn,Montana,45.42335905,-107.492347,623,15
Fairfield,South Carolina,34.39287073,-81.1195624,623,28
Vega Baja,Puerto Rico,18.428262,-66.397924,623,0
Cocke,Tennessee,35.9278914,-83.11828725,622,7
Beadle,South Dakota,44.41464384,-98.27858469,621,9
Grant,Indiana,40.51587228,-85.65468702,621,30
Marengo,Alabama,32.24767634,-87.78796182,621,17
Cherokee,Oklahoma,35.90692775,-94.99980896,620,5
Allegan,Michigan,42.59147037,-85.89102866,616,6
Tallahatchie,Mississippi,33.95339918,-90.1729398,615,13
Barbour,Alabama,31.868263,-85.3871286,614,7
Jeff Davis,Georgia,31.80405727,-82.6372487,614,10
Yadkin,North Carolina,36.16222629,-80.66239436,614,7
Mayaguez,Puerto Rico,18.2013,-67.1452,612,0
Petersburg,Virginia,37.20530399,-77.39368102,611,20
St. Croix,Wisconsin,45.03437474,-92.45000068,611,7
Stark,North Dakota,46.80851182,-102.6576326,611,6
Ben Hill,Georgia,31.76095874,-83.22145359,610,11
Putnam,Georgia,33.32056115,-83.37552891,610,20
Tama,Iowa,42.07991767,-92.53266945,610,29
Yamhill,Oregon,45.23330449,-123.3086963,610,14
Holmes,Florida,30.86747479,-85.81319222,609,5
Osage,Oklahoma,36.62888819,-96.39635704,609,12
Shelby,Indiana,39.52305623,-85.7915857,609,28
Geauga,Ohio,41.49952319,-81.17935342,605,46
Prentiss,Mississippi,34.61810501,-88.51986294,605,12
Roane,Tennessee,35.84923189,-84.52458689,605,2
Brown,South Dakota,45.58994323,-98.35165355,604,3
Charlottesville,Virginia,38.03527919,-78.48569588,604,17
Greene,Arkansas,36.1173546,-90.55832668,603,4
Blaine,Idaho,43.4085812,-113.9752658,601,6
Jones,Texas,32.73997145,-99.87861576,601,0
Androscoggin,Maine,44.1664747,-70.20380627,600,10
Ashtabula,Ohio,41.70860332,-80.74830218,598,46
Bannock,Idaho,42.67002716,-112.2233311,598,2
Washington,Georgia,32.96711864,-82.79357039,598,4
Scotland,North Carolina,34.8386299,-79.4757978,597,8
Adams,Washington,46.98299757,-118.5601734,596,7
Alcorn,Mississippi,34.88084463,-88.57996173,593,6
Kleberg,Texas,27.42435506,-97.69894948,593,24
Le Flore,Oklahoma,34.89851864,-94.70392124,593,5
Bullitt,Kentucky,37.97162523,-85.68955617,591,5
LaGrange,Indiana,41.64232188,-85.42674232,591,11
Miller,Arkansas,33.31403423,-93.89285258,591,6
Fairbanks North Star,Alaska,64.80726247,-146.5692662,590,8
Lowndes,Alabama,32.1597283,-86.65158371,590,24
Calhoun,Texas,28.47048236,-96.61633945,589,7
Christian,Missouri,36.9711783,-93.18537118,589,1
Jerome,Idaho,42.68891267,-114.2655033,589,6
Van Buren,Michigan,42.25190229,-86.01939087,589,14
Adams,Pennsylvania,39.87140411,-77.21610347,585,23
Fremont,Wyoming,43.04183996,-108.6296893,585,0
Monroe,Georgia,33.014289,-83.92097166,585,39
Morehouse,Louisiana,32.81686191,-91.80421614,585,16
Okmulgee,Oklahoma,35.64661916,-95.96432828,585,4
Roanoke,Virginia,37.26865804,-80.06396753,584,4
Marinette,Wisconsin,45.38553432,-88.033246,582,6
Fannin,Texas,33.59564294,-96.10751083,581,11
Morton,North Dakota,46.71681782,-101.2822377,581,5
Scott,Missouri,37.05588075,-89.56474493,581,13
Cassia,Idaho,42.28347888,-113.6012409,578,3
Darke,Ohio,40.13412966,-84.6194517,578,35
Attala,Mississippi,33.08658803,-89.57838564,577,25
Henry,Indiana,39.93029017,-85.39625719,577,21
Chickasaw,Mississippi,33.91983202,-88.9481545,576,20
Danville,Virginia,36.58022376,-79.40395668,575,12
Jackson,Oklahoma,34.58781741,-99.41138784,575,8
Bryan,Oklahoma,33.96472458,-96.25903472,572,3
Columbia,New York,42.24819348,-73.63089095,568,37
Johnson,Missouri,38.74719601,-93.80691168,568,3
Madison,Nebraska,41.91676024,-97.6005481,568,5
Morgan,Indiana,39.47899078,-86.44573375,568,35
Sequoyah,Oklahoma,35.49447108,-94.75463785,568,7
Carroll,Tennessee,35.97366108,-88.45189331,566,7
Dearborn,Indiana,39.14647946,-84.97333539,564,28
Columbia,Pennsylvania,41.04821986,-76.40565017,562,35
Union,Florida,30.04412971,-82.37497443,561,5
Laramie,Wyoming,41.3070252,-104.6887497,560,0
Washington,Texas,30.21498498,-96.40946246,560,44
Atascosa,Texas,28.89333001,-98.52730485,559,24
Peach,Georgia,32.56934316,-83.82937,558,15
Scott,Kentucky,38.29622293,-84.5816631,558,4
Shasta,California,40.76391419,-122.0396884,557,12
Walthall,Mississippi,31.14971548,-90.10446654,557,24
Jasper,Iowa,41.68576082,-93.05567785,556,30
Manassas Park,Virginia,38.77058531,-77.44399307,555,7
Pittsburg,Oklahoma,34.92065823,-95.7513432,553,15
Charlton,Georgia,30.78371028,-82.13951596,551,5
Butts,Georgia,33.2830945,-83.9543504,550,40
Portage,Wisconsin,44.47558711,-89.50152965,550,1
McClain,Oklahoma,35.01123903,-97.44572302,548,4
Calhoun,Florida,30.40666734,-85.19394153,547,8
Minidoka,Idaho,42.85518524,-113.6357257,547,2
West Feliciana,Louisiana,30.87882871,-91.4148538,547,20
Flathead,Montana,48.29575866,-114.0520569,545,4
Laurel,Kentucky,37.10975748,-84.11321779,545,5
Scurry,Texas,32.74613808,-100.9162664,542,2
Winn,Louisiana,31.94449367,-92.63789413,540,15
Mercer,Pennsylvania,41.30248872,-80.25816981,539,13
Oconee,Georgia,33.83749973,-83.43679568,539,20
Pike,Pennsylvania,41.33155042,-75.03208106,537,21
Tishomingo,Mississippi,34.74023475,-88.23917219,537,28
Wilson,Texas,29.1732598,-98.08693082,537,25
Clinton,Indiana,40.30319754,-86.47277257,535,7
Saluda,South Carolina,34.00795823,-81.72713237,534,12
Houston,Texas,31.31925973,-95.42226208,532,8
East Carroll,Louisiana,32.73926954,-91.23425694,531,2
Itawamba,Mississippi,34.27993475,-88.3606733,531,14
Saline,Missouri,39.13734288,-93.20259964,531,7
Caddo,Oklahoma,35.17364557,-98.37534464,529,20
Cowlitz,Washington,46.19074721,-122.6782231,529,6
Lenawee,Michigan,41.89475156,-84.06603727,529,13
Macon,North Carolina,35.14867843,-83.41696617,529,2
Tippah,Mississippi,34.76872156,-88.90988194,528,15
Bullock,Alabama,32.10030533,-85.71265535,527,13
Franklin,Florida,29.83791238,-84.82731662,527,3
Queen Anne's,Maryland,39.06198912,-76.03530977,526,26
Lincoln,Missouri,39.05345619,-90.95588181,525,1
Bamberg,South Carolina,33.21927586,-81.05659969,524,27
Beaufort,North Carolina,35.48531943,-76.84325809,524,9
Delaware,Oklahoma,36.40823634,-94.80325046,523,20
Hampton,South Carolina,32.77419582,-81.13845571,523,21
Pasquotank,North Carolina,36.26723798,-76.25134778,523,23
Broomfield,Colorado,39.95998787,-105.0566324,522,33
Franklin,Georgia,34.37525597,-83.23159927,522,10
Winston,Alabama,34.15030532,-87.37325922,522,11
Barnwell,South Carolina,33.26679302,-81.43584352,521,13
Hale,Alabama,32.76039258,-87.63284988,521,27
Lapeer,Michigan,43.09052506,-83.22153148,521,35
Madison,Georgia,34.12920917,-83.21218732,519,7
Wayne,Indiana,39.8633444,-85.01044989,519,10
McNairy,Tennessee,35.17468549,-88.5647812,517,10
Noxubee,Mississippi,33.11009499,-88.56949061,516,14
Bibb,Alabama,32.99642064,-87.1251146,515,5
Bedford,Virginia,37.3080028,-79.5281964,514,8
Wright,Iowa,42.73305373,-93.73515113,513,1
Des Moines,Iowa,40.92012606,-91.18326592,511,5
Pickens,Alabama,33.28094866,-88.08818103,511,10
Van Zandt,Texas,32.56483801,-95.83766469,511,14
White,Arkansas,35.25688493,-91.74908296,511,10
Smith,Tennessee,36.25359775,-85.95411046,509,8
Chattooga,Georgia,34.47197698,-85.34535662,508,5
Bacon,Georgia,31.55456473,-82.45936528,507,8
Marshall,Tennessee,35.45798777,-86.76420988,507,4
Pierce,Georgia,31.35928155,-82.21598442,507,12
Grady,Oklahoma,35.0167709,-97.88339847,506,7
Hancock,Ohio,41.00250487,-83.66838948,504,6
Isle of Wight,Virginia,36.90579348,-76.70842863,504,11
Valencia,New Mexico,34.71669834,-106.8103733,504,4
Eaton,Michigan,42.59599185,-84.83740035,503,8
Cabell,West Virginia,38.42424062,-82.23855912,502,6
Cook,Georgia,31.16068491,-83.42947229,502,10
Pickens,Georgia,34.46589159,-84.46406611,502,6
Lycoming,Pennsylvania,41.34310539,-77.06629984,501,22
McDuffie,Georgia,33.47851918,-82.48252774,501,12
Oceana,Michigan,43.64124435,-86.26726673,499,6
Prince George,Virginia,37.18497668,-77.22922187,499,2
Sandusky,Ohio,41.35624126,-83.137872,499,17
Central Utah,Utah,39.37231946,-111.5758676,498,3
Hopkins,Kentucky,37.30939025,-87.54670406,498,36
La Paz,Arizona,33.72854224,-113.9810029,498,15
Mecklenburg,Virginia,36.67882005,-78.36131056,498,33
Merrimack,New Hampshire,43.29662971,-71.6811573,497,23
White,Tennessee,35.92929884,-85.45591799,497,7
Jackson,Texas,28.95472367,-96.57749563,495,14
Worth,Georgia,31.55162306,-83.85090513,494,25
Haywood,North Carolina,35.55269063,-82.98196486,493,25
Jefferson,Florida,30.43669112,-83.89442308,493,6
Ottawa,Oklahoma,36.83532655,-94.81011909,493,4
Washington,Alabama,31.4092794,-88.20689944,492,13
Hertford,North Carolina,36.3607755,-76.98104134,491,14
Plaquemines,Louisiana,29.42245447,-89.60322085,490,19
Canovanas,Puerto Rico,18.328802,-65.887612,489,0
Camden,Missouri,38.02199522,-92.76083747,488,8
Manitowoc,Wisconsin,44.11946801,-87.80928853,488,1
Caroline,Maryland,38.87172293,-75.82904158,485,3
Edgefield,South Carolina,33.77221995,-81.96231108,485,11
Barren,Kentucky,36.96469836,-85.93338945,483,7
Pulaski,Kentucky,37.10466131,-84.57629079,480,6
McCracken,Kentucky,37.05350953,-88.70445755,479,6
White,Georgia,34.64624278,-83.74905525,478,10
Whiteside,Illinois,41.75509713,-89.91556058,478,19
Arecibo,Puerto Rico,18.406631,-66.675077,477,0
Jackson,North Carolina,35.28814273,-83.14093385,476,7
Wilcox,Alabama,31.98773215,-87.30891118,476,10
Jasper,Mississippi,32.01922104,-89.11786866,475,13
Meriwether,Georgia,33.04163534,-84.68859732,475,9
Morgan,Illinois,39.71654544,-90.20255104,475,18
Calumet,Wisconsin,44.0816316,-88.21780273,473,2
Perry,Alabama,32.64048341,-87.29770589,473,4
Prince Edward,Virginia,37.22554789,-78.43597949,473,11
Hancock,Mississippi,30.41830223,-89.48851033,472,18
Dunklin,Missouri,36.27167174,-90.09122243,471,4
Fredericksburg,Virginia,38.2977863,-77.4922454,470,4
Clinton,Michigan,42.94400871,-84.60145248,469,13
Brooks,Georgia,30.83922642,-83.58303423,468,20
Ogle,Illinois,42.04165196,-89.32184679,468,5
Eddy,New Mexico,32.47167456,-104.3053527,466,5
Matanuska-Susitna,Alaska,62.31305045,-149.5741743,466,2
Nye,Nevada,38.04264256,-116.4722702,466,14
Clay,Mississippi,33.65358105,-88.77784255,465,14
Davie,North Carolina,35.93099927,-80.54496571,465,6
Huron,Ohio,41.14651175,-82.59867951,465,6
Effingham,Illinois,39.05935711,-88.58969584,464,1
Harrison,Indiana,38.19467379,-86.10948271,463,24
Smith,Mississippi,32.01744532,-89.50644846,463,13
Ward,North Dakota,48.22390169,-101.5436763,463,1
Brown,Texas,31.77430356,-98.99907113,462,19
Calhoun,Mississippi,33.93683395,-89.33686647,461,10
Grundy,Illinois,41.28569601,-88.41905692,461,5
Talbot,Maryland,38.76618159,-76.10882561,461,4
Carteret,North Carolina,34.8932941,-76.54120135,460,5
Franklin,Tennessee,35.15634626,-86.09201039,460,4
Platte,Missouri,39.38154439,-94.77068479,460,10
Lincoln,Oregon,44.64252874,-123.869912,459,13
Lyon,Minnesota,44.41327865,-95.83806103,458,3
Fayette,Texas,29.87788372,-96.92076062,457,16
Randolph,Alabama,33.29526734,-85.45708831,456,11
Crisp,Georgia,31.92289565,-83.76811843,455,15
Dorado,Puerto Rico,18.436115,-66.278669,455,0
Saline,Kansas,38.78369175,-97.65185177,455,9
Logan,West Virginia,37.8299889,-81.93528571,454,26
Poinsett,Arkansas,35.57433534,-90.66268713,453,5
Glades,Florida,26.95635849,-81.18996211,452,3
Jefferson,Oregon,44.62806839,-121.17832,452,7
Franklin,Kentucky,38.2379395,-84.87962551,451,11
Lawrence,Pennsylvania,40.99206278,-80.33393706,450,18
Union,Georgia,34.82995757,-83.98967069,449,8
Cambria,Pennsylvania,40.49527404,-78.71377428,448,4
Carroll,Arkansas,36.3403856,-93.54270261,448,7
Kittitas,Washington,47.12521214,-120.679439,448,21
Gilchrist,Florida,29.72856978,-82.79880657,447,9
Ottawa,Ohio,41.53781826,-83.0940185,445,29
Todd,Minnesota,46.06996226,-94.89785296,445,2
York,Virginia,37.24374789,-76.54412815,444,5
Daviess,Indiana,38.70186039,-87.07185406,443,23
Monroe,Illinois,38.27594376,-90.17761038,442,14
Union,South Carolina,34.68835752,-81.61730349,442,5
Jones,Georgia,33.02512137,-83.56019163,441,5
Tunica,Mississippi,34.64967704,-90.37481167,441,11
Crawford,Kansas,37.50675523,-94.85245778,440,1
Elbert,Georgia,34.11302332,-82.83936148,440,1
Knox,Illinois,40.93148779,-90.2133034,440,3
Lawrence,Indiana,38.84112637,-86.48361629,440,27
Jackson,Louisiana,32.30251776,-92.55692092,439,20
Madison,New York,42.91653905,-75.67266639,439,17
Monroe,Alabama,31.56729412,-87.36995001,439,6
Dorchester,Maryland,38.45413522,-76.02752426,437,6
Naranjito,Puerto Rico,18.288019,-66.252703,437,0
Giles,Tennessee,35.20222469,-87.03992678,436,14
DeKalb,Tennessee,35.97616272,-85.83689361,435,5
Jessamine,Kentucky,37.87119786,-84.58252003,435,0
Shelby,Texas,31.79211404,-94.14550696,435,19
Branch,Michigan,41.91600556,-85.05929476,434,3
Colusa,California,39.17881957,-122.2331726,434,6
Glenn,California,39.59875897,-122.3938452,434,3
Jefferson,Illinois,38.29980057,-88.9240025,434,33
Newport,Rhode Island,41.5642026,-71.26569799,434,0
Centre,Pennsylvania,40.92058903,-77.82200624,433,11
Kerr,Texas,30.06040006,-99.34930144,433,9
Bingham,Idaho,43.2167288,-112.3978437,432,5
Claiborne,Mississippi,31.97061673,-90.90702196,432,16
Conecuh,Alabama,31.43401703,-86.99320044,432,11
Lawrence,Alabama,34.52041498,-87.31069453,432,5
Nevada,California,39.30394768,-120.7627281,432,5
Tuscola,Michigan,43.46606813,-83.41897025,432,29
Winchester,Virginia,39.17054517,-78.17325058,432,4
Clarke,Mississippi,32.04158545,-88.6889622,431,28
Wood,Wisconsin,44.45537896,-90.04158336,431,2
Henry,Tennessee,36.33160906,-88.30121797,430,4
Anson,North Carolina,34.97403241,-80.09953279,429,3
Adair,Oklahoma,35.88494195,-94.65859267,428,6
Blair,Pennsylvania,40.47961444,-78.34917412,427,11
Concordia,Louisiana,31.44817835,-91.63814433,426,9
Liberty,Florida,30.23766008,-84.8829258,426,7
Grant,Wisconsin,42.8671731,-90.7063218,425,17
White,Indiana,40.74911165,-86.86492015,425,12
Fannin,Georgia,34.86430205,-84.316964,424,6
Henry,Illinois,41.3533994,-90.13296166,424,1
Marion,Iowa,41.33445101,-93.09934783,424,0
Nicollet,Minnesota,44.35291112,-94.24710352,423,15
Colorado,Texas,29.622098,-96.5273805,422,3
Morrow,Oregon,45.41846568,-119.584546,420,3
Carbon,Pennsylvania,40.91545395,-75.7068525,419,28
Putnam,Indiana,39.66437981,-86.84517605,419,8
Watonwan,Minnesota,43.97823903,-94.61413846,418,4
Carson City,Nevada,39.15509045,-119.7480219,417,8
Dickinson,Iowa,43.37787725,-95.1510206,417,5
Teton,Wyoming,43.93522482,-110.5890801,417,0
Lawrence,Ohio,38.59743452,-82.53466552,416,7
Missoula,Montana,47.03728583,-113.9213508,416,3
Palo Pinto,Texas,32.75310985,-98.31319001,416,11
Vega Alta,Puerto Rico,18.409346,-66.33725,415,0
Greene,Georgia,33.5769205,-83.17139104,414,15
Henderson,Kentucky,37.79344553,-87.57392021,414,3
Rio Grande,Puerto Rico,18.346329,-65.813742,414,0
Union,Illinois,37.47119609,-89.25548938,414,23
Milam,Texas,30.7858183,-96.97718698,413,5
Bienville,Louisiana,32.34569994,-93.05398492,412,31
Indiana,Pennsylvania,40.65241041,-79.08963285,412,10
Union,Oregon,45.30915495,-118.0068979,412,2
Montgomery,Virginia,37.17746986,-80.37868691,411,3
Trempealeau,Wisconsin,44.30360275,-91.35893614,411,2
Shiawassee,Michigan,42.953928,-84.14585902,410,29
Howard,Arkansas,34.09007427,-93.9934871,407,5
Montgomery,Mississippi,33.49419589,-89.61729103,407,15
Steele,Minnesota,44.02240351,-93.22627088,407,2
Isabella,Michigan,43.64060976,-84.84664923,406,9
Kenai Peninsula,Alaska,60.24429722,-151.5388884,406,2
Morgan,Georgia,33.59232073,-83.49129491,406,2
Limestone,Texas,31.5454767,-96.58095444,405,7
Oconto,Wisconsin,45.02715345,-88.26807503,405,2
Overton,Tennessee,36.34117832,-85.28989535,405,2
Calhoun,South Carolina,33.66926881,-80.77722168,404,15
Early,Georgia,31.32155345,-84.90255207,404,32
Watauga,North Carolina,36.23103603,-81.70033724,404,0
Johnson,Tennessee,36.4552395,-81.84886538,403,1
Midland,Michigan,43.64330771,-84.38804374,403,11
Tehama,California,40.12570935,-122.2370171,402,1
Austin,Texas,29.88548725,-96.27736949,401,5
Lawrence,Mississippi,31.55147224,-90.10841127,401,10
Logan,Kentucky,36.85949479,-86.877635,401,26
Mayes,Oklahoma,36.30179091,-95.23175116,400,9
Polk,Oregon,44.90322804,-123.4128888,399,13
Carter,Oklahoma,34.25103751,-97.28552485,398,6
Cass,Michigan,41.91522292,-85.99405727,398,16
Mesa,Colorado,39.01787888,-108.469799,397,5
Adams,Nebraska,40.5244942,-98.50117804,396,11
Cibola,New Mexico,34.91131525,-107.998876,396,20
Lincoln,Tennessee,35.13738622,-86.58910106,396,1
Grant,Louisiana,31.59882456,-92.56124347,395,26
Abbeville,South Carolina,34.22333378,-82.46170658,394,10
Atkinson,Georgia,31.29633502,-82.87545866,394,3
Freeborn,Minnesota,43.67385583,-93.34884422,394,1
Galax,Virginia,36.66601852,-80.91703124,394,28
Wood,Texas,32.78722382,-95.38236368,394,14
Butler,Kansas,37.78134351,-96.83878537,393,2
Jasper,Texas,30.74685667,-94.02667579,393,18
Montgomery,Indiana,40.04034823,-86.89335024,393,21
Phillips,Arkansas,34.43268455,-90.84800154,393,9
Sumter,Alabama,32.59117397,-88.19916205,393,19
Hart,Georgia,34.34626973,-82.96567682,392,10
Louisa,Iowa,41.21842119,-91.26102611,392,14
Warren,Virginia,38.90847745,-78.20280433,390,6
Allegany,Maryland,39.62357628,-78.69280486,389,20
Decatur,Indiana,39.30712658,-85.50087166,389,34
Auglaize,Ohio,40.55998859,-84.2242143,387,8
Franklin,Massachusetts,42.58119713,-72.58602547,387,63
Ashley,Arkansas,33.19153461,-91.7698471,386,7
Bell,Kentucky,36.73355174,-83.67766671,386,7
Bertie,North Carolina,36.0688473,-76.96545943,385,5
Carroll,Virginia,36.73066666,-80.73455942,385,19
Greene,North Carolina,35.48544173,-77.67578087,384,3
Ontario,New York,42.85145728,-77.30874425,384,35
Alexander,North Carolina,35.9223796,-81.17751948,383,2
Calloway,Kentucky,36.62093411,-88.2731593,383,5
Cherokee,North Carolina,35.1349263,-84.05970864,382,5
Macon,Alabama,32.38759944,-85.69267724,381,16
Parmer,Texas,34.52993409,-102.7844668,381,7
Freestone,Texas,31.70422788,-96.15072516,380,0
Ohio,Kentucky,37.47751843,-86.85368087,379,9
Strafford,New Hampshire,43.291833,-71.02336013,379,13
Benton,Minnesota,45.69804958,-93.99514135,378,3
Crockett,Tennessee,35.81830662,-89.14916269,378,14
LaSalle,Louisiana,31.67884782,-92.15907765,378,5
Marion,Missouri,39.80601912,-91.62203062,378,1
Athens,Ohio,39.33425634,-82.04278644,376,2
Corozal,Puerto Rico,18.304264,-66.327738,376,0
Crenshaw,Alabama,31.72941803,-86.31593104,376,20
Williams,North Dakota,48.34522353,-103.4793387,374,2
Berrien,Georgia,31.27590016,-83.2252992,373,3
Stephenson,Illinois,42.35129217,-89.662598,373,6
Linn,Oregon,44.48899494,-122.5373154,371,12
Morovis,Puerto Rico,18.316963,-66.420383,368,0
Geneva,Alabama,31.09389027,-85.83572839,367,3
Hill,Texas,31.99045053,-97.13423143,367,8
La Salle,Texas,28.34453111,-99.09908775,366,3
Pulaski,Missouri,37.82462075,-92.20783203,366,1
Hickman,Tennessee,35.80609681,-87.47643507,365,3
St. Helena,Louisiana,30.82210324,-90.71013176,365,2
Humboldt,California,40.69923009,-123.876044,364,4
Yalobusha,Mississippi,34.02824175,-89.7076205,364,12
Barron,Wisconsin,45.42372701,-91.84833627,363,3
Butler,Missouri,36.71462476,-90.40421163,363,2
Catahoula,Louisiana,31.66778967,-91.84526385,363,6
Andrews,Texas,32.30468633,-102.6376548,362,8
New Madrid,Missouri,36.59666326,-89.66070007,362,4
Summit,Colorado,39.63803232,-106.1150762,361,4
Banks,Georgia,34.35607081,-83.49644388,360,8
Logan,Arkansas,35.21413234,-93.71951016,359,1
Union,Pennsylvania,40.96188846,-77.05996014,359,4
Chester,Tennessee,35.42527478,-88.6095842,358,4
Page,Virginia,38.61807452,-78.48797204,358,25
Greene,Indiana,39.03630547,-86.96223202,356,35
Claiborne,Louisiana,32.82308512,-92.99526883,354,13
Evans,Georgia,32.15328841,-81.8870105,354,5
Huntingdon,Pennsylvania,40.42162652,-77.97673273,354,5
Augusta,Virginia,38.16404586,-79.12461614,353,4
Hancock,Georgia,33.2721566,-82.99766919,353,39
Lee,Iowa,40.64181461,-91.48183025,353,5
Rio Arriba,New Mexico,36.51072137,-106.6931674,353,12
Winona,Minnesota,43.98772283,-91.78081305,353,17
Le Sueur,Minnesota,44.37136597,-93.72844721,352,2
Scotts Bluff,Nebraska,41.85070896,-103.7080986,351,6
Bristol,Rhode Island,41.71018079,-71.28652315,349,0
Claiborne,Tennessee,36.48319149,-83.65947309,349,3
Holmes,Ohio,40.56163713,-81.92635677,349,7
Bureau,Illinois,41.40385234,-89.5283051,348,5
Union,Ohio,40.30016061,-83.37239023,348,1
McLeod,Minnesota,44.82367677,-94.27287017,347,1
Perry,Missouri,37.70660776,-89.82741088,347,4
Gurabo,Puerto Rico,18.266461,-65.979705,346,0
Knox,Kentucky,36.89225732,-83.85403396,346,9
Manati,Puerto Rico,18.420473,-66.490461,343,0
Nodaway,Missouri,40.36079813,-94.88133008,341,1
Barry,Missouri,36.70978521,-93.82919888,340,4
Chautauqua,New York,42.2276921,-79.36691763,340,9
Columbia,Wisconsin,43.46492199,-89.33589004,340,2
Telfair,Georgia,31.92829517,-82.93491155,340,13
Montrose,Colorado,38.40214114,-108.2639022,339,13
Washington,Virginia,36.72341572,-81.95666289,339,8
Hopewell,Virginia,37.29186313,-77.29754684,337,4
Southampton,Virginia,36.72231125,-77.10642712,337,13
Carroll,Iowa,42.03617207,-94.86032705,336,2
Cherokee,Alabama,34.17805983,-85.60638968,336,11
Jefferson,Idaho,43.82078483,-112.3131749,336,1
Jefferson,West Virginia,39.30776166,-77.86014147,336,4
Boone,Iowa,42.03657094,-93.9313999,335,4
Lawrence,Missouri,37.10626634,-93.83293097,335,2
Northampton,North Carolina,36.41736238,-77.39769443,335,17
Stewart,Georgia,32.07996777,-84.83208037,335,11
Bleckley,Georgia,32.43829035,-83.33035166,334,15
Fajardo,Puerto Rico,18.318373,-65.666866,334,0
Humphreys,Mississippi,33.12825718,-90.52252707,334,14
Macoupin,Illinois,39.26119767,-89.92424028,333,3
Raleigh,West Virginia,37.76936795,-81.2456041,332,3
Live Oak,Texas,28.35101362,-98.1246786,330,6
Scioto,Ohio,38.80270163,-82.98907345,330,2
Sussex,Virginia,36.92432914,-77.25791182,330,9
Washington,Iowa,41.33577126,-91.71725711,330,11
Clay,Alabama,33.26984193,-85.85836077,329,6
Grand Traverse,Michigan,44.69565625,-85.55585247,329,6
Preble,Ohio,39.7420247,-84.64787018,328,3
Richmond,Virginia,37.937575,-76.72920628,328,5
Shelby,Ohio,40.33163494,-84.20258189,328,4
Lewis,Washington,46.57756476,-122.3925769,327,4
Barranquitas,Puerto Rico,18.201592,-66.30963,323,0
Chippewa,Wisconsin,45.06939744,-91.28068855,323,0
Hempstead,Arkansas,33.73325583,-93.66935133,323,3
Martin,North Carolina,35.84326734,-77.10860251,323,7
Nelson,Kentucky,37.80335779,-85.4657193,322,2
Stokes,North Carolina,36.4017975,-80.23893369,322,3
Lamar,Georgia,33.07841647,-84.14263877,321,16
Seneca,Ohio,41.12351311,-83.12783209,321,11
Candler,Georgia,32.40209349,-82.07702563,320,12
Upshur,Texas,32.73706798,-94.93999853,319,6
Maui,Hawaii,20.86399628,-156.5689097,318,7
Polk,Tennessee,35.12245443,-84.52075859,318,10
Warren,New York,43.56173026,-73.8433699,318,33
Wise,Virginia,36.9746148,-82.62410519,318,5
Campbell,Tennessee,36.40355516,-84.1510856,316,2
Butler,Kentucky,37.20946153,-86.68748787,315,16
Chaffee,Colorado,38.74745778,-106.1926573,315,19
Franklin,Illinois,37.99189086,-88.92567818,315,1
Choctaw,Alabama,32.02227341,-88.2656443,314,12
Lake,California,39.10124298,-122.7536244,314,3
Marion,Tennessee,35.12997174,-85.62265895,314,6
Martinsville,Virginia,36.68212094,-79.86352771,314,5
Pemiscot,Missouri,36.2130572,-89.78742322,314,9
Terrell,Georgia,31.77527543,-84.44069698,314,31
Quitman,Mississippi,34.25157572,-90.28908,313,3
Henry,Alabama,31.51148016,-85.24267944,312,3
Vermilion,Illinois,40.18417171,-87.73384359,312,3
Beltrami,Minnesota,47.97373527,-94.93732139,311,1
Knox,Indiana,38.68861576,-87.4194665,311,3
Steuben,New York,42.2689144,-77.3829924,311,42
West Carroll,Louisiana,32.78550125,-91.461201,311,9
DeKalb,Indiana,41.39804622,-84.99906934,310,4
Fulton,New York,43.11363907,-74.41798804,310,24
Lyon,Nevada,39.01777974,-119.1870479,310,6
Red River,Louisiana,32.09530039,-93.34213308,310,20
Jasper,Indiana,41.02078733,-87.11553319,309,2
Miami,Indiana,40.76940965,-86.04525048,309,2
Panola,Texas,32.1639596,-94.30552481,309,20
Randolph,Georgia,31.76622818,-84.75732369,308,27
Campbell,Virginia,37.20553386,-79.09678609,307,3
Haralson,Georgia,33.79602175,-85.21005667,307,7
Luna,New Mexico,32.18179341,-107.7508826,307,5
Gibson,Indiana,38.30393723,-87.58054938,306,4
Greene,New York,42.275797,-74.12384884,306,18
Scott,Indiana,38.68672078,-85.74627859,306,10
Warren,Missouri,38.76529479,-91.16124662,306,0
Yauco,Puerto Rico,18.080374,-66.858814,306,0
Orleans,New York,43.2516977,-78.2320066,305,54
Custer,Oklahoma,35.63853802,-99.00170785,304,0
Fayette,Indiana,39.63684962,-85.17797541,304,8
Johnson,Georgia,32.70211082,-82.66166794,304,13
Dodge,Georgia,32.17265114,-83.16948926,303,5
Mason,Washington,47.35007586,-123.1863685,303,1
Northampton,Virginia,37.34062933,-75.87751591,303,29
Person,North Carolina,36.38989032,-78.97217358,302,3
Seminole,Oklahoma,35.16478725,-96.61686741,302,5
Armstrong,Pennsylvania,40.81665618,-79.46290811,301,9
Boone,Arkansas,36.3084504,-93.09374925,301,1
Cooke,Texas,33.63979567,-97.21240912,300,4
Brantley,Georgia,31.19576557,-81.97743999,299,8
Callaway,Missouri,38.83674754,-91.92186505,299,2
Hillsdale,Michigan,41.88753639,-84.59312019,299,26
Pike,Kentucky,37.47088263,-82.39487445,299,3
Stone,Mississippi,30.79187949,-89.11547539,299,9
Aguadilla,Puerto Rico,18.459681,-67.120815,298,0
Drew,Arkansas,33.59035001,-91.71777921,298,4
Wood,West Virginia,39.20967886,-81.5162836,298,5
Cass,Illinois,39.96991073,-90.24734436,297,11
Jefferson Davis,Mississippi,31.56884708,-89.8267099,296,8
Owyhee,Idaho,42.58016894,-116.1693871,296,5
Randolph,Arkansas,36.3415714,-91.02455531,296,12
Kay,Oklahoma,36.81799745,-97.14421435,295,12
Salinas,Puerto Rico,18.010387,-66.256592,295,0
Sweetwater,Wyoming,41.65943896,-108.8827882,295,0
Ellis,Kansas,38.91458712,-99.31751551,294,1
Herkimer,New York,43.42034246,-74.96145307,294,4
Jenkins,Georgia,32.79248718,-81.96040187,294,24
Muskingum,Ohio,39.96575964,-81.94363275,294,1
Putnam,Ohio,41.02094889,-84.1336111,294,17
Crow Wing,Minnesota,46.48096553,-94.06755609,293,16
Franklin,Iowa,42.73270384,-93.26256925,292,16
Genesee,New York,43.0022601,-78.19135193,292,5
Webster,Mississippi,33.61300486,-89.28392912,292,13
Ionia,Michigan,42.94502238,-85.07413319,291,7
Carroll,Mississippi,33.44834567,-89.91994479,290,11
Newaygo,Michigan,43.554374,-85.80070107,290,0
Camp,Texas,32.97195142,-94.97790104,289,8
Chisago,Minnesota,45.5021011,-92.90861945,289,1
Gunnison,Colorado,38.66611652,-107.0320729,289,7
Uinta,Wyoming,41.2878183,-110.5475782,289,0
Columbia,Arkansas,33.21230701,-93.22642793,288,14
Ohio,West Virginia,40.0955451,-80.62203992,288,5
Pecos,Texas,30.78097267,-102.7241261,288,3
Iroquois,Illinois,40.74717633,-87.82466784,287,18
Madison,Arkansas,36.01038185,-93.72524943,287,2
Mercer,West Virginia,37.40481169,-81.11023142,287,22
Oswego,New York,43.42778894,-76.14635194,287,3
Perry,Mississippi,31.17161885,-88.99281835,287,9
Warren,North Carolina,36.39728256,-78.10652228,287,6
Humacao,Puerto Rico,18.145211,-65.810174,286,0
Allendale,South Carolina,32.98837386,-81.35321066,285,6
Decatur,Tennessee,35.60048904,-88.11043779,285,4
Greene,Mississippi,31.21444233,-88.63922281,285,14
Harvey,Kansas,38.04293782,-97.42747573,285,4
Dooly,Georgia,32.15630737,-83.79746561,284,14
Stoddard,Missouri,36.85571651,-89.9444155,284,9
Lincoln,Oklahoma,35.70270942,-96.8812462,283,8
Perry,Illinois,38.08510853,-89.36856219,283,8
Wilkinson,Georgia,32.80291082,-83.17140684,283,14
Bremer,Iowa,42.77461496,-92.31795937,282,7
Catano,Puerto Rico,18.437269,-66.143306,281,0
Logan,Oklahoma,35.91899576,-97.44352845,281,1
Pierce,Wisconsin,44.71850291,-92.4224416,281,5
Brunswick,Virginia,36.76366949,-77.8593436,279,2
Franklin City,Virginia,36.6831435,-76.93859681,279,6
Perry,Kentucky,37.25023553,-83.22922731,279,7
Seminole,Georgia,30.93464824,-84.86823924,279,8
Wayne,New York,43.15494365,-77.02976528,279,5
Hamilton,Iowa,42.38382428,-93.70197703,278,2
Harlan,Kentucky,36.85699301,-83.21899516,278,6
Natrona,Wyoming,42.96180148,-106.797885,278,0
Wayne,Tennessee,35.23868267,-87.78644456,278,2
Burleson,Texas,30.49273808,-96.62158484,277,6
Clinch,Georgia,30.91395822,-82.70432472,277,4
Screven,Georgia,32.74976524,-81.60779441,277,9
Fayette,Alabama,33.72076938,-87.73886638,276,6
Turner,Georgia,31.71612656,-83.62069378,276,19
Amador,California,38.44583082,-120.65696,275,14
Bradley,Arkansas,33.46755808,-92.15980837,275,5
Laclede,Missouri,37.65896829,-92.5888493,275,1
Polk,Missouri,37.6162296,-93.39828174,275,0
Sullivan,Indiana,39.08952258,-87.41414469,275,7
Caldwell,Louisiana,32.0902519,-92.11752148,274,3
Dinwiddie,Virginia,37.07544585,-77.63451754,274,8
Elmore,Idaho,43.3507101,-115.4701578,274,3
Greene,Alabama,32.85504247,-87.95684022,274,14
Little River,Arkansas,33.70375665,-94.23468591,274,14
Monroe,Wisconsin,43.94641218,-90.618819,274,2
Nez Perce,Idaho,46.32638236,-116.7500975,274,19
Wilkinson,Mississippi,31.16078225,-91.31018819,274,17
Amherst,Virginia,37.60308293,-79.14548696,273,1
Arkansas,Arkansas,34.29145151,-91.37277296,273,2
Lamb,Texas,34.06859623,-102.3516289,273,19
Oglethorpe,Georgia,33.8786296,-83.08278123,272,9
San Sebastian,Puerto Rico,18.328646,-66.971214,272,0
Pike,Georgia,33.09310242,-84.38790389,271,8
Amite,Mississippi,31.17467303,-90.80501621,270,7
Franklin,Indiana,39.4142482,-85.06062647,270,24
St. Lawrence,New York,44.4976179,-75.06550039,269,4
Cabo Rojo,Puerto Rico,18.040993,-67.154391,268,0
Island,Washington,48.14713305,-122.5216407,268,11
Rabun,Georgia,34.88389445,-83.40304637,268,5
Orocovis,Puerto Rico,18.215046,-66.433604,267,0
Howard,Texas,32.30621324,-101.4356444,266,8
Kemper,Mississippi,32.75462946,-88.64105766,266,15
Lamar,Alabama,33.77995024,-88.09668032,266,2
Washington,New York,43.31153794,-73.43043448,266,14
Lincoln,Nebraska,41.04658298,-100.7475374,265,2
Jefferson,Ohio,40.38614126,-80.76259514,264,4
Jersey,Illinois,39.08869046,-90.35393073,264,3
Grainger,Tennessee,36.27469206,-83.51254721,263,1
Otter Tail,Minnesota,46.40846929,-95.70835255,263,4
Washington,Idaho,44.45275475,-116.7847688,263,4
Cascade,Montana,47.30797024,-111.3467922,262,5
Green,Wisconsin,42.6794956,-89.60243287,261,1
Jennings,Indiana,38.99588883,-85.62710784,261,12
Stone,Missouri,36.75000327,-93.45256475,261,2
Harrison,West Virginia,39.2853852,-80.37919577,260,1
Kent,Maryland,39.24976208,-76.04741541,260,23
Marion,Illinois,38.64963204,-88.91899208,259,0
Zavala,Texas,28.86617238,-99.76050829,259,10
Cross,Arkansas,35.29631396,-90.77185818,258,5
Garvin,Oklahoma,34.70418038,-97.30811132,258,4
Barton,Kansas,38.47889676,-98.75636726,257,4
Putnam,West Virginia,38.50782345,-81.9082131,257,0
Las Piedras,Puerto Rico,18.187527,-65.869468,256,0
Adair,Kentucky,37.10459774,-85.28129668,255,19
Hockley,Texas,33.60771256,-102.3431676,255,5
Susquehanna,Pennsylvania,41.82147784,-75.80071959,255,27
Woodford,Illinois,40.78579374,-89.20973757,255,3
Orange,Virginia,38.24530219,-78.015604,254,3
Refugio,Texas,28.3238976,-97.15766311,254,10
Steuben,Indiana,41.64423868,-85.00101094,254,3
Cleburne,Arkansas,35.53864922,-92.02640019,253,6
Franklin,Kansas,38.56443815,-95.28644341,253,2
Hawaii,Hawaii,19.60121157,-155.5210167,253,0
Caroline,Virginia,38.02679129,-77.34901405,252,5
Radford,Virginia,37.12222899,-80.5602732,252,0
Cayey,Puerto Rico,18.102851,-66.14914,251,0
Carroll,Indiana,40.5807832,-86.56198812,250,12
Cass,Nebraska,40.90899107,-96.13971217,250,2
Audrain,Missouri,39.215877,-91.84242683,249,1
Cass,Texas,33.07499881,-94.34646905,249,9
Goodhue,Minnesota,44.40849741,-92.7234195,249,9
Tompkins,New York,42.44945765,-76.47229843,249,0
Allen,Kentucky,36.75197631,-86.19457544,248,9
San Lorenzo,Puerto Rico,18.147987,-65.976392,248,0
Cowley,Kansas,37.23781842,-96.83776647,247,3
Juana Diaz,Puerto Rico,18.050764,-66.494581,247,0
Lanier,Georgia,31.0382857,-83.06472457,247,5
Logan,Illinois,40.12581572,-89.36638784,247,1
Meade,South Dakota,44.56676791,-102.7162741,247,1
Robertson,Texas,31.02539637,-96.51272246,247,4
Sharkey,Mississippi,32.88149103,-90.8159538,247,8
Zapata,Texas,27.00156391,-99.16987152,247,4
Kingfisher,Oklahoma,35.94530008,-97.94193268,246,1
Grayson,Kentucky,37.46231118,-86.34248968,245,11
Lawrence,Arkansas,36.04188196,-91.10867198,245,10
Moca,Puerto Rico,18.377805,-67.080952,245,0
Shawano,Wisconsin,44.78902246,-88.76443896,245,0
Douglas,Wisconsin,46.43222285,-91.91595768,244,0
Gaines,Texas,32.74055318,-102.6353295,244,6
Stephens,Oklahoma,34.48556989,-97.85141892,244,4
Union,South Dakota,42.83112163,-96.6557828,244,4
Codington,South Dakota,44.97788119,-97.18827677,243,1
Montgomery,Illinois,39.23198845,-89.47809254,243,8
Champaign,Ohio,40.13923427,-83.76875242,242,2
Gray,Texas,35.40081878,-100.8129222,241,4
Ripley,Indiana,39.10235626,-85.26212744,241,8
Smyth,Virginia,36.84455636,-81.53344948,241,3
Warren,Illinois,40.84925021,-90.6147432,241,1
Hopkins,Texas,33.14875072,-95.56351139,240,7
Waseca,Minnesota,44.02211116,-93.58720034,240,2
Dare,North Carolina,35.66520691,-75.71767334,239,2
Louisa,Virginia,37.97850256,-77.96274807,239,2
Marquette,Michigan,46.4338914,-87.64043701,239,11
Botetourt,Virginia,37.55531756,-79.80982182,238,8
Casey,Kentucky,37.32533118,-84.92726209,238,11
Knox,Ohio,40.39830217,-82.42027563,238,13
Wayne,West Virginia,38.14901357,-82.42287994,238,9
Alamosa,Colorado,37.57250606,-105.7885451,237,9
Benton,Tennessee,36.07110411,-88.06849355,236,4
Clark,Kentucky,37.9689263,-84.14615986,236,8
Clark,Wisconsin,44.73483377,-90.61207486,236,8
Clay,Iowa,43.08247182,-95.15096481,236,2
Caswell,North Carolina,36.39312665,-79.33353281,235,2
Cidra,Puerto Rico,18.173559,-66.161179,235,0
Douglas,Nevada,38.912862,-119.6171333,235,1
Henry,Iowa,40.98767962,-91.54436349,235,4
McIntosh,Georgia,31.49683595,-81.40163426,235,4
Duval,Texas,27.68184592,-98.50864568,234,10
Lares,Puerto Rico,18.269035,-66.867236,234,0
Menominee,Michigan,45.58038692,-87.55370409,234,0
Choctaw,Oklahoma,34.02807439,-95.54771129,233,1
La Plata,Colorado,37.28632032,-107.8429014,233,2
Whitman,Washington,46.90022523,-117.5241763,233,0
Clinton,Ohio,39.41485808,-83.80852286,232,10
Desha,Arkansas,33.83011025,-91.25500948,232,5
Pontotoc,Oklahoma,34.72959848,-96.68337199,232,2
Clarke,Iowa,41.02868181,-93.78499767,231,3
Echols,Georgia,30.71101099,-82.89687287,231,2
McIntosh,Oklahoma,35.37235506,-95.66599306,231,4
Clay,South Dakota,42.91296147,-96.97656917,230,1
Klamath,Oregon,42.68762984,-121.6496461,230,2
Orange,Indiana,38.5411892,-86.49523093,230,24
Madison,Idaho,43.78141028,-111.6538474,229,0
Transylvania,North Carolina,35.20383864,-82.79638423,228,2
Calhoun,Georgia,31.53169785,-84.62725131,227,7
Logan,Ohio,40.38996525,-83.76784341,227,2
Montgomery,Kansas,37.19236568,-95.74329258,227,5
Lee,Illinois,41.74583951,-89.29977132,226,1
Washington,Ohio,39.45690571,-81.49121382,226,23
Cherokee,Kansas,37.16928494,-94.8462897,225,1
Juncos,Puerto Rico,18.223793,-65.909109,225,0
Latah,Idaho,46.81587887,-116.7113698,225,0
Boyd,Kentucky,38.36176608,-82.68652187,224,4
Brookings,South Dakota,44.36974375,-96.79079945,224,1
Chenango,New York,42.49430041,-75.60887553,224,7
Mingo,West Virginia,37.73048351,-82.13338365,224,5
Washington,Missouri,37.96130078,-90.87948158,224,1
Calaveras,California,38.20537103,-120.552913,223,2
Fluvanna,Virginia,37.84157909,-78.27715475,223,9
Hood River,Oregon,45.51872811,-121.6552036,223,0
Lafayette,Missouri,39.06986886,-93.78076396,223,2
Martin,Minnesota,43.67429718,-94.55099908,223,6
Penobscot,Maine,45.40194593,-68.65020455,223,6
Westmoreland,Virginia,38.11021557,-76.80213247,223,3
Clark,Arkansas,34.04613432,-93.17484713,222,3
Miller,Missouri,38.21450288,-92.42610898,222,1
Morrow,Ohio,40.5236356,-82.7892599,222,2
Castro,Texas,34.53016752,-102.2617243,221,4
Grays Harbor,Washington,47.14003705,-123.7820567,221,6
Hardin,Iowa,42.38353877,-93.23654611,221,1
Mississippi,Missouri,36.82516239,-89.29505753,221,0
Perry,Ohio,39.73508655,-82.23804971,221,6
Randolph,West Virginia,38.769899,-79.87919615,221,0
Wilcox,Georgia,31.97496928,-83.43438555,220,20
Adair,Missouri,40.19058551,-92.60078167,219,0
Emporia,Virginia,36.69455571,-77.53406129,219,15
Colonial Heights,Virginia,37.26420587,-77.39609676,218,22
Howell,Missouri,36.77383887,-91.88683935,218,3
Otero,New Mexico,32.61348406,-105.7417604,218,11
Polk,Arkansas,34.48254879,-94.22728802,218,4
Thurston,Nebraska,42.15725356,-96.54157099,218,4
Emmet,Iowa,43.37782951,-94.67858943,217,7
Jefferson,Mississippi,31.73397872,-91.03764977,217,8
Montcalm,Michigan,43.31082541,-85.15252824,217,3
Polk,North Carolina,35.27820615,-82.16812354,217,6
Union,Tennessee,36.28590426,-83.83651902,217,1
Unicoi,Tennessee,36.10890856,-82.43709629,216,1
Wilkes,Georgia,33.78290391,-82.74286107,216,3
Clearfield,Pennsylvania,41.00110782,-78.47592663,215,1
Cooper,Missouri,38.844478,-92.80896081,215,0
Fayette,West Virginia,38.02974928,-81.08286634,215,10
Gooding,Idaho,42.96927962,-114.8108306,215,1
Clay,Indiana,39.39561833,-87.11723506,214,5
Coshocton,Ohio,40.30096166,-81.91729018,214,9
Guayama,Puerto Rico,18.007516,-66.133908,214,0
Young,Texas,33.17659707,-98.68790885,214,6
Goochland,Virginia,37.71714806,-77.90381514,213,7
Patrick,Virginia,36.6801638,-80.2865648,213,11
Waynesboro,Virginia,38.06451466,-78.90293905,213,3
Hardin,Ohio,40.66015414,-83.65929931,212,13
Marion,West Virginia,39.50984542,-80.24244659,212,2
Shelby,Iowa,41.6850066,-95.31015553,212,1
Barry,Michigan,42.59513984,-85.30834519,210,2
Benson,North Dakota,48.0683985,-99.35916363,209,3
Bosque,Texas,31.89978581,-97.63613524,209,5
Comanche,Texas,31.94854689,-98.55876441,209,3
Floyd,Iowa,43.0600053,-92.78940097,209,3
Irwin,Georgia,31.60213036,-83.27501387,209,4
Saunders,Nebraska,41.2278103,-96.63773905,209,2
Mahaska,Iowa,41.33521503,-92.64083907,208,18
Benton,Oregon,44.49167306,-123.4316987,207,6
Bonner,Idaho,48.29996017,-116.6017932,207,0
Geary,Kansas,38.99871131,-96.7577178,207,2
Henry,Ohio,41.3339642,-84.06830637,207,3
Hughes,Oklahoma,35.04912569,-96.24921145,207,3
McPherson,Kansas,38.39184858,-97.64769869,207,1
Montgomery,Georgia,32.17201038,-82.53527476,207,2
Dallam,Texas,36.27787176,-102.6020725,206,7
Gem,Idaho,44.06482372,-116.398376,206,2
Posey,Indiana,38.02097333,-87.86480429,206,0
Salem,Virginia,37.2836193,-80.06219455,206,3
Tioga,New York,42.16852837,-76.30835812,206,25
Wasco,Oregon,45.16292781,-121.1670954,206,3
Washington,Indiana,38.60219804,-86.1049363,205,1
Cameron,Louisiana,29.87592238,-93.19310676,204,1
Clallam,Washington,48.04754642,-123.9226319,204,1
Florida,Puerto Rico,18.373715,-66.560488,204,0
Jackson,Tennessee,36.36380466,-85.67239905,203,1
Jefferson,Indiana,38.78576239,-85.43633383,203,3
Macon,Georgia,32.35207048,-84.04234127,203,10
Oneida,Wisconsin,45.70677897,-89.51944105,203,0
Pawnee,Oklahoma,36.31743373,-96.7033176,203,3
TriCounty,Utah,40.12491499,-109.5174415,203,1
Aguada,Puerto Rico,18.360255,-67.175131,202,0
Defiance,Ohio,41.32398837,-84.49076944,202,5
Douglas,Illinois,39.76768052,-88.21854195,202,4
Jackson,Kentucky,37.41866422,-83.99825483,202,15
Miller,Georgia,31.16568912,-84.73151117,202,0
Simpson,Kentucky,36.74058474,-86.58047435,202,7
Wells,Indiana,40.72934187,-85.22132966,202,2
Clay,Kentucky,37.16451126,-83.712575,201,6
Crawford,Pennsylvania,41.68447709,-80.10760592,201,2
Fulton,Indiana,41.0469907,-86.26252745,201,2
Webster,Missouri,37.2813734,-92.876329,201,1
Woodford,Kentucky,38.04178222,-84.7417556,201,0
Boyle,Kentucky,37.62680923,-84.8633779,200,0
Dawson,Texas,32.74255572,-101.9477242,200,8
Halifax,Virginia,36.76654925,-78.93512622,200,2
King George,Virginia,38.26818502,-77.15852768,200,4
Wabash,Indiana,40.84704239,-85.79328272,200,5
Whitley,Indiana,41.13863784,-85.50791236,200,6
Bailey,Texas,34.06854817,-102.8299707,199,4
Brooks,Texas,27.03103197,-98.21808402,199,16
Chowan,North Carolina,36.12908077,-76.60118385,199,2
Coamo,Puerto Rico,18.097597,-66.36014,199,0
Lake,Montana,47.64514965,-114.0898013,199,1
San Jacinto,Texas,30.57933681,-95.16260304,199,8
Starke,Indiana,41.27890281,-86.64686895,199,7
Aransas,Texas,28.10556197,-96.9995047,198,16
Gillespie,Texas,30.31824095,-98.94676915,198,6
Gloucester,Virginia,37.40809042,-76.53524337,198,2
Jackson,West Virginia,38.84263974,-81.68148753,198,19
Jayuya,Puerto Rico,18.211446,-66.58878,198,0
Montgomery,New York,42.90123494,-74.44011632,198,4
Terry,Texas,33.17402785,-102.3354521,198,3
Winneshiek,Iowa,43.29094334,-91.84422722,198,1
Brown,Ohio,38.93416837,-83.86788395,197,2
Greene,Virginia,38.29545894,-78.46525378,197,3
Huron,Michigan,43.83353985,-83.04078453,197,4
Perry,Indiana,38.07809328,-86.63741946,197,13
Treutlen,Georgia,32.40422134,-82.56904553,197,3
Conway,Arkansas,35.26205537,-92.70506566,196,3
Cottonwood,Minnesota,44.00715262,-95.18138802,196,0
Kendall,Texas,29.94414155,-98.7113588,196,4
Pitkin,Colorado,39.21720112,-106.9310027,196,2
Alleghany,North Carolina,36.49360862,-81.12857041,195,0
Christian,Illinois,39.54581621,-89.27780482,195,4
Roosevelt,New Mexico,34.02097406,-103.4799493,195,1
Rosebud,Montana,46.23397237,-106.729288,195,2
Shoshone,Idaho,47.35364087,-115.8916749,195,12
Towns,Georgia,34.91369188,-83.7410746,195,5
Benton,Mississippi,34.81681228,-89.18945516,194,1
Chemung,New York,42.13891056,-76.7638805,194,3
Franklin,Virginia,36.99536167,-79.88023649,194,1
Jasper,Georgia,33.31535543,-83.68844964,194,3
Lewis and Clark,Montana,47.12610041,-112.394698,194,2
Cleburne,Alabama,33.67679204,-85.52005899,193,4
Jackson,Iowa,42.17178824,-90.57354837,193,1
Lee,Texas,30.31120597,-96.97045773,193,13
Taylor,Kentucky,37.3677562,-85.3329931,193,4
Yankton,South Dakota,43.00924485,-97.39467635,193,3
Pulaski,Georgia,32.23334561,-83.4754996,192,7
Crawford,Ohio,40.85065156,-82.91989099,191,5
Isabela,Puerto Rico,18.44981,-67.005093,191,0
Lincoln,Georgia,33.79201475,-82.45024131,191,6
Morgan,Tennessee,36.13248031,-84.64880098,191,1
Nottoway,Virginia,37.1435975,-78.05065922,191,14
Ashe,North Carolina,36.43296207,-81.49862729,190,1
Carroll,Kentucky,38.66599534,-85.12601074,190,2
Benton,Iowa,42.08011739,-92.06463573,189,1
Brewster,Texas,29.81008251,-103.2520326,189,2
Delaware,Iowa,42.47104597,-91.3664492,189,3
Fentress,Tennessee,36.38128818,-84.92870012,189,0
Polk,Minnesota,47.77372465,-96.40134647,189,4
Tuolumne,California,38.02644018,-119.9525093,189,2
Aguas Buenas,Puerto Rico,18.251619,-66.126806,188,0
Camuy,Puerto Rico,18.418578,-66.860206,188,0
Cannon,Tennessee,35.80990797,-86.05738983,188,0
Cattaraugus,New York,42.24778241,-78.67923096,188,6
Juneau,Wisconsin,43.92456975,-90.11120239,188,1
Miami,Kansas,38.56383358,-94.83832189,188,0
Dade,Georgia,34.8549167,-85.50490424,187,3
Greenup,Kentucky,38.54332505,-82.9215658,187,2
Jackson,Kansas,39.41673394,-95.79356799,187,1
Pawnee,Kansas,38.18108732,-99.23692334,187,0
Somerset,Maryland,38.1163542,-75.75118623,187,3
Yabucoa,Puerto Rico,18.070399,-65.896289,187,0
Ciales,Puerto Rico,18.28885,-66.516475,186,0
Highland,Ohio,39.1839264,-83.60331456,186,3
San Augustine,Texas,31.39457611,-94.17000399,186,12
San German,Puerto Rico,18.111484,-67.038581,186,0
Whitley,Kentucky,36.75700531,-84.14541217,186,2
Becker,Minnesota,46.93479392,-95.67158144,185,2
Carbon,Wyoming,41.69357844,-106.9326084,185,0
Lafayette,Wisconsin,42.66005229,-90.1317729,185,0
Runnels,Texas,31.8314342,-99.97616148,185,3
Grayson,Virginia,36.65677234,-81.23215889,184,6
Kennebec,Maine,44.40759555,-69.76738544,184,11
Tazewell,Virginia,37.12191123,-81.56685568,184,1
Hatillo,Puerto Rico,18.410928,-66.796326,183,0
Marshall,Kentucky,36.8800707,-88.32803576,183,2
Powhatan,Virginia,37.55016038,-77.91267882,183,4
Stone,Arkansas,35.86251946,-92.15684085,183,2
Anasco,Puerto Rico,18.287985,-67.120611,182,0
Butler,Iowa,42.73172833,-92.79015971,182,2
Carlton,Minnesota,46.59180601,-92.67601019,182,1
Fayette,Ohio,39.56021306,-83.4562016,182,3
Gratiot,Michigan,43.29265605,-84.60505416,182,15
Itasca,Minnesota,47.51009045,-93.63092229,181,12
Livingston,New York,42.72596275,-77.77966158,181,8
Moniteau,Missouri,38.63571781,-92.57976951,181,2
O'Brien,Iowa,43.08310673,-95.62474482,181,7
Poweshiek,Iowa,41.68625425,-92.53155731,181,8
Wyandot,Ohio,40.84339621,-83.30734173,181,10
Jackson,Arkansas,35.59802983,-91.21494602,180,1
Phelps,Missouri,37.87736118,-91.79351727,180,0
Fulton,Ohio,41.60213491,-84.12571393,179,1
Livingston,Illinois,40.89188292,-88.55784752,179,4
Pipestone,Minnesota,44.02301619,-96.25841142,179,9
Lee,Virginia,36.70586667,-83.12606515,178,3
Leon,Texas,31.29872538,-95.9936328,178,4
Montgomery,Kentucky,38.03253032,-83.9145241,178,1
Adams,Indiana,40.7457653,-84.93671406,177,2
Grant,Arkansas,34.29017991,-92.42320562,177,1
Cayuga,New York,42.91261714,-76.55731592,176,2
Dimmit,Texas,28.42270064,-99.75645095,176,6
Loiza,Puerto Rico,18.425688,-65.89943,176,0
McDonough,Illinois,40.45674722,-90.67775541,176,15
Shelby,Illinois,39.39133527,-88.80611122,176,3
Tipton,Indiana,40.31123252,-86.05234925,176,19
Clayton,Iowa,42.84443388,-91.34133693,175,3
Tyler,Texas,30.77031716,-94.37690895,175,3
Wayne,Pennsylvania,41.64938475,-75.29956506,175,10
Douglas,Oregon,43.27941273,-123.167291,174,2
Klickitat,Washington,45.87325839,-120.7913598,174,3
Long,Georgia,31.75218791,-81.74952375,174,2
Russell,Virginia,36.9302832,-82.10095486,174,4
Labette,Kansas,37.19113093,-95.29849679,173,1
Trinity,Texas,31.0879489,-95.1367187,173,5
Allamakee,Iowa,43.28383218,-91.37860922,172,4
Campbell,Wyoming,44.24886082,-105.5474404,172,0
Inyo,California,36.51112084,-117.4111978,172,13
Perry,Pennsylvania,40.40206612,-77.26297447,172,5
Jo Daviess,Illinois,42.36542373,-90.21094405,171,2
Lawrence,South Dakota,44.35919441,-103.7929428,171,2
Marion,Kentucky,37.55218078,-85.26898542,171,2
Sullivan,Missouri,40.2099105,-93.11150106,171,0
Washington,Nebraska,41.52815707,-96.22019892,171,1
Buchanan,Iowa,42.4709188,-91.83510825,170,1
Clay,Arkansas,36.36826212,-90.4148172,170,5
Franklin,Mississippi,31.47786634,-90.89672989,170,3
Staunton,Virginia,38.15965544,-79.05979937,170,0
Washington,North Carolina,35.83810081,-76.57299037,170,4
Isanti,Minnesota,45.56181234,-93.29487636,169,0
Luquillo,Puerto Rico,18.342114,-65.725097,169,0
Oglala Lakota,South Dakota,43.33749164,-102.5555498,169,2
Reeves,Texas,31.32323325,-103.6903896,169,5
