county,state,Lat,Long_,Confirmed,Deaths
New York City,New York,40.7672726,-73.97152637,222832,23463
Los Angeles,California,34.30828379,-118.2282411,166868,4263
Maricopa,Arizona,33.34835867,-112.4918154,102247,1651
Cook,Illinois,41.84144849,-87.81658794,100795,4810
Miami-Dade,Florida,25.6112362,-80.55170587,95068,1354
Harris,Texas,29.86,-95.39,61411,597
Broward,Florida,26.15184651,-80.48725556,45010,536
Dallas,Texas,32.76670599,-96.7779605,44087,579
Nassau,New York,40.74066522,-73.58941873,42816,2193
Suffolk,New York,40.88320119,-72.8012172,42715,1995
Westchester,New York,41.16278376,-73.75741653,35667,1443
Bexar,Texas,29.44928723,-98.52019748,34663,298
Clark,Nevada,36.21458855,-115.0130241,34209,580
Riverside,California,33.74314981,-115.9933578,32813,637
Orange,California,33.70147516,-117.7645998,32648,543
Philadelphia,Pennsylvania,40.00338507,-75.1379271,29102,1675
Palm Beach,Florida,26.64676272,-80.46536002,28267,727
San Bernardino,California,34.84060306,-116.1774685,26185,358
Wayne,Michigan,42.28098405,-83.281255,25649,2788
San Diego,California,33.03484597,-116.7365326,25608,512
Hillsborough,Florida,27.9276559,-82.32013172,25432,278
Orange,Florida,28.51367621,-81.31799498,25254,156
Middlesex,Massachusetts,42.48607732,-71.39049229,25123,1951
Tarrant,Texas,32.77143818,-97.29101614,23967,319
Prince George's,Maryland,38.83070039,-76.8496441,21038,725
Suffolk,Massachusetts,42.3279514,-71.07850442,20732,1042
Bergen,New Jersey,40.96010917,-74.07164325,20133,2034
Hudson,New Jersey,40.73766234,-74.07515667,19289,1494
Essex,New Jersey,40.78681335,-74.24657979,19198,2094
Travis,Texas,30.33432034,-97.7853562,18696,222
Mecklenburg,North Carolina,35.24469268,-80.8317671,18403,181
Duval,Florida,30.33225875,-81.66976468,18357,113
Middlesex,New Jersey,40.43629879,-74.41426991,17442,1396
Salt Lake,Utah,40.66616532,-111.9216011,17353,152
Shelby,Tennessee,35.1864775,-89.89692423,17278,260
Passaic,New Jersey,41.03238628,-74.29954144,17214,1238
Milwaukee,Wisconsin,43.00486062,-87.96733172,17197,422
Fairfield,Connecticut,41.26809896,-73.3881171,17184,1401
Davidson,Tennessee,36.17007426,-86.78646056,16956,179
Essex,Massachusetts,42.6687626,-70.94687179,16856,1157
Montgomery,Maryland,39.13676329,-77.20358245,16654,781
Union,New Jersey,40.65835409,-74.30680092,16297,1343
Hennepin,Minnesota,45.00761521,-93.47694895,15537,804
Fairfax,Virginia,38.83677558,-77.27565836,15126,511
Franklin,Ohio,39.96995815,-83.01115755,14993,484
Fulton,Georgia,33.79216944,-84.46319413,14673,356
Gwinnett,Georgia,33.96044201,-84.02137802,14442,209
Pinellas,Florida,27.93130349,-82.72239666,14371,364
Pima,Arizona,32.0971334,-111.7890033,14143,405
Providence,Rhode Island,41.87064746,-71.57753536,14033,0
King,Washington,47.49137892,-121.8346131,13835,638
Rockland,New York,41.15027894,-74.02560498,13820,673
Hidalgo,Texas,26.39418217,-98.18299696,13776,400
Lee,Florida,26.58410348,-81.88399313,13768,247
Oakland,Michigan,42.66090111,-83.38595416,13711,1122
Marion,Indiana,39.78163624,-86.13826325,13245,711
Worcester,Massachusetts,42.35026951,-71.90493363,12972,974
Jefferson,Louisiana,29.74075478,-90.11115756,12945,507
New Haven,Connecticut,41.4080325,-72.93620426,12835,1093
El Paso,Texas,31.76980765,-106.2363275,12501,211
Kern,California,35.34329425,-118.7277796,12323,115
Hartford,Connecticut,41.80283011,-72.73103891,12145,1408
Fresno,California,36.75733899,-119.6466953,11756,104
Washington,D.C.,38.90417773,-77.01655992,11571,581
Cuyahoga,Ohio,41.424119,-81.65918339,11206,435
Lake,Illinois,42.3224907,-88.00367925,11159,438
Orange,New York,41.40337468,-74.30240757,10968,489
DuPage,Illinois,41.85116968,-88.08642662,10627,502
Polk,Florida,27.95027105,-81.69732947,10545,203
DeKalb,Georgia,33.76944049,-84.22396017,10480,199
Baltimore,Maryland,39.45784712,-76.62911955,10345,520
Charleston,South Carolina,32.82487866,-79.96512315,10134,120
Ocean,New Jersey,39.8895449,-74.28089251,10074,1012
Nueces,Texas,27.736286,-97.5433285,9961,124
St. Louis,Missouri,38.6377004,-90.4458375,9944,626
Alameda,California,37.64629437,-121.8929271,9869,173
Norfolk,Massachusetts,42.16073095,-71.20530408,9849,974
Baltimore City,Maryland,39.30211911,-76.61151012,9842,392
San Joaquin,California,37.93433732,-121.2730061,9826,107
Yuma,Arizona,32.76895712,-113.9066674,9794,210
Monmouth,New Jersey,40.26549699,-74.22240686,9748,851
Orleans,Louisiana,30.06971951,-89.92660315,9649,546
Jefferson,Alabama,33.55554728,-86.895063,9552,197
Cobb,Georgia,33.94243204,-84.5761255,9380,276
Wake,North Carolina,35.78879266,-78.65249174,9377,99
Yakima,Washington,46.45738486,-120.7380126,9367,194
Montgomery,Pennsylvania,40.21053671,-75.36652296,9311,842
Douglas,Nebraska,41.29518299,-96.15085305,9180,121
East Baton Rouge,Louisiana,30.53842039,-91.09777565,9169,301
Greenville,South Carolina,34.89502264,-82.37295012,8965,142
Plymouth,Massachusetts,41.94070556,-70.80802823,8940,701
Imperial,California,33.0393082,-115.3669042,8919,170
Denver,Colorado,39.76018276,-104.8725695,8809,403
Bristol,Massachusetts,41.79228404,-71.10872211,8788,615
Polk,Iowa,41.68679484,-93.57767461,8786,191
Macomb,Michigan,42.69158356,-82.92752801,8649,936
Kane,Illinois,41.93842729,-88.42861412,8544,294
Santa Clara,California,37.23104908,-121.6970462,8533,181
Collier,Florida,26.11091986,-81.34687065,8401,114
Prince William,Virginia,38.70916224,-77.48713689,8321,165
Sacramento,California,38.45106826,-121.3425374,8247,98
Hamilton,Ohio,39.19673558,-84.54502924,8203,224
Erie,New York,42.76249024,-78.73063652,8187,663
Delaware,Pennsylvania,39.91680171,-75.40243663,8049,676
Will,Illinois,41.44619267,-87.97862712,7925,338
Camden,New Jersey,39.80343818,-74.96388753,7910,564
Tulare,California,36.22026558,-118.8020203,7876,168
Mercer,New Jersey,40.28047017,-74.70479631,7869,608
Galveston,Texas,29.40167322,-94.90469073,7794,68
Stanislaus,California,37.55862499,-120.9970722,7401,79
Manatee,Florida,27.47196942,-82.31831044,7252,152
Hampden,Massachusetts,42.13440424,-72.63235561,7220,681
Horry,South Carolina,33.9212828,-78.99555293,7178,98
Morris,New Jersey,40.86095313,-74.5455371,7016,827
Oklahoma,Oklahoma,35.55140095,-97.40716948,6981,85
Pinal,Arizona,32.90525627,-111.3449483,6974,114
Tulsa,Oklahoma,36.11939621,-95.94013939,6856,89
Cameron,Texas,26.14524221,-97.48140372,6854,137
Osceola,Florida,28.06312234,-81.14882926,6844,49
Allegheny,Pennsylvania,40.46809875,-79.98167747,6817,214
Mobile,Alabama,30.78472347,-88.20842409,6797,170
Utah,Utah,40.1166722,-111.6657662,6753,31
Richland,South Carolina,34.01791263,-80.90267209,6687,122
Ada,Idaho,43.4526575,-116.2415516,6587,42
Kent,Michigan,43.03197711,-85.54934642,6568,150
Bucks,Pennsylvania,40.33682119,-75.10836643,6542,574
Lake,Indiana,41.41874274,-87.38277575,6469,259
Escambia,Florida,30.67652764,-87.37284571,6461,73
Contra Costa,California,37.91923498,-121.9289527,6425,102
Fort Bend,Texas,29.52704478,-95.77219463,6352,85
New Castle,Delaware,39.57992638,-75.64054974,6296,253
Arapahoe,Colorado,39.64977461,-104.3353617,6276,360
Ventura,California,34.44465746,-119.0910613,6156,63
Anne Arundel,Maryland,39.00670238,-76.60329337,6144,214
Ramsey,Minnesota,45.01625271,-93.09872295,5985,253
Volusia,Florida,29.05858895,-81.18263252,5803,92
Collin,Texas,33.18820114,-96.57264368,5748,72
Seminole,Florida,28.7158582,-81.24060348,5736,56
Jefferson,Kentucky,38.18664655,-85.65931031,5635,216
San Francisco,California,37.75215114,-122.4385672,5564,55
Denton,Texas,33.20521901,-97.11691153,5544,46
Burlington,New Jersey,39.87681124,-74.66927768,5502,468
Lafayette,Louisiana,30.2049055,-92.06959876,5458,71
Washington,Arkansas,35.976844,-94.21800746,5451,40
Montgomery,Texas,30.30079133,-95.50572772,5444,53
Santa Barbara,California,34.65329488,-120.0188492,5444,32
Montgomery,Alabama,32.2206831,-86.20969272,5429,130
Sussex,Delaware,38.66143781,-75.39031349,5407,180
Pasco,Florida,28.30810945,-82.40227529,5363,65
Caddo,Louisiana,32.57991587,-93.88375652,5357,263
Adams,Colorado,39.87432092,-104.3362578,5312,167
Durham,North Carolina,36.03638492,-78.87608331,5269,74
Brazoria,Texas,29.18757369,-95.44563172,5177,35
Williamson,Texas,30.64655664,-97.6004854,5145,89
Lancaster,Pennsylvania,40.03904563,-76.24770128,5122,395
Somerset,New Jersey,40.56465737,-74.61683016,5094,550
Rutherford,Tennessee,35.84591405,-86.4107263,5016,45
Calcasieu,Louisiana,30.22931235,-93.35400434,4995,92
Navajo,Arizona,35.3997715,-110.3218983,4992,165
Berks,Pennsylvania,40.41570541,-75.92457766,4919,362
San Mateo,California,37.4228808,-122.3275546,4885,114
Lubbock,Texas,33.61008596,-101.8204789,4769,68
Loudoun,Virginia,39.08990083,-77.63481877,4758,106
Hall,Georgia,34.32207823,-83.81896936,4706,69
Jefferson,Texas,29.8832777,-94.16434171,4697,49
Brevard,Florida,28.29409504,-80.73091022,4658,60
Sarasota,Florida,27.18546175,-82.33174248,4644,110
Lehigh,Pennsylvania,40.6154815,-75.59435245,4609,334
Hamilton,Tennessee,35.17670231,-85.16652245,4604,41
Snohomish,Washington,48.04615983,-121.7170703,4562,182
Marin,California,38.07122463,-122.7210631,4522,50
Chester,Pennsylvania,39.97291773,-75.74768357,4517,342
Monroe,New York,43.14638895,-77.69322942,4511,277
Guilford,North Carolina,36.07959451,-79.78824948,4486,134
Webb,Texas,27.7610369,-99.33237355,4472,77
Forsyth,North Carolina,36.12859861,-80.25459052,4402,41
Dutchess,New York,41.7648606,-73.74356679,4400,153
Kansas City,Missouri,39.0997,-94.5786,4366,43
Washoe,Nevada,40.66562265,-119.6631594,4332,105
Elkhart,Indiana,41.59761169,-85.85875695,4189,70
Johnson,Kansas,38.88548175,-94.82250877,4161,96
Bernalillo,New Mexico,35.05163625,-106.6703554,4131,106
Pierce,Washington,47.03892768,-122.1405958,4123,117
Michigan Department of Corrections (MDOC),Michigan,,,4120,68
Hays,Texas,30.05669873,-98.02944344,4091,22
Hinds,Mississippi,32.2656285,-90.44435448,4070,78
Benton,Arkansas,36.33644656,-94.25680817,4068,30
Pulaski,Arkansas,34.77054088,-92.31355101,4044,70
St. Tammany,Louisiana,30.40942847,-89.95642711,4022,190
St. Lucie,Florida,27.37763908,-80.47106649,4004,94
Lexington,South Carolina,33.89665987,-81.27146426,3954,79
Chatham,Georgia,32.00043026,-81.12489526,3928,44
Minnehaha,South Dakota,43.67441641,-96.7910885,3920,62
Wyandotte,Kansas,39.11727348,-94.76378225,3894,90
Madison,Alabama,34.76327133,-86.55069633,3886,16
El Paso,Colorado,38.83240149,-104.5251411,3864,122
Lucas,Ohio,41.62101218,-83.65468618,3853,310
Ouachita,Louisiana,32.47645559,-92.15704172,3845,97
McKinley,New Mexico,35.5800772,-108.262245,3844,209
Lake,Florida,28.76202069,-81.7125123,3757,37
Multnomah,Oregon,45.54747959,-122.4169351,3743,76
Clayton,Georgia,33.54187245,-84.35594188,3737,89
St. Louis City,Missouri,38.63555736,-90.24349225,3733,164
Monterey,California,36.21862405,-121.2413397,3726,22
Kings,California,36.07409056,-119.8159973,3696,45
McLennan,Texas,31.55255453,-97.20217694,3688,28
Northampton,Pennsylvania,40.75182733,-75.30471829,3686,288
Canyon,Idaho,43.61970148,-116.7095499,3683,23
Dane,Wisconsin,43.06601594,-89.41733797,3669,33
Brown,Wisconsin,44.4526553,-88.00411844,3667,49
Muscogee,Georgia,32.50931999,-84.87142262,3642,72
Chesterfield,Virginia,37.37373208,-77.5868014,3609,65
Hillsborough,New Hampshire,42.91537785,-71.7200253,3590,270
Brazos,Texas,30.6636448,-96.30205577,3522,42
Woodbury,Iowa,42.38979414,-96.0459439,3514,47
Leon,Florida,30.45955727,-84.27491114,3480,13
Jefferson,Colorado,39.58635604,-105.2517692,3462,220
Winnebago,Illinois,42.33641854,-89.16085327,3418,113
Onondaga,New York,43.00491923,-76.19971155,3344,194
Tuscaloosa,Alabama,33.28726072,-87.52556818,3328,57
Weld,Colorado,40.55499405,-104.3929621,3319,139
Martin,Florida,27.0772071,-80.43109784,3314,58
Spartanburg,South Carolina,34.92960077,-81.99225984,3298,69
Potter,Texas,35.40133773,-101.893964,3294,42
Montgomery,Ohio,39.75394919,-84.29050975,3283,51
Dakota,Minnesota,44.67172617,-93.06299363,3263,101
Berkeley,South Carolina,33.20222596,-79.94654523,3258,41
Allen,Indiana,41.09194313,-85.06800636,3245,149
Howard,Maryland,39.25305293,-76.93126208,3242,100
Genesee,Michigan,43.02244215,-83.70589709,3221,294
Atlantic,New Jersey,39.47538693,-74.65848483,3169,240
Henrico,Virginia,37.53460572,-77.39326555,3139,177
Merced,California,37.18922369,-120.7209035,3123,27
Sedgwick,Kansas,37.6842718,-97.4608198,3114,33
Cumberland,New Jersey,39.37199394,-75.10712559,3100,154
Luzerne,Pennsylvania,41.17823008,-75.98447579,3091,183
Solano,California,38.26827353,-121.9357113,3070,35
Virginia Beach,Virginia,36.73285734,-76.04566934,3030,39
Benton,Washington,46.23946995,-119.5120834,3017,103
Spokane,Washington,47.62113146,-117.4046494,2970,47
St. Clair,Illinois,38.46996033,-89.93063427,2951,152
Bell,Texas,31.03736027,-97.4785025,2931,18
Marion,Florida,29.21227113,-82.05803627,2927,38
Franklin,Washington,46.53351425,-118.9018212,2907,44
Gloucester,New Jersey,39.71581067,-75.13995546,2894,200
Alachua,Florida,29.67866525,-82.35928158,2890,16
San Juan,New Mexico,36.50838318,-108.320437,2890,176
Anoka,Minnesota,45.27476015,-93.24604565,2848,111
Apache,Arizona,35.39465006,-109.4892383,2841,117
Frederick,Maryland,39.47296601,-77.39999394,2820,120
Marion,Ohio,40.58610662,-83.15736305,2807,41
Racine,Wisconsin,42.74753117,-88.05941254,2794,69
Coconino,Arizona,35.83883429,-111.7707178,2778,110
Arlington,Virginia,38.8767675,-77.10139853,2776,135
Black Hawk,Iowa,42.4704581,-92.30524729,2774,61
Summit,Ohio,41.12464734,-81.53123079,2771,212
Cass,North Dakota,46.93201724,-97.2444719,2734,75
Beaufort,South Carolina,32.39226291,-80.72619758,2725,31
Sumner,Tennessee,36.46824103,-86.45917204,2721,65
Williamson,Tennessee,35.89099229,-86.89281867,2717,21
St. Johns,Florida,29.90096506,-81.43589967,2708,17
Knox,Tennessee,35.99508821,-83.94635435,2703,21
Victoria,Texas,28.79780988,-96.96813006,2681,24
Stearns,Minnesota,45.55192576,-94.61078221,2678,19
Richmond City,Virginia,37.53255773,-77.47966921,2670,35
DeSoto,Mississippi,34.87625235,-89.99091418,2668,21
York,South Carolina,34.97281497,-81.18085944,2667,18
Lancaster,Nebraska,40.78416049,-96.68777155,2661,14
Walker,Texas,30.73872995,-95.57440968,2661,28
Ector,Texas,31.86898877,-102.5429428,2659,34
St. Joseph,Indiana,41.61756781,-86.29040834,2650,75
Alexandria,Virginia,38.814003,-77.08183073,2639,56
Waukesha,Wisconsin,43.01833055,-88.30431188,2632,42
Tangipahoa,Louisiana,30.62888673,-90.40664996,2624,53
Southwest Utah,Utah,37.85447192,-111.4418764,2594,21
McHenry,Illinois,42.32451172,-88.45248227,2593,111
Marshall,Alabama,34.36975964,-86.30486727,2546,21
Rapides,Louisiana,31.19778499,-92.52997303,2538,94
Mohave,Arizona,35.70471703,-113.7577902,2525,129
Richmond,Georgia,33.35777107,-82.07026432,2524,73
Johnston,North Carolina,35.51745004,-78.36622717,2522,41
Davis,Utah,40.99001837,-112.1139997,2520,9
Bibb,Georgia,32.80904227,-83.70489165,2507,49
Gaston,North Carolina,35.29373559,-81.17477045,2500,22
Lowndes,Georgia,30.83568832,-83.27056716,2495,23
Norfolk,Virginia,36.89934014,-76.26420872,2489,20
Dauphin,Pennsylvania,40.41377078,-76.77993242,2480,152
Whitfield,Georgia,34.80987459,-84.96093476,2479,23
Shelby,Alabama,33.26879845,-86.66232561,2459,28
Santa Cruz,Arizona,31.52508998,-110.8479088,2424,44
Baldwin,Alabama,30.72774991,-87.72207058,2423,16
Dougherty,Georgia,31.53328528,-84.21722377,2411,159
Albany,New York,42.60060306,-73.97723916,2401,122
Henry,Georgia,33.4533428,-84.1481466,2389,37
Bay,Florida,30.26548745,-85.62122584,2356,14
Union,North Carolina,34.98960527,-80.52955873,2356,34
Washington,Oregon,45.55972701,-123.0955257,2352,22
Clay,Florida,29.98319144,-81.85609986,2330,45
Cherokee,Georgia,34.24393976,-84.47431861,2312,50
Sonoma,California,38.52746429,-122.8862506,2300,22
Pickaway,Ohio,39.64170392,-83.0243386,2298,42
Dorchester,South Carolina,33.0794369,-80.40502652,2287,25
Marion,Oregon,44.90287942,-122.5815117,2277,63
Butler,Ohio,39.44012838,-84.57388716,2269,53
Florence,South Carolina,34.02361754,-79.70189312,2258,74
Terrebonne,Louisiana,29.37343766,-90.82626855,2254,69
Fayette,Kentucky,38.0368225,-84.45576892,2233,42
Jackson,Missouri,39.01002188,-94.34724536,2233,50
Weber-Morgan,Utah,41.27116049,-111.9145117,2201,24
Washtenaw,Michigan,42.253105,-83.83853204,2195,110
Lafourche,Louisiana,29.52470226,-90.40976986,2194,94
Mahoning,Ohio,41.01631101,-80.77287029,2188,241
Ellis,Texas,32.34894117,-96.79371841,2183,21
Lee,Alabama,32.60154883,-85.35132246,2172,40
Wayne,North Carolina,35.36438125,-78.00027268,2167,35
Livingston,Louisiana,30.44143993,-90.73061664,2166,46
St. Charles,Missouri,38.77875681,-90.66662425,2151,79
Santa Rosa,Florida,30.6934145,-87.02458128,2147,19
Kenosha,Wisconsin,42.57639354,-88.04051686,2144,49
Cumberland,North Carolina,35.04762133,-78.82623165,2142,48
Okaloosa,Florida,30.69143028,-86.59267105,2134,16
Ascension,Louisiana,30.20406249,-90.9132841,2132,65
Warren,Kentucky,36.99903045,-86.42672751,2105,19
York,Pennsylvania,39.9210089,-76.73040131,2098,78
Acadia,Louisiana,30.2950649,-92.41419698,2084,61
Hamilton,Indiana,40.07306535,-86.05244729,2082,103
Anderson,Texas,31.81534745,-95.65354823,2077,4
Robeson,North Carolina,34.64244496,-79.1025053,2071,50
Kent,Delaware,39.08646628,-75.56884914,2058,87
Cabarrus,North Carolina,35.3877799,-80.55267168,2050,37
Glynn,Georgia,31.23279254,-81.53811412,2008,13
Smith,Texas,32.37474036,-95.2717568,2006,11
Bear River,Utah,41.52106798,-113.0832816,2000,5
Troup,Georgia,33.03349196,-85.02812115,1999,50
Ford,Kansas,37.69200114,-99.88825298,1994,8
New Hanover,North Carolina,34.25758282,-77.87075626,1991,14
Cumberland,Maine,43.8370751,-70.37226999,1986,68
Oneida,New York,43.24375382,-75.43710392,1980,111
Sumter,South Carolina,33.91826534,-80.37942316,1970,35
Douglas,Georgia,33.70291126,-84.77026156,1914,44
Ulster,New York,41.89027881,-74.26252104,1911,90
Madison,Mississippi,32.63389156,-90.03513564,1893,50
Cleveland,Oklahoma,35.20413532,-97.32519562,1887,40
Dakota,Nebraska,42.39040144,-96.56656425,1880,38
Chesapeake,Virginia,36.67670048,-76.30545744,1867,24
Dona Ana,New Mexico,32.35275771,-106.8329387,1864,15
Iberia,Louisiana,29.86803617,-91.75871777,1852,56
Alamance,North Carolina,36.0434701,-79.39976137,1842,40
Lackawanna,Pennsylvania,41.43564672,-75.60379201,1833,212
Morgan,Alabama,34.45500589,-86.85475946,1830,11
Randolph,North Carolina,35.71015088,-79.80570339,1829,36
Duplin,North Carolina,34.93449805,-77.93140529,1820,40
San Juan,Puerto Rico,18.386933,-66.061128,1801,0
Rowan,North Carolina,35.64003916,-80.52446628,1794,45
Columbia,Florida,30.22509788,-82.62160164,1792,7
Tom Green,Texas,31.40464436,-100.462443,1773,14
Buena Vista,Iowa,42.73545875,-95.15100162,1767,12
Indian River,Florida,27.69308961,-80.60556721,1767,31
Wilson,Tennessee,36.15496772,-86.29775884,1746,20
Orangeburg,South Carolina,33.4391073,-80.79886287,1743,42
Bossier,Louisiana,32.67932307,-93.60460152,1742,53
Midland,Texas,31.86904128,-102.0315682,1738,31
St. Landry,Louisiana,30.59724262,-92.00135806,1737,68
Linn,Iowa,42.07923082,-91.59809485,1719,87
Nobles,Minnesota,43.67434621,-95.75329576,1714,6
Boulder,Colorado,40.09313619,-105.3546767,1704,74
Johnson,Iowa,41.67169354,-91.58754744,1701,10
Cass,Indiana,40.76135835,-86.34830753,1692,9
Charles,Maryland,38.51092331,-76.98580666,1679,90
Barnstable,Massachusetts,41.72980578,-70.28854339,1668,155
Finney,Kansas,38.04340344,-100.7381938,1666,10
Hall,Nebraska,40.87257079,-98.50218293,1662,46
Saginaw,Michigan,43.33433923,-84.0513121,1655,124
Madison,Illinois,38.83042506,-89.90422563,1651,71
Sarpy,Nebraska,41.11314181,-96.11156432,1649,8
Rankin,Mississippi,32.26469147,-89.94537876,1644,23
Harrison,Mississippi,30.51359752,-89.12467576,1628,21
Catawba,North Carolina,35.66211129,-81.2132617,1624,20
Dallas,Iowa,41.68560356,-94.04127625,1619,34
Hendricks,Indiana,39.76719009,-86.51037283,1594,105
Anderson,South Carolina,34.51828081,-82.63959517,1572,31
Washington,Minnesota,45.03864533,-92.88429635,1572,41
Rockingham,New Hampshire,42.98499744,-71.12883377,1569,93
Kankakee,Illinois,41.13746989,-87.86205334,1563,66
Charlotte,Florida,26.90131002,-81.92949121,1560,82
Trousdale,Tennessee,36.39026213,-86.16087954,1556,6
Ottawa,Michigan,42.95996803,-85.9969107,1555,53
Manassas,Virginia,38.7464321,-77.48509905,1553,20
Monroe,Pennsylvania,41.05934058,-75.34031025,1536,120
Placer,California,39.06167234,-120.7240569,1531,13
Litchfield,Connecticut,41.7937534,-73.2451475,1530,138
Madera,California,37.21513971,-119.7665589,1530,16
Lebanon,Pennsylvania,40.36680311,-76.45651841,1529,54
Starr,Texas,26.56150059,-98.73892358,1519,20
Harford,Maryland,39.55010644,-76.3077594,1514,66
Umatilla,Oregon,45.59073056,-118.7353826,1503,13
Forsyth,Georgia,34.22604035,-84.1231513,1499,16
Etowah,Alabama,34.04567266,-86.04051873,1495,16
Pickens,South Carolina,34.88807695,-82.72791551,1494,16
Johnson,Indiana,39.48994426,-86.10149107,1491,118
Columbiana,Ohio,40.76932373,-80.78094576,1483,60
Yavapai,Arizona,34.59933926,-112.5538588,1478,51
Davidson,North Carolina,35.79115496,-80.21256572,1477,16
Sullivan,New York,41.71579493,-74.76394559,1475,48
San Luis Obispo,California,35.38822029,-120.4039028,1467,8
Olmsted,Minnesota,44.00374114,-92.40209944,1466,21
Guadalupe,Texas,29.58165339,-97.94786822,1458,6
Jones,Mississippi,31.62257767,-89.168969,1455,53
Carroll,Georgia,33.58138199,-85.07976677,1452,42
Hendry,Florida,26.55386945,-81.16469006,1451,32
Stark,Ohio,40.81482476,-81.36437305,1449,122
Maverick,Texas,28.7429195,-100.3157686,1440,26
Iredell,North Carolina,35.80950511,-80.8743128,1436,15
Douglas,Colorado,39.33133796,-104.930001,1433,55
Burke,North Carolina,35.74989637,-81.70755735,1419,25
Comal,Texas,29.80811278,-98.27647225,1415,43
DeKalb,Alabama,34.45946862,-85.80782906,1407,9
Niagara,New York,43.19898042,-78.74777412,1405,96
Lorain,Ohio,41.29553751,-82.15083537,1404,75
Rock Island,Illinois,41.46613806,-90.57042164,1401,30
Scott,Iowa,41.63935978,-90.61959493,1398,11
Putnam,New York,41.42630093,-73.74965532,1397,63
Randall,Texas,34.96585996,-101.8971322,1394,16
Kalamazoo,Michigan,42.24542231,-85.53038622,1391,74
Jackson,Mississippi,30.54020656,-88.64184064,1384,24
Colquitt,Georgia,31.18810588,-83.7677946,1383,20
Hot Spring,Arkansas,34.31709259,-92.95396325,1372,2
Elmore,Alabama,32.59785413,-86.14415284,1371,33
Houston,Georgia,32.45802497,-83.66879087,1368,36
Jasper,Missouri,37.20351921,-94.34050458,1366,21
Kaufman,Texas,32.5991417,-96.28734728,1363,5
Columbia,Georgia,33.54534185,-82.263524,1361,17
Middlesex,Connecticut,41.45949668,-72.53714864,1360,188
Clarke,Georgia,33.95436462,-83.37124007,1356,15
St. Martin,Louisiana,30.13112107,-91.61403569,1353,34
New London,Connecticut,41.48896435,-72.10430976,1352,102
Kent,Rhode Island,41.67106337,-71.57641596,1351,0
Sampson,North Carolina,34.98820368,-78.36914061,1351,8
Bradley,Tennessee,35.15739424,-84.857186,1330,9
Warren,Ohio,39.42581994,-84.16557457,1326,28
Champaign,Illinois,40.13919438,-88.20046615,1318,17
Ingham,Michigan,42.59716886,-84.37472069,1318,29
Carroll,Maryland,39.56453592,-77.02373735,1316,115
Pitt,North Carolina,35.59535426,-77.37353178,1313,10
Putnam,Tennessee,36.14005459,-85.50646123,1313,9
Cochise,Arizona,31.87934684,-109.7516088,1311,31
Leavenworth,Kansas,39.20183497,-95.03620809,1310,7
Newport News,Virginia,37.08166899,-76.51754109,1308,14
Dubuque,Iowa,42.46815349,-90.88181925,1300,26
Clark,Washington,45.77568046,-122.4829204,1297,33
Hernando,Florida,28.55364461,-82.42700204,1296,19
Warren,New Jersey,40.85951833,-74.99556527,1296,169
Forrest,Mississippi,31.18961454,-89.25832496,1294,45
Newton,Georgia,33.55514538,-83.8454714,1294,22
Walker,Alabama,33.80270512,-87.30027177,1293,54
Buncombe,North Carolina,35.61113393,-82.53305,1292,42
Vanderburgh,Indiana,38.02658833,-87.58763124,1289,7
Montgomery,Tennessee,36.49609412,-87.38550661,1288,9
Sebastian,Arkansas,35.19605503,-94.27162713,1278,13
Yolo,California,38.68278902,-121.9018288,1275,37
Sevier,Tennessee,35.78077323,-83.52244332,1269,4
Sussex,New Jersey,41.13891592,-74.69118243,1259,195
Marshall,Iowa,42.03586837,-92.9990819,1256,21
Bartow,Georgia,34.23732119,-84.83887523,1252,50
Rock,Wisconsin,42.67151616,-89.071479,1244,25
Trumbull,Ohio,41.31735028,-80.76109643,1242,91
Shawnee,Kansas,39.04100763,-95.7557264,1241,15
Angelina,Texas,31.25457347,-94.60901487,1234,14
Westmoreland,Pennsylvania,40.3137798,-79.46615476,1234,41
Wilson,North Carolina,35.70625477,-77.917978,1231,29
St. Mary,Louisiana,29.69262097,-91.44702164,1215,40
Spotsylvania,Virginia,38.18574462,-77.655399,1212,33
Henderson,North Carolina,35.33788927,-82.4766782,1210,52
Wicomico,Maryland,38.37301947,-75.62705831,1206,42
Kootenai,Idaho,47.67282258,-116.7020872,1204,1
St. John the Baptist,Louisiana,30.12597499,-90.4753503,1203,88
Clackamas,Oregon,45.18787398,-122.2179634,1201,33
Robertson,Tennessee,36.52454807,-86.87346725,1197,16
Berrien,Michigan,41.95447397,-86.4131308,1184,63
Larimer,Colorado,40.66671597,-105.4625784,1183,32
Dallas,Alabama,32.32688101,-87.1086671,1173,18
Honolulu,Hawaii,21.45803166,-157.9712182,1167,19
Stafford,Virginia,38.41758738,-77.45917053,1163,7
Kendall,Illinois,41.59081014,-88.42869583,1160,21
Lauderdale,Mississippi,32.40419769,-88.66229662,1155,83
Seward,Kansas,37.19324632,-100.8507201,1149,4
Gregg,Texas,32.47940482,-94.81591935,1147,15
Franklin,Pennsylvania,39.92956518,-77.72157791,1146,46
Paulding,Georgia,33.91969522,-84.86848792,1146,18
St. Charles,Louisiana,29.90709658,-90.35555967,1139,50
Lincoln,Arkansas,33.95317155,-91.74002806,1138,11
Washington,Mississippi,33.28392041,-90.94196237,1138,20
Orange,North Carolina,36.06092947,-79.12167935,1137,45
Johnson,Texas,32.37877812,-97.36615819,1133,7
Neshoba,Mississippi,32.75339664,-89.11726492,1130,82
Chatham,North Carolina,35.70394416,-79.25541492,1128,47
Aiken,South Carolina,33.54338026,-81.63645384,1123,20
DeSoto,Florida,27.18677893,-81.80941373,1123,14
Kenton,Kentucky,38.93950319,-84.53241199,1116,37
Portsmouth,Virginia,36.85914825,-76.35971629,1115,21
Bastrop,Texas,30.10370699,-97.31206354,1110,12
Coweta,Georgia,33.35334302,-84.76129976,1104,17
Tift,Georgia,31.45743864,-83.5236119,1104,32
Hunterdon,New Jersey,40.56335249,-74.91284156,1102,126
Coffee,Georgia,31.54892966,-82.8549206,1099,21
Anchorage,Alaska,61.14998174,-149.1426986,1098,9
Jefferson,Arkansas,34.26767081,-91.92619839,1094,32
Scott,Minnesota,44.6490231,-93.53340251,1094,9
Kershaw,South Carolina,34.33988254,-80.58763164,1087,19
Titus,Texas,33.21339719,-94.96797273,1087,6
Putnam,Florida,29.60779729,-81.74230285,1083,12
Greenwood,South Carolina,34.15272415,-82.12715789,1075,14
Muskegon,Michigan,43.29123859,-86.15176712,1069,55
Cumberland,Pennsylvania,40.1625372,-77.26130755,1066,69
Hampshire,Massachusetts,42.33997957,-72.65898478,1065,125
Accomack,Virginia,37.76707161,-75.63234615,1059,15
Granville,North Carolina,36.30337451,-78.65184241,1059,25
Beaver,Pennsylvania,40.6825484,-80.34921611,1053,82
Franklin,Alabama,34.44235334,-87.84289505,1051,17
Georgetown,South Carolina,33.43443342,-79.33202141,1049,13
Washington,Louisiana,30.85288548,-90.03866652,1046,55
Crittenden,Arkansas,35.21247318,-90.30839406,1044,15
Gadsden,Florida,30.57796289,-84.61915825,1040,12
Lee,North Carolina,35.47623147,-79.17569362,1037,9
Laurens,South Carolina,34.48244419,-82.00490796,1034,24
Hale,Texas,34.07044901,-101.8268114,1032,21
Mower,Minnesota,43.67142874,-92.75234549,1024,2
Brunswick,North Carolina,34.070565,-78.22814204,1021,12
Grant,Washington,47.20753737,-119.4500749,1015,8
Harrisonburg,Virginia,38.43542574,-78.87536254,1015,29
Texas,Oklahoma,36.74777635,-101.4889765,1010,7
Buchanan,Missouri,39.65816401,-94.80138942,1003,10
Houston,Alabama,31.15197924,-85.29939599,1002,8
Monroe,Florida,25.20904673,-81.07812416,998,6
Story,Iowa,42.03621213,-93.46499005,998,10
Faulkner,Arkansas,35.14719007,-92.33717519,996,4
Walworth,Wisconsin,42.66858202,-88.54163073,993,20
Delaware,Ohio,40.27942393,-83.00457058,991,16
Russell,Alabama,32.28725256,-85.18415324,991,1
Fairfield,Ohio,39.75107189,-82.63088163,988,18
Iberville,Louisiana,30.25734305,-91.3499598,987,44
Twin Falls,Idaho,42.35440512,-114.6685381,983,26
St. Francis,Arkansas,35.02201976,-90.74828138,981,3
Pottawattamie,Iowa,41.33640314,-95.53907776,979,18
Taylor,Texas,32.30163422,-99.89007449,976,13
Porter,Indiana,41.45986947,-87.06848888,975,38
Sandoval,New Mexico,35.68862401,-106.8687803,972,32
Vermilion,Louisiana,29.83517605,-92.30292538,969,12
Moore,Texas,35.83769242,-101.8930281,967,15
Pope,Arkansas,35.44871474,-93.03212219,966,5
Clark,Ohio,39.91592258,-83.78498252,964,11
Val Verde,Texas,29.89149232,-101.1525205,964,8
Jackson,Florida,30.7954597,-85.21500423,963,17
Citrus,Florida,28.84804315,-82.47614748,954,18
Harnett,North Carolina,35.36731853,-78.87243571,953,34
Ware,Georgia,31.05449097,-82.42224148,947,17
Limestone,Alabama,34.81185586,-86.98310072,946,7
Schenectady,New York,42.81668777,-74.05278291,946,37
Floyd,Georgia,34.26268279,-85.21577392,942,15
Yell,Arkansas,35.00292371,-93.41171338,942,14
Caldwell,Texas,29.83668859,-97.61814775,941,7
Rockdale,Georgia,33.65145002,-84.02202167,940,12
Suwannee,Florida,30.19746066,-82.9909967,940,27
Tolland,Connecticut,41.85853803,-72.3308481,937,65
Broome,New York,42.15903158,-75.81326086,934,62
Walton,Florida,30.64204028,-86.16935664,931,11
Rice,Minnesota,44.3543376,-93.29658715,928,8
Tippecanoe,Indiana,40.38872739,-86.89413959,921,11
Scott,Mississippi,32.4067041,-89.53789439,917,16
Culpeper,Virginia,38.48199985,-77.9563087,915,12
Peoria,Illinois,40.78702156,-89.76078901,915,32
Highlands,Florida,27.34254618,-81.34071957,912,16
St. Clair,Alabama,33.71902176,-86.31029372,910,7
Calhoun,Alabama,33.77483727,-85.82630386,908,6
Hunt,Texas,33.12351514,-96.08551032,908,8
Habersham,Georgia,34.63331566,-83.53094677,904,43
Eagle,Colorado,39.62754308,-106.6933637,903,9
Sumter,Florida,28.70181754,-82.0794267,902,21
Winnebago,Wisconsin,44.06886922,-88.64477096,901,16
Dawson,Nebraska,40.87028216,-99.8201461,898,8
Grayson,Texas,33.62744998,-96.67753461,898,8
Lee,Mississippi,34.2918775,-88.68149954,896,26
Parker,Texas,32.77757172,-97.80500621,896,1
Sevier,Arkansas,33.99780401,-94.2424869,893,9
St. Bernard,Louisiana,29.87761636,-89.51887093,891,24
Cullman,Alabama,34.13020303,-86.86888037,888,7
Outagamie,Wisconsin,44.41578887,-88.46565023,883,12
Boone,Kentucky,38.97065142,-84.72615357,880,23
Santa Cruz,California,37.05580291,-122.0066524,878,4
Autauga,Alabama,32.53952745,-86.64408227,877,20
Tipton,Tennessee,35.501942,-89.73694895,877,8
Craighead,Arkansas,35.83018283,-90.63235729,873,8
Caldwell,North Carolina,35.95204977,-81.54799522,869,10
Lee,Arkansas,34.78498904,-90.78383866,868,6
Lamar,Mississippi,31.20572971,-89.5077704,866,9
Nassau,Florida,30.61037141,-81.80297522,865,7
Jefferson Davis,Louisiana,30.26896765,-92.81210004,859,22
Bulloch,Georgia,32.39577406,-81.74811421,855,8
McDonald,Missouri,36.62869595,-94.34867205,854,6
Barrow,Georgia,33.99148694,-83.71436292,852,31
Lake,Ohio,41.69710807,-81.23676539,851,26
Allen,Louisiana,30.65385745,-92.82442028,847,16
Salem,New Jersey,39.58719656,-75.3469663,843,81
Lancaster,South Carolina,34.68270843,-80.70513032,842,19
Clark,Indiana,38.48015445,-85.70510334,840,45
Bayamon,Puerto Rico,18.34946,-66.168435,839,0
Boone,Missouri,38.99186229,-92.30723575,839,3
Rockingham,Virginia,38.51006137,-78.87260325,838,16
Chelan,Washington,47.87046092,-120.6173956,836,8
Jefferson,Missouri,38.25926778,-90.53870896,832,23
Schuylkill,Pennsylvania,40.70497338,-76.2150785,830,49
Licking,Ohio,40.09136236,-82.48185785,829,19
Lauderdale,Alabama,34.90171875,-87.65624729,826,9
Suffolk,Virginia,36.70155394,-76.63603554,826,45
Washington,Maryland,39.60835778,-77.82002295,826,29
Colbert,Alabama,34.69847452,-87.80168544,823,10
Erie,Pennsylvania,41.99253829,-80.03301954,818,14
Whatcom,Washington,48.82227976,-121.7490018,818,37
Orange,Texas,30.11879481,-93.89412775,813,8
Nacogdoches,Texas,31.62017125,-94.61803994,810,36
Nash,North Carolina,35.96575634,-77.98422508,806,10
Wichita,Texas,33.98842886,-98.7041034,800,9
Monongalia,West Virginia,39.63218457,-80.04766838,799,5
Darlington,South Carolina,34.33358335,-79.96027485,796,23
Hamblen,Tennessee,36.21990035,-83.26586179,793,6
Baldwin,Georgia,33.06882326,-83.24701748,790,37
St. Mary's,Maryland,38.30058422,-76.6062928,790,52
Thomas,Georgia,30.86392347,-83.91847289,789,37
Grimes,Texas,30.54579585,-95.98902499,788,2
Copiah,Mississippi,31.86977774,-90.44565118,786,21
Hampton,Virginia,37.03513786,-76.35879121,786,4
Yellowstone,Montana,45.93955949,-108.2691486,780,20
Chambers,Texas,29.70972016,-94.67154501,777,5
Warren,Mississippi,32.35810271,-90.83352619,776,23
Wapello,Iowa,41.03064984,-92.40954728,773,31
Okeechobee,Florida,27.3863362,-80.88944347,770,2
Cape May,New Jersey,39.15008829,-74.80170244,767,86
Monroe,Michigan,41.92734151,-83.53749864,765,21
Pennington,South Dakota,44.0025835,-102.8240777,765,25
Maury,Tennessee,35.6187413,-87.07462444,758,4
Chambers,Alabama,32.91360079,-85.39072749,756,34
Moore,North Carolina,35.30885257,-79.48474178,755,18
Avoyelles,Louisiana,31.07796211,-92.00079449,754,23
Cleveland,North Carolina,35.33553364,-81.55204486,753,13
DeKalb,Illinois,41.89373302,-88.76958483,749,24
Gordon,Georgia,34.50487351,-84.87296253,749,20
Muscatine,Iowa,41.48370744,-91.1121697,748,45
Macon,Tennessee,36.53157855,-86.00778595,747,10
Sangamon,Illinois,39.75836914,-89.65872023,747,33
Lowndes,Mississippi,33.47386518,-88.4419153,745,20
Canadian,Oklahoma,35.5426055,-97.98465569,744,4
Escambia,Alabama,31.1256789,-87.15918694,744,15
Fayette,Georgia,33.41357794,-84.49089434,742,21
Grenada,Mississippi,33.77036166,-89.80245083,741,16
Madison,Indiana,40.16143691,-85.71964711,739,64
McCurtain,Oklahoma,34.11664328,-94.77222373,739,19
Hardee,Florida,27.49293939,-81.80956574,733,4
Oktibbeha,Mississippi,33.42491685,-88.87905132,733,30
Tallapoosa,Alabama,32.86698258,-85.79833053,733,75
Webster,Louisiana,32.70847669,-93.33121835,733,12
Dodge,Nebraska,41.58071748,-96.65598179,731,8
Blue Earth,Minnesota,44.03554215,-94.06699781,726,3
Columbus,North Carolina,34.26744084,-78.65801424,725,40
Flagler,Florida,29.45933576,-81.31508595,724,8
Greene,Missouri,37.2575872,-93.34230916,724,9
Platte,Nebraska,41.57246836,-97.52144359,724,3
Skagit,Washington,48.48171488,-121.766131,723,18
Stanly,North Carolina,35.31647813,-80.25093221,723,8
Butte,California,39.66727762,-121.6005252,722,5
Sunflower,Mississippi,33.60192578,-90.58882684,721,13
Medina,Ohio,41.11770589,-81.8998621,719,32
Kosciusko,Indiana,41.24521668,-85.86312322,718,9
LaPorte,Indiana,41.54366008,-86.74072188,715,28
Surry,North Carolina,36.41689489,-80.69102283,712,4
Bedford,Tennessee,35.51123746,-86.45549096,711,10
Napa,California,38.50735751,-122.332839,711,8
Leake,Mississippi,32.7536828,-89.52402044,710,23
Blount,Tennessee,35.68938198,-83.92847788,709,7
Newton,Missouri,36.90519407,-94.3394104,707,3
Tuscarawas,Ohio,40.44214695,-81.47226262,706,11
Chittenden,Vermont,44.46322849,-73.08359212,705,39
Walton,Georgia,33.78017694,-83.73552314,705,32
Howard,Indiana,40.48527731,-86.11351892,704,61
Lake,Tennessee,36.3418017,-89.48921915,703,0
Onslow,North Carolina,34.72607366,-77.42908179,702,9
Liberty,Texas,30.15152688,-94.81205615,700,3
Butler,Alabama,31.75300095,-86.68057478,698,34
Holmes,Mississippi,33.12345854,-90.08923538,697,43
La Crosse,Wisconsin,43.90632465,-91.11451093,697,1
Gallatin,Montana,45.54486106,-111.1692571,695,1
Jackson,Georgia,34.13794553,-83.56814788,694,13
Leflore,Mississippi,33.55545125,-90.29900733,691,57
Livingston,Michigan,42.60302282,-83.91297209,690,28
Williamsburg,South Carolina,33.62190129,-79.72767442,690,18
Clermont,Ohio,39.04847534,-84.15375786,689,9
Crawford,Iowa,42.03718237,-95.3819718,689,3
Spalding,Georgia,33.26310031,-84.28013991,689,35
Clay,Minnesota,46.89289518,-96.48761922,686,39
Marshall,Indiana,41.32467367,-86.26185087,686,18
Clay,Missouri,39.31132056,-94.41850862,685,18
Colfax,Nebraska,41.57486951,-97.0868542,685,4
Roanoke City,Virginia,37.27791025,-79.96189766,684,10
Sumter,Georgia,32.03650571,-84.19821492,684,55
Burleigh,North Dakota,46.97847375,-100.4645214,680,3
Calhoun,Michigan,42.24633834,-85.00493569,680,39
Carolina,Puerto Rico,18.374986,-65.956831,676,0
Wilkes,North Carolina,36.2084135,-81.16232895,676,7
Bolivar,Mississippi,33.79696941,-90.87372121,673,24
Albemarle,Virginia,38.02080697,-78.55481085,671,10
St. Clair,Michigan,42.92655373,-82.67937954,670,53
Boone,Illinois,42.32359279,-88.82345779,669,22
Franklin,Louisiana,32.13675181,-91.67589857,669,16
Rensselaer,New York,42.71348136,-73.51089874,669,30
Saline,Arkansas,34.64916145,-92.67583224,667,3
Morgan,Colorado,40.2627981,-103.8093302,666,46
Wood,Ohio,41.36224827,-83.62285108,666,54
Pike,Mississippi,31.17507789,-90.40392572,664,27
Wright,Minnesota,45.17297924,-93.96234781,664,4
Yazoo,Mississippi,32.77890365,-90.39656148,664,8
Saratoga,New York,43.10904162,-73.86653895,663,17
Bowie,Texas,33.44626922,-94.41834132,661,17
Wayne,Mississippi,31.64135687,-88.69573913,656,21
Windham,Connecticut,41.82972709,-71.98182316,655,15
Lafayette,Mississippi,34.35687874,-89.48490961,653,4
Jones,Texas,32.73997145,-99.87861576,652,0
Talladega,Alabama,33.37823223,-86.16886178,652,8
Bartholomew,Indiana,39.20744865,-85.89558181,651,45
Summit,Utah,40.86688146,-110.9535882,651,1
Vance,North Carolina,36.36880673,-78.40670845,650,40
Shenandoah,Virginia,38.85905135,-78.56813762,649,40
Franklin,North Carolina,36.081519,-78.28708884,648,23
Bledsoe,Tennessee,35.59942968,-85.20611967,646,1
Logan,Colorado,40.7249637,-103.110817,643,5
Lincoln,Mississippi,31.53288662,-90.45391915,640,37
Panola,Mississippi,34.36398677,-89.95064249,640,8
Shelby,Kentucky,38.21476019,-85.194223,639,22
Navarro,Texas,32.04620681,-96.47428766,637,10
Hardin,Texas,30.33364686,-94.38931817,636,5
Clarendon,South Carolina,33.66610974,-80.21647898,632,48
Kandiyohi,Minnesota,45.1526059,-95.00586446,631,1
Washington,Wisconsin,43.36863664,-88.22974712,631,19
Berkshire,Massachusetts,42.37428441,-73.20524838,629,45
Colleton,South Carolina,32.87582989,-80.67641292,628,29
Gila,Arizona,33.80190085,-110.8132779,622,21
Rockwall,Texas,32.89779518,-96.40771592,622,17
Newberry,South Carolina,34.28629098,-81.59935761,620,6
Carver,Minnesota,44.82017001,-93.8009918,618,2
Miami,Ohio,40.0543329,-84.22871271,616,34
Oconee,South Carolina,34.75225169,-83.06742317,615,2
Frederick,Virginia,39.20172582,-78.25974949,614,7
Hardeman,Tennessee,35.20772017,-88.99161161,614,9
Comanche,Oklahoma,34.65973764,-98.47195055,613,9
Jackson,Alabama,34.78144169,-85.99750489,613,3
Washington,Pennsylvania,40.19208869,-80.24582867,613,10
Lincoln,North Carolina,35.48508185,-81.21740317,611,2
Daviess,Kentucky,37.73028906,-87.0901948,608,7
Jackson,Michigan,42.24807035,-84.42258681,608,32
Portage,Ohio,41.16793482,-81.19735782,608,59
York,Maine,43.47808377,-70.71052375,604,12
Kanawha,West Virginia,38.33860077,-81.52857054,601,20
Dodge,Wisconsin,43.41576662,-88.70928178,592,5
Coffee,Alabama,31.39932826,-85.98901039,591,5
Buckingham,Virginia,37.57242268,-78.52518834,590,6
Simpson,Mississippi,31.91282117,-89.91716179,589,11
Noble,Indiana,41.39672484,-85.41966713,588,28
Covington,Alabama,31.2477854,-86.45050893,587,18
Dale,Alabama,31.43037123,-85.61095742,587,8
Lyon,Kansas,38.45576156,-96.15275715,586,7
Muhlenberg,Kentucky,37.21425819,-87.14632053,586,9
Cherokee,Texas,31.837258,-95.16559897,583,2
Hoke,North Carolina,35.01888303,-79.23651674,582,7
Chesterfield,South Carolina,34.64137396,-80.1564014,581,18
Douglas,Washington,47.7361335,-119.692937,581,4
Garland,Arkansas,34.57692074,-93.14921604,581,5
Evangeline,Louisiana,30.72985248,-92.39915924,579,2
Belmont,Ohio,40.01625942,-80.9924051,578,26
Cecil,Maryland,39.56647682,-75.94627411,576,30
Beadle,South Dakota,44.41464384,-98.27858469,575,9
Garfield,Colorado,39.59921777,-107.902708,575,4
Washington,Rhode Island,41.45961631,-71.61435303,574,0
Beauregard,Louisiana,30.64836518,-93.34173616,572,9
Pike,Alabama,31.80396383,-85.9408295,572,7
Lincoln,Louisiana,32.6003154,-92.6659741,571,20
Berkeley,West Virginia,39.46704621,-78.02414609,570,10
Guaynabo,Puerto Rico,18.345114,-66.114523,568,0
Pointe Coupee,Louisiana,30.71409502,-91.60209535,568,29
Sutter,California,39.03417539,-121.6945899,567,4
Webster,Iowa,42.42853483,-94.17987389,566,5
Payne,Oklahoma,36.07695283,-96.97584944,565,2
Saline,Nebraska,40.52418865,-97.14085859,563,2
Blaine,Idaho,43.4085812,-113.9752658,562,6
Madison,Tennessee,35.61181957,-88.84076036,562,8
Natchitoches,Louisiana,31.72321584,-93.09816516,562,15
Douglas,Kansas,38.88503636,-95.2925121,561,2
Boone,Indiana,40.0509304,-86.46841646,560,45
Grand Forks,North Dakota,47.92093639,-97.45450447,560,4
Pontotoc,Mississippi,34.226046,-89.03636807,560,6
San Patricio,Texas,28.00880118,-97.51763891,557,0
Craven,North Carolina,35.11833364,-77.08398081,555,8
San Juan,Utah,37.62762978,-109.8033714,553,19
Fauquier,Virginia,38.73564842,-77.80647472,551,8
Sioux,Iowa,43.08221074,-96.1767568,551,1
Laurens,Georgia,32.46325233,-82.92221316,548,1
Monroe,Mississippi,33.89236763,-88.4808438,547,44
Mitchell,Georgia,31.22483255,-84.19381821,544,41
De Soto,Louisiana,32.05457447,-93.74130302,540,23
Harrison,Texas,32.54935988,-94.36934071,540,34
Johnson,Arkansas,35.56759135,-93.46036368,540,0
Hanover,Virginia,37.7583355,-77.49464673,539,30
Malheur,Oregon,43.1937027,-117.6227395,539,6
Lassen,California,40.67311306,-120.5935099,538,0
Pender,North Carolina,34.52265624,-77.90352133,538,3
Pueblo,Colorado,38.17359144,-104.5127437,538,33
Gonzales,Texas,29.45634206,-97.49424032,537,6
St. James,Louisiana,30.02531716,-90.80212061,537,30
Harris,Georgia,32.73709786,-84.90538572,535,14
Willacy,Texas,26.47411727,-97.61535848,535,4
Polk,Texas,30.79472531,-94.8276624,533,1
Tate,Mississippi,34.65133709,-89.94485778,531,19
Hancock,Indiana,39.82304555,-85.77566351,530,37
Monroe,Indiana,39.16130004,-86.52414358,530,29
Rutherford,North Carolina,35.40114178,-81.92112099,529,13
Blount,Alabama,33.98210918,-86.56790593,528,1
Delaware,Indiana,40.22787247,-85.39732772,528,52
Chilton,Alabama,32.85044126,-86.7173256,527,4
Hamilton,Florida,30.49673973,-82.94998918,527,2
Medina,Texas,29.3557301,-99.11030298,527,7
Lavaca,Texas,29.38508402,-96.93186692,525,1
Union,Louisiana,32.83121059,-92.3749373,525,31
Lowndes,Alabama,32.1597283,-86.65158371,524,24
Okanogan,Washington,48.54855019,-119.7387224,524,2
Lamar,Texas,33.66981763,-95.57404777,523,15
Matagorda,Texas,28.81955746,-96.01230294,523,5
Washington,Tennessee,36.29472368,-82.4945472,523,0
Floyd,Indiana,38.32117957,-85.90385377,522,44
Vernon,Louisiana,31.10884837,-93.18153838,520,17
Butler,Pennsylvania,40.91152759,-79.91351055,519,14
Pike,Pennsylvania,41.33155042,-75.03208106,517,21
Wagoner,Oklahoma,35.96024096,-95.51911308,516,19
Androscoggin,Maine,44.1664747,-70.20380627,515,5
Jackson,Indiana,38.9091582,-86.03851889,514,3
Montgomery,North Carolina,35.33155144,-79.90416657,514,13
Tama,Iowa,42.07991767,-92.53266945,514,29
San Benito,California,36.60308176,-121.069975,513,2
Mississippi,Arkansas,35.76271485,-90.0519437,511,7
Fayette,Tennessee,35.19615831,-89.41399032,510,8
Halifax,North Carolina,36.25669272,-77.6556109,510,5
Bladen,North Carolina,34.61296243,-78.56180059,509,5
Calvert,Maryland,38.53961642,-76.56820632,509,27
Cape Girardeau,Missouri,37.38489388,-89.6843587,509,3
El Dorado,California,38.77965956,-120.5233166,508,1
Madison,Louisiana,32.36918118,-91.23973355,508,6
Greene,Ohio,39.69116283,-83.89032084,507,10
LaGrange,Indiana,41.64232188,-85.42674232,507,10
Covington,Mississippi,31.63225413,-89.55389939,506,8
Washington,Oklahoma,36.71380786,-95.90514104,506,39
Chattahoochee,Georgia,32.34341231,-84.78809239,505,1
Madison,Florida,30.44396917,-83.47398594,504,5
West Baton Rouge,Louisiana,30.46058217,-91.30989571,502,33
Allen,Ohio,40.77285242,-84.10802343,501,41
Barbour,Alabama,31.868263,-85.3871286,501,4
Rogers,Oklahoma,36.37004357,-95.60406759,499,11
Wasatch,Utah,40.33110236,-111.1691419,498,4
Ashtabula,Ohio,41.70860332,-80.74830218,497,44
Bay,Michigan,43.70639106,-83.98731479,497,31
Columbia,New York,42.24819348,-73.63089095,497,37
Thurston,Washington,46.9291895,-122.8290656,496,5
Deaf Smith,Texas,34.96522957,-102.6054267,491,19
Coryell,Texas,31.39078397,-97.79936155,490,3
Sullivan,Tennessee,36.51240691,-82.30412917,489,6
Cerro Gordo,Iowa,43.08177563,-93.2612239,488,16
Dubois,Indiana,38.36597551,-86.8792417,485,9
Loudon,Tennessee,35.73939663,-84.31145275,484,3
East Carroll,Louisiana,32.73926954,-91.23425694,482,1
Geauga,Ohio,41.49952319,-81.17935342,482,43
Shelby,Indiana,39.52305623,-85.7915857,482,25
Manassas Park,Virginia,38.77058531,-77.44399307,479,7
Assumption,Louisiana,29.89946234,-91.06461642,477,18
Edgecombe,North Carolina,35.91230639,-77.59436892,477,10
Wayne,Georgia,31.5521809,-81.91894878,475,2
St. Joseph,Michigan,41.91441767,-85.52797979,473,6
Sherburne,Minnesota,45.44447208,-93.77617511,472,5
Coahoma,Mississippi,34.22772299,-90.60415045,471,7
Dillon,South Carolina,34.39007791,-79.37741872,471,20
James City,Virginia,37.31156958,-76.76950618,471,16
Effingham,Georgia,32.36616021,-81.34280942,468,1
Lenoir,North Carolina,35.2403259,-77.64245615,468,11
Adams,Mississippi,31.47669768,-91.35326037,466,22
Henderson,Texas,32.21128872,-95.85846587,466,5
Jim Wells,Texas,27.73103938,-98.0904705,466,0
Appling,Georgia,31.74847232,-82.28909114,465,16
Lea,New Mexico,32.79215361,-103.4123733,465,2
Richland,Ohio,40.77180308,-82.5379961,465,8
Lee,Georgia,31.7793306,-84.14324253,464,22
Fond du Lac,Wisconsin,43.75354908,-88.48885325,463,6
Tooele,Utah,40.44862644,-113.1295715,463,0
Toombs,Georgia,32.12059861,-82.32957247,463,6
Marion,Mississippi,31.23132643,-89.8209217,462,15
Santa Fe,New Mexico,35.50708973,-105.9774716,462,3
Fairfield,South Carolina,34.39287073,-81.1195624,461,23
Jefferson,Wisconsin,43.02054068,-88.77529134,461,4
Winston,Mississippi,33.08747908,-89.03391385,461,14
Liberty,Georgia,31.82588896,-81.49251135,458,2
Polk,Georgia,34.00267074,-85.18677781,457,3
Caguas,Puerto Rico,18.211615,-66.050779,456,0
Newton,Mississippi,32.40021118,-89.11843336,454,10
Wharton,Texas,29.27765923,-96.22319248,453,1
Oceana,Michigan,43.64124435,-86.26726673,452,5
Camden,Georgia,30.92951916,-81.66601818,451,3
Marengo,Alabama,32.24767634,-87.78796182,451,11
Jackson,Illinois,37.78595185,-89.38232563,450,19
Allegan,Michigan,42.59147037,-85.89102866,449,7
Marion,Alabama,34.13697363,-87.88704173,449,21
La Paz,Arizona,33.72854224,-113.9810029,448,9
Stephens,Georgia,34.55151201,-83.29405315,446,6
Decatur,Georgia,30.87967778,-84.57619536,445,8
Oldham,Kentucky,38.39791089,-85.448222,445,8
Merrimack,New Hampshire,43.29662971,-71.6811573,444,20
Columbia,Pennsylvania,41.04821986,-76.40565017,443,35
DeWitt,Texas,29.08101855,-97.3568117,442,11
Kitsap,Washington,47.63479026,-122.6436061,442,3
Fremont,Wyoming,43.04183996,-108.6296893,440,0
Lincoln,South Dakota,43.27841182,-96.7203905,440,1
Ozaukee,Wisconsin,43.38352225,-87.94625009,440,16
Worcester,Maryland,38.21274277,-75.33200012,439,18
Richland,Louisiana,32.41391005,-91.76634876,438,5
Adams,Pennsylvania,39.87140411,-77.21610347,437,16
Attala,Mississippi,33.08658803,-89.57838564,435,23
Campbell,Kentucky,38.94384345,-84.37875208,435,13
Washington,Texas,30.21498498,-96.40946246,435,34
Upson,Georgia,32.87920671,-84.30024826,434,45
Yadkin,North Carolina,36.16222629,-80.66239436,434,6
Murray,Georgia,34.78897608,-84.74993177,433,2
Sheboygan,Wisconsin,43.72099677,-87.94579284,433,5
Grant,Indiana,40.51587228,-85.65468702,432,29
Marathon,Wisconsin,44.89792533,-89.75863384,432,3
McLean,Illinois,40.48996987,-88.84621113,432,15
Warren,Iowa,41.33559454,-93.56007641,432,1
Catoosa,Georgia,34.89872298,-85.13757014,431,8
McDowell,North Carolina,35.67736232,-82.0482425,429,4
East Feliciana,Louisiana,30.84425359,-91.04976723,428,34
Sabine,Louisiana,31.56388699,-93.55433981,426,4
Marion,South Carolina,34.07859748,-79.36400756,425,11
Walker,Georgia,34.73376362,-85.30165174,425,14
Wright,Iowa,42.73305373,-93.73515113,425,1
Levy,Florida,29.31829741,-82.74007147,424,2
Marshall,Mississippi,34.76216286,-89.50299462,423,5
Henry,Virginia,36.68542395,-79.87634026,422,5
Bryan,Georgia,32.00979311,-81.44002948,421,6
Dickson,Tennessee,36.14669837,-87.35891709,421,0
Eau Claire,Wisconsin,44.726614,-91.28609183,421,3
Wayne,Ohio,40.82925852,-81.88844833,421,57
Lane,Oregon,43.93727035,-122.847753,419,3
Wakulla,Florida,30.16548905,-84.39895211,419,1
Richmond,North Carolina,35.00417719,-79.74491009,418,8
Riley,Kansas,39.28935726,-96.73420026,418,3
Bonneville,Idaho,43.38713372,-111.6161537,417,1
Clarke,Alabama,31.68099859,-87.83548597,416,9
Jasper,Iowa,41.68576082,-93.05567785,416,20
Macon,North Carolina,35.14867843,-83.41696617,415,2
Frio,Texas,28.86751206,-99.10804207,413,1
Lee,South Carolina,34.16393091,-80.25690731,412,25
Graves,Kentucky,36.72292505,-88.65143315,411,21
Chester,South Carolina,34.69249168,-81.1583216,410,6
Rhea,Tennessee,35.60536161,-84.93076643,410,1
Hale,Alabama,32.76039258,-87.63284988,409,22
Franklin,Missouri,38.41127108,-91.07522826,408,18
Deschutes,Oregon,43.91570171,-121.2289121,405,1
Gilmer,Georgia,34.69316688,-84.45802506,405,3
Todd,Minnesota,46.06996226,-94.89785296,405,2
Hardin,Kentucky,37.6976111,-85.96319251,404,7
Bullock,Alabama,32.10030533,-85.71265535,403,11
Dyer,Tennessee,36.05931946,-89.41542855,400,5
Erie,Ohio,41.36796058,-82.62904521,400,22
Laramie,Wyoming,41.3070252,-104.6887497,400,0
Eaton,Michigan,42.59599185,-84.83740035,399,7
Cheatham,Tennessee,36.26136216,-87.08903581,397,4
Johnson,Missouri,38.74719601,-93.80691168,397,1
Plymouth,Iowa,42.737633,-96.21366621,397,6
Greensville,Virginia,36.67878901,-77.56351439,394,9
Madison,Nebraska,41.91676024,-97.6005481,394,5
Crawford,Arkansas,35.58928601,-94.2446814,393,3
McMinn,Tennessee,35.42812616,-84.61520715,393,20
Warrick,Indiana,38.08922676,-87.2716085,393,29
Pearl River,Mississippi,30.77090935,-89.58677275,392,32
Franklin,Massachusetts,42.58119713,-72.58602547,391,57
Atascosa,Texas,28.89333001,-98.52730485,390,3
Lyon,Minnesota,44.41327865,-95.83806103,390,3
Cherokee,South Carolina,35.05122251,-81.61828622,389,14
Washington,Florida,30.61359259,-85.66002461,389,13
Worth,Georgia,31.55162306,-83.85090513,389,23
Jasper,South Carolina,32.43171982,-81.02487495,388,5
Madison,New York,42.91653905,-75.67266639,388,17
Charlottesville,Virginia,38.03527919,-78.48569588,385,8
Union,Oregon,45.30915495,-118.0068979,385,2
Wilson,Texas,29.1732598,-98.08693082,385,6
Cassia,Idaho,42.28347888,-113.6012409,384,1
Randolph,Illinois,38.05095369,-89.82512254,384,7
Roanoke,Virginia,37.26865804,-80.06396753,383,6
Rockingham,North Carolina,36.39593137,-79.77504841,383,4
Mercer,Ohio,40.54043046,-84.62912742,382,11
Winchester,Virginia,39.17054517,-78.17325058,382,4
Butts,Georgia,33.2830945,-83.9543504,380,36
Christian,Kentucky,36.89267803,-87.49055367,380,4
Morgan,Indiana,39.47899078,-86.44573375,380,31
Petersburg,Virginia,37.20530399,-77.39368102,380,9
Burnet,Texas,30.78801353,-98.181887,379,6
LaSalle,Illinois,41.3442613,-88.88633881,379,18
Marlboro,South Carolina,34.59905577,-79.67561152,379,4
Miller,Arkansas,33.31403423,-93.89285258,379,2
Cowlitz,Washington,46.19074721,-122.6782231,378,3
Lincoln,Oregon,44.64252874,-123.869912,378,8
Walthall,Mississippi,31.14971548,-90.10446654,378,14
Scurry,Texas,32.74613808,-100.9162664,376,1
Louisa,Iowa,41.21842119,-91.26102611,375,13
Anderson,Tennessee,36.12684348,-84.19965764,374,3
Union,Mississippi,34.49162015,-89.00776006,374,11
Uvalde,Texas,29.35739637,-99.76229172,374,5
Broomfield,Colorado,39.95998787,-105.0566324,373,32
Winston,Alabama,34.15030532,-87.37325922,373,9
Cass,Missouri,38.64789422,-94.353399,372,8
Brown,South Dakota,45.58994323,-98.35165355,371,2
Caroline,Maryland,38.87172293,-75.82904158,371,3
Northumberland,Pennsylvania,40.84785433,-76.70798222,369,11
Dearborn,Indiana,39.14647946,-84.97333539,368,25
Wilcox,Alabama,31.98773215,-87.30891118,368,9
Morehouse,Louisiana,32.81686191,-91.80421614,366,11
Saluda,South Carolina,34.00795823,-81.72713237,366,5
Newport,Rhode Island,41.5642026,-71.26569799,365,0
Claiborne,Mississippi,31.97061673,-90.90702196,363,12
Hopkins,Kentucky,37.30939025,-87.54670406,363,33
Bacon,Georgia,31.55456473,-82.45936528,362,5
Plaquemines,Louisiana,29.42245447,-89.60322085,362,18
Jerome,Idaho,42.68891267,-114.2655033,361,6
Chickasaw,Mississippi,33.91983202,-88.9481545,360,19
Perry,Alabama,32.64048341,-87.29770589,359,3
Saline,Missouri,39.13734288,-93.20259964,359,6
Erath,Texas,32.23602653,-98.21773417,358,3
St. Croix,Wisconsin,45.03437474,-92.45000068,356,2
Crawford,Kansas,37.50675523,-94.85245778,351,1
Dickinson,Iowa,43.37787725,-95.1510206,351,4
Elko,Nevada,41.14531606,-115.3577619,350,2
Holmes,Florida,30.86747479,-85.81319222,348,1
Lapeer,Michigan,43.09052506,-83.22153148,348,32
Randolph,Alabama,33.29526734,-85.45708831,348,10
La Salle,Texas,28.34453111,-99.09908775,347,0
Monroe,Alabama,31.56729412,-87.36995001,347,3
Winn,Louisiana,31.94449367,-92.63789413,347,5
Crisp,Georgia,31.92289565,-83.76811843,346,13
Gibson,Tennessee,35.99438059,-88.93358327,346,1
Ogle,Illinois,42.04165196,-89.32184679,346,5
Fairbanks North Star,Alaska,64.80726247,-146.5692662,345,3
Union,Arkansas,33.16887091,-92.59746952,345,15
Noxubee,Mississippi,33.11009499,-88.56949061,343,10
Mayaguez,Puerto Rico,18.2013,-67.1452,341,0
Queen Anne's,Maryland,39.06198912,-76.03530977,341,23
Lenawee,Michigan,41.89475156,-84.06603727,339,11
Van Buren,Michigan,42.25190229,-86.01939087,339,10
Warren,Virginia,38.90847745,-78.20280433,339,7
Clinton,Michigan,42.94400871,-84.60145248,338,12
Early,Georgia,31.32155345,-84.90255207,337,31
Jefferson,Georgia,33.05867328,-82.41609057,337,5
Pierce,Georgia,31.35928155,-82.21598442,337,5
Bamberg,South Carolina,33.21927586,-81.05659969,336,4
Carbon,Pennsylvania,40.91545395,-75.7068525,336,28
Curry,New Mexico,34.57421077,-103.3468876,335,1
Shelby,Texas,31.79211404,-94.14550696,335,14
Minidoka,Idaho,42.85518524,-113.6357257,334,1
Ontario,New York,42.85145728,-77.30874425,334,34
Bienville,Louisiana,32.34569994,-93.05398492,333,28
Freeborn,Minnesota,43.67385583,-93.34884422,333,1
Lawrence,Tennessee,35.21675201,-87.39787695,332,6
Monroe,Georgia,33.014289,-83.92097166,332,20
Vigo,Indiana,39.42944561,-87.39169027,332,9
Waller,Texas,30.01058447,-95.99011759,332,0
Ponce,Puerto Rico,18.059498,-66.613748,331,0
Smith,Mississippi,32.01744532,-89.50644846,331,12
Henry,Indiana,39.93029017,-85.39625719,330,18
Jackson,Louisiana,32.30251776,-92.55692092,330,18
Grady,Oklahoma,35.0167709,-97.88339847,328,6
Graham,Arizona,32.93166885,-109.8882178,328,5
Grady,Georgia,30.87454847,-84.23418364,327,4
Fayette,Texas,29.87788372,-96.92076062,326,5
Page,Virginia,38.61807452,-78.48797204,326,24
Sumter,Alabama,32.59117397,-88.19916205,324,14
Delaware,Oklahoma,36.40823634,-94.80325046,323,19
Adams,Washington,46.98299757,-118.5601734,322,0
Calhoun,Texas,28.47048236,-96.61633945,322,3
McClain,Oklahoma,35.01123903,-97.44572302,322,4
Oconee,Georgia,33.83749973,-83.43679568,322,15
Tallahatchie,Mississippi,33.95339918,-90.1729398,322,4
Adams,Nebraska,40.5244942,-98.50117804,320,11
Liberty,Florida,30.23766008,-84.8829258,320,2
Yuba,California,39.26255932,-121.3535644,319,3
Central Utah,Utah,39.37231946,-111.5758676,318,1
Richmond,Virginia,37.937575,-76.72920628,318,4
Huron,Ohio,41.14651175,-82.59867951,317,3
Jackson,North Carolina,35.28814273,-83.14093385,317,3
Jefferson,Tennessee,36.04818632,-83.45148924,317,1
Clinton,Indiana,40.30319754,-86.47277257,316,3
Calhoun,Mississippi,33.93683395,-89.33686647,315,5
Franklin,Georgia,34.37525597,-83.23159927,315,3
Pickens,Alabama,33.28094866,-88.08818103,314,9
Walla Walla,Washington,46.23040051,-118.4775539,314,4
West Feliciana,Louisiana,30.87882871,-91.4148538,314,15
Clay,Mississippi,33.65358105,-88.77784255,313,13
Cook,Georgia,31.16068491,-83.42947229,312,5
Summit,Colorado,39.63803232,-106.1150762,312,4
Jasper,Mississippi,32.01922104,-89.11786866,311,6
White,Indiana,40.74911165,-86.86492015,311,10
Conecuh,Alabama,31.43401703,-86.99320044,310,9
Ohio,Kentucky,37.47751843,-86.85368087,310,3
Portage,Wisconsin,44.47558711,-89.50152965,310,0
Strafford,New Hampshire,43.291833,-71.02336013,310,13
Creek,Oklahoma,35.90230551,-96.37086028,308,9
Fredericksburg,Virginia,38.2977863,-77.4922454,308,1
Montgomery,Indiana,40.04034823,-86.89335024,308,21
Saline,Kansas,38.78369175,-97.65185177,307,3
Galax,Virginia,36.66601852,-80.91703124,306,16
Kittitas,Washington,47.12521214,-120.679439,306,6
St. Louis,Minnesota,47.6048407,-92.46879855,305,16
Branch,Michigan,41.91600556,-85.05929476,304,2
Carroll,Arkansas,36.3403856,-93.54270261,304,6
Centre,Pennsylvania,40.92058903,-77.82200624,304,9
Trujillo Alto,Puerto Rico,18.336159,-65.998884,304,0
Athens,Ohio,39.33425634,-82.04278644,303,1
Brown,Texas,31.77430356,-98.99907113,303,16
Adams,Illinois,39.98815591,-91.18786813,302,1
Burke,Georgia,33.05917989,-81.99928721,302,7
Meriwether,Georgia,33.04163534,-84.68859732,301,5
Toa Alta,Puerto Rico,18.362406,-66.246616,301,0
Holmes,Ohio,40.56163713,-81.92635677,300,5
Brooks,Georgia,30.83922642,-83.58303423,298,12
Prince George,Virginia,37.18497668,-77.22922187,298,2
Macon,Illinois,39.86064913,-88.96342505,297,22
Shiawassee,Michigan,42.953928,-84.14585902,296,28
Stephenson,Illinois,42.35129217,-89.662598,296,6
Toa Baja,Puerto Rico,18.431446,-66.213553,296,0
Kerr,Texas,30.06040006,-99.34930144,295,1
Lynchburg,Virginia,37.40021399,-79.19888138,295,1
Madison,Kentucky,37.71659336,-84.27220275,295,1
Tattnall,Georgia,32.04785085,-82.05539188,295,0
Davie,North Carolina,35.93099927,-80.54496571,294,4
Dorchester,Maryland,38.45413522,-76.02752426,294,5
Fayette,Pennsylvania,39.92041012,-79.64291195,294,4
Isle of Wight,Virginia,36.90579348,-76.70842863,294,9
Muskogee,Oklahoma,35.61318461,-95.37802952,294,16
Glades,Florida,26.95635849,-81.18996211,292,2
Laurel,Kentucky,37.10975748,-84.11321779,292,4
Rusk,Texas,32.10773545,-94.76176432,292,3
Steele,Minnesota,44.02240351,-93.22627088,292,1
Hood,Texas,32.42990927,-97.83242024,291,5
Lonoke,Arkansas,34.75392199,-91.88742357,291,2
Bristol,Rhode Island,41.71018079,-71.28652315,290,0
Warren,New York,43.56173026,-73.8433699,290,33
Northampton,Virginia,37.34062933,-75.87751591,289,28
Clinton,Illinois,38.60704876,-89.42385254,288,17
Orleans,New York,43.2516977,-78.2320066,288,54
Ottawa,Ohio,41.53781826,-83.0940185,288,24
Cumberland,Tennessee,35.95271721,-84.99840585,287,6
Lauderdale,Tennessee,35.75893438,-89.6301591,287,6
Lawrence,Indiana,38.84112637,-86.48361629,287,27
Putnam,Georgia,33.32056115,-83.37552891,287,17
Ben Hill,Georgia,31.76095874,-83.22145359,286,1
Emanuel,Georgia,32.59221302,-82.30239915,286,5
Mecklenburg,Virginia,36.67882005,-78.36131056,286,30
Bee,Texas,28.41761668,-97.74215593,285,1
Valencia,New Mexico,34.71669834,-106.8103733,285,2
Bibb,Alabama,32.99642064,-87.1251146,284,2
Butler,Kentucky,37.20946153,-86.68748787,284,14
Carroll,Virginia,36.73066666,-80.73455942,284,10
Kleberg,Texas,27.42435506,-97.69894948,284,2
Parmer,Texas,34.52993409,-102.7844668,284,8
Steuben,New York,42.2689144,-77.3829924,284,42
Cibola,New Mexico,34.91131525,-107.998876,283,17
Gilchrist,Florida,29.72856978,-82.79880657,283,0
Watonwan,Minnesota,43.97823903,-94.61413846,283,0
Chicot,Arkansas,33.26458973,-91.29539209,282,3
Logan,Kentucky,36.85949479,-86.877635,282,19
Lycoming,Pennsylvania,41.34310539,-77.06629984,282,20
Mercer,Pennsylvania,41.30248872,-80.25816981,282,9
Pasquotank,North Carolina,36.26723798,-76.25134778,281,17
Van Zandt,Texas,32.56483801,-95.83766469,281,3
Northampton,North Carolina,36.41736238,-77.39769443,279,16
Benton,Minnesota,45.69804958,-93.99514135,276,3
Macon,Alabama,32.38759944,-85.69267724,276,12
Shasta,California,40.76391419,-122.0396884,276,7
Jefferson,West Virginia,39.30776166,-77.86014147,275,4
Washington,Iowa,41.33577126,-91.71725711,275,9
Talbot,Maryland,38.76618159,-76.10882561,274,4
Coles,Illinois,39.51949084,-88.22358557,273,17
Greene,New York,42.275797,-74.12384884,273,18
Huntingdon,Pennsylvania,40.42162652,-77.97673273,273,4
Washington,Georgia,32.96711864,-82.79357039,273,1
Darke,Ohio,40.13412966,-84.6194517,272,26
Scott,Missouri,37.05588075,-89.56474493,272,13
Anson,North Carolina,34.97403241,-80.09953279,271,2
Terrell,Georgia,31.77527543,-84.44069698,271,29
McCracken,Kentucky,37.05350953,-88.70445755,270,3
Nye,Nevada,38.04264256,-116.4722702,270,7
Osage,Oklahoma,36.62888819,-96.39635704,270,9
Decatur,Indiana,39.30712658,-85.50087166,269,32
Greene,North Carolina,35.48544173,-77.67578087,269,3
Scotts Bluff,Nebraska,41.85070896,-103.7080986,269,6
Bryan,Oklahoma,33.96472458,-96.25903472,268,1
Fulton,New York,43.11363907,-74.41798804,268,24
Smith,Tennessee,36.25359775,-85.95411046,268,2
Carson City,Nevada,39.15509045,-119.7480219,267,7
Elbert,Georgia,34.11302332,-82.83936148,266,1
Jackson,Oregon,42.43201126,-122.7289309,265,0
Wise,Texas,33.21570665,-97.65460265,265,5
Whiteside,Illinois,41.75509713,-89.91556058,264,16
Clarke,Mississippi,32.04158545,-88.6889622,263,25
Madison,Ohio,39.89381073,-83.40178317,262,9
Tuscola,Michigan,43.46606813,-83.41897025,262,27
Warren,Tennessee,35.6728299,-85.77969117,262,3
Buffalo,Nebraska,40.85486962,-99.07500296,261,1
Grant,Wisconsin,42.8671731,-90.7063218,261,14
Lawrence,Pennsylvania,40.99206278,-80.33393706,261,9
Rio Arriba,New Mexico,36.51072137,-106.6931674,261,1
Genesee,New York,43.0022601,-78.19135193,260,5
Hardin,Tennessee,35.19732531,-88.18593755,260,7
Milam,Texas,30.7858183,-96.97718698,260,2
Yalobusha,Mississippi,34.02824175,-89.7076205,260,9
Payette,Idaho,44.00545243,-116.7647695,259,2
Waupaca,Wisconsin,44.47068056,-88.96534501,259,14
Henderson,Kentucky,37.79344553,-87.57392021,256,4
Kenai Peninsula,Alaska,60.24429722,-151.5388884,256,2
Union,Illinois,37.47119609,-89.25548938,256,21
Yamhill,Oregon,45.23330449,-123.3086963,256,9
Abbeville,South Carolina,34.22333378,-82.46170658,255,2
Baker,Florida,30.33060121,-82.28467476,254,4
Sandusky,Ohio,41.35624126,-83.137872,254,15
Teton,Wyoming,43.93522482,-110.5890801,254,0
Panola,Texas,32.1639596,-94.30552481,253,24
Pittsylvania,Virginia,36.81980341,-79.39731264,253,2
Sauk,Wisconsin,43.42574087,-89.94966132,253,3
St. Lawrence,New York,44.4976179,-75.06550039,253,2
Henderson,Tennessee,35.65581134,-88.38600175,252,0
Jackson,Oklahoma,34.58781741,-99.41138784,252,3
Washington,New York,43.31153794,-73.43043448,252,14
Cocke,Tennessee,35.9278914,-83.11828725,251,1
Glenn,California,39.59875897,-122.3938452,251,1
Nevada,California,39.30394768,-120.7627281,251,1
Okmulgee,Oklahoma,35.64661916,-95.96432828,251,0
Tazewell,Illinois,40.50716185,-89.51404662,251,8
Atkinson,Georgia,31.29633502,-82.87545866,250,2
Carter,Tennessee,36.28969086,-82.12588974,250,2
Colusa,California,39.17881957,-122.2331726,250,2
Midland,Michigan,43.64330771,-84.38804374,250,9
Cabell,West Virginia,38.42424062,-82.23855912,249,2
Hancock,Georgia,33.2721566,-82.99766919,249,33
Jeff Davis,Georgia,31.80405727,-82.6372487,249,4
Nicollet,Minnesota,44.35291112,-94.24710352,249,13
Union,South Carolina,34.68835752,-81.61730349,249,1
Madison,Georgia,34.12920917,-83.21218732,248,4
Montrose,Colorado,38.40214114,-108.2639022,248,13
Cass,Michigan,41.91522292,-85.99405727,247,8
Pottawatomie,Oklahoma,35.20614018,-96.94923008,246,6
Choctaw,Alabama,32.02227341,-88.2656443,245,12
Sussex,Virginia,36.92432914,-77.25791182,245,7
Trempealeau,Wisconsin,44.30360275,-91.35893614,245,1
Washington,Alabama,31.4092794,-88.20689944,245,9
Allegany,Maryland,39.62357628,-78.69280486,244,18
Ottawa,Oklahoma,36.83532655,-94.81011909,244,2
Taylor,Florida,30.04848048,-83.60445406,244,2
Caddo,Oklahoma,35.17364557,-98.37534464,243,11
Calhoun,South Carolina,33.66926881,-80.77722168,243,3
Greene,Tennessee,36.17470125,-82.84691273,243,4
Montgomery,Mississippi,33.49419589,-89.61729103,243,3
York,Virginia,37.24374789,-76.54412815,243,3
Prince Edward,Virginia,37.22554789,-78.43597949,242,6
Ionia,Michigan,42.94502238,-85.07413319,241,5
White,Georgia,34.64624278,-83.74905525,241,5
Barnwell,South Carolina,33.26679302,-81.43584352,240,2
Newaygo,Michigan,43.554374,-85.80070107,240,0
Hopewell,Virginia,37.29186313,-77.29754684,238,5
Madison,Arkansas,36.01038185,-93.72524943,238,1
Wayne,New York,43.15494365,-77.02976528,238,3
Catahoula,Louisiana,31.66778967,-91.84526385,237,3
Canovanas,Puerto Rico,18.328802,-65.887612,236,0
Alexander,North Carolina,35.9223796,-81.17751948,235,2
Chaves,New Mexico,33.36406072,-104.4665365,235,4
Harrison,Indiana,38.19467379,-86.10948271,235,22
Lawrence,Mississippi,31.55147224,-90.10841127,235,3
Stewart,Georgia,32.07996777,-84.83208037,235,4
Giles,Tennessee,35.20222469,-87.03992678,234,4
Mendocino,California,39.4381191,-123.3911313,234,4
Oswego,New York,43.42778894,-76.14635194,234,3
Augusta,Virginia,38.16404586,-79.12461614,233,2
Coffee,Tennessee,35.49090731,-86.07311784,233,0
Lumpkin,Georgia,34.57286511,-84.00425681,233,5
Calhoun,Florida,30.40666734,-85.19394153,232,7
Carter,Oklahoma,34.25103751,-97.28552485,232,3
Charlton,Georgia,30.78371028,-82.13951596,232,2
Hill,Texas,31.99045053,-97.13423143,232,2
Montgomery,Virginia,37.17746986,-80.37868691,232,3
Pettis,Missouri,38.72798918,-93.28471706,232,3
Wayne,Indiana,39.8633444,-85.01044989,232,7
Grundy,Illinois,41.28569601,-88.41905692,231,5
Carroll,Mississippi,33.44834567,-89.91994479,230,11
Dooly,Georgia,32.15630737,-83.79746561,230,14
Obion,Tennessee,36.35732446,-89.14921589,230,4
Randolph,Georgia,31.76622818,-84.75732369,230,26
Bannock,Idaho,42.67002716,-112.2233311,229,1
Bullitt,Kentucky,37.97162523,-85.68955617,229,4
Danville,Virginia,36.58022376,-79.40395668,229,3
Houston,Texas,31.31925973,-95.42226208,229,0
Humphreys,Mississippi,33.12825718,-90.52252707,229,10
Madison,Texas,30.96694679,-95.93003775,229,0
Greene,Alabama,32.85504247,-87.95684022,228,10
Platte,Missouri,39.38154439,-94.77068479,228,6
Telfair,Georgia,31.92829517,-82.93491155,228,5
Itawamba,Mississippi,34.27993475,-88.3606733,227,9
Uinta,Wyoming,41.2878183,-110.5475782,227,0
Phillips,Arkansas,34.43268455,-90.84800154,226,6
Miami,Indiana,40.76940965,-86.04525048,225,2
Monroe,Tennessee,35.44550387,-84.24902965,225,7
Polk,Oregon,44.90322804,-123.4128888,225,12
Beaufort,North Carolina,35.48531943,-76.84325809,224,1
Haywood,Tennessee,35.58332824,-89.28536625,224,4
Prentiss,Mississippi,34.61810501,-88.51986294,224,6
Vega Baja,Puerto Rico,18.428262,-66.397924,224,0
Kent,Maryland,39.24976208,-76.04741541,223,23
Hillsdale,Michigan,41.88753639,-84.59312019,222,25
Jefferson,Oregon,44.62806839,-121.17832,222,0
Williamson,Illinois,37.73033511,-88.92994027,222,4
Island,Washington,48.14713305,-122.5216407,221,11
Chaffee,Colorado,38.74745778,-106.1926573,220,19
McDuffie,Georgia,33.47851918,-82.48252774,220,8
Peach,Georgia,32.56934316,-83.82937,220,9
Colorado,Texas,29.622098,-96.5273805,219,0
Hancock,Mississippi,30.41830223,-89.48851033,219,14
Hertford,North Carolina,36.3607755,-76.98104134,219,11
Manitowoc,Wisconsin,44.11946801,-87.80928853,219,1
Barren,Kentucky,36.96469836,-85.93338945,218,2
Greene,Indiana,39.03630547,-86.96223202,218,34
Ross,Ohio,39.33705391,-83.06000914,218,5
Dawson,Georgia,34.44244079,-84.16964071,217,3
Echols,Georgia,30.71101099,-82.89687287,217,0
Howard,Arkansas,34.09007427,-93.9934871,217,1
Alamosa,Colorado,37.57250606,-105.7885451,216,7
Concordia,Louisiana,31.44817835,-91.63814433,216,7
Gunnison,Colorado,38.66611652,-107.0320729,216,6
Hamilton,Iowa,42.38382428,-93.70197703,216,1
Lawrence,Alabama,34.52041498,-87.31069453,216,0
St. Francois,Missouri,37.81214171,-90.47598685,216,2
Tippah,Mississippi,34.76872156,-88.90988194,216,11
Andrews,Texas,32.30468633,-102.6376548,215,3
Scotland,North Carolina,34.8386299,-79.4757978,215,2
Fannin,Georgia,34.86430205,-84.316964,214,2
Mayes,Oklahoma,36.30179091,-95.23175116,214,5
Warren,North Carolina,36.39728256,-78.10652228,214,6
Wood,West Virginia,39.20967886,-81.5162836,214,3
Herkimer,New York,43.42034246,-74.96145307,213,4
Mesa,Colorado,39.01787888,-108.469799,213,1
Tompkins,New York,42.44945765,-76.47229843,213,0
West Carroll,Louisiana,32.78550125,-91.461201,213,5
Bedford,Virginia,37.3080028,-79.5281964,212,4
Berrien,Georgia,31.27590016,-83.2252992,212,0
Bradford,Florida,29.95079741,-82.16611613,212,2
Burleson,Texas,30.49273808,-96.62158484,212,0
Chautauqua,New York,42.2276921,-79.36691763,212,7
Gulf,Florida,29.93543004,-85.2427099,212,0
Matanuska-Susitna,Alaska,62.31305045,-149.5741743,212,2
Morrow,Oregon,45.41846568,-119.584546,212,1
Taney,Missouri,36.65465345,-93.04075153,212,3
Crenshaw,Alabama,31.72941803,-86.31593104,210,3
Monroe,Illinois,38.27594376,-90.17761038,210,13
Ohio,West Virginia,40.0955451,-80.62203992,210,3
Southampton,Virginia,36.72231125,-77.10642712,210,11
Adair,Oklahoma,35.88494195,-94.65859267,209,4
Dixie,Florida,29.60631086,-83.15724673,208,4
Greene,Arkansas,36.1173546,-90.55832668,208,0
Eddy,New Mexico,32.47167456,-104.3053527,207,2
Linn,Oregon,44.48899494,-122.5373154,207,10
Scott,Indiana,38.68672078,-85.74627859,207,10
Stokes,North Carolina,36.4017975,-80.23893369,207,1
Hampton,South Carolina,32.77419582,-81.13845571,206,4
Jones,Georgia,33.02512137,-83.56019163,206,1
Sweetwater,Wyoming,41.65943896,-108.8827882,206,0
Allen,Kentucky,36.75197631,-86.19457544,205,8
Jenkins,Georgia,32.79248718,-81.96040187,205,17
Kemper,Mississippi,32.75462946,-88.64105766,205,15
Scott,Kentucky,38.29622293,-84.5816631,205,0
Wood,Texas,32.78722382,-95.38236368,205,5
Boone,Iowa,42.03657094,-93.9313999,204,1
Jessamine,Kentucky,37.87119786,-84.58252003,204,0
St. Helena,Louisiana,30.82210324,-90.71013176,204,1
Turner,Georgia,31.71612656,-83.62069378,204,18
Humboldt,California,40.69923009,-123.876044,203,4
Susquehanna,Pennsylvania,41.82147784,-75.80071959,203,26
Watauga,North Carolina,36.23103603,-81.70033724,203,0
Arecibo,Puerto Rico,18.406631,-66.675077,202,0
Banks,Georgia,34.35607081,-83.49644388,202,3
George,Mississippi,30.86259065,-88.64436789,202,3
Iroquois,Illinois,40.74717633,-87.82466784,202,5
Marinette,Wisconsin,45.38553432,-88.033246,202,3
Randolph,West Virginia,38.769899,-79.87919615,202,0
Calumet,Wisconsin,44.0816316,-88.21780273,201,2
Garfield,Oklahoma,36.3791334,-97.78265517,201,2
Henry,Alabama,31.51148016,-85.24267944,201,3
Franklin,Kentucky,38.2379395,-84.87962551,200,5
Haywood,North Carolina,35.55269063,-82.98196486,200,0
Pickens,Georgia,34.46589159,-84.46406611,200,5
Knox,Illinois,40.93148779,-90.2133034,199,1
Alcorn,Mississippi,34.88084463,-88.57996173,198,2
Morton,North Dakota,46.71681782,-101.2822377,198,3
Putnam,Indiana,39.66437981,-86.84517605,198,8
Cole,Missouri,38.50455671,-92.27860244,196,2
Martin,North Carolina,35.84326734,-77.10860251,196,6
McNairy,Tennessee,35.17468549,-88.5647812,195,1
Chenango,New York,42.49430041,-75.60887553,194,6
Clinton,Iowa,41.89981633,-90.53275096,194,2
Comanche,Texas,31.94854689,-98.55876441,194,2
Winona,Minnesota,43.98772283,-91.78081305,193,16
DeKalb,Tennessee,35.97616272,-85.83689361,192,1
Johnson,Georgia,32.70211082,-82.66166794,192,2
Bell,Kentucky,36.73355174,-83.67766671,191,1
Bertie,North Carolina,36.0688473,-76.96545943,191,4
Cambria,Pennsylvania,40.49527404,-78.71377428,191,3
Martin,Minnesota,43.67429718,-94.55099908,190,5
Tishomingo,Mississippi,34.74023475,-88.23917219,190,3
Carteret,North Carolina,34.8932941,-76.54120135,189,5
Cherokee,Oklahoma,35.90692775,-94.99980896,189,1
Dodge,Georgia,32.17265114,-83.16948926,189,2
Dorado,Puerto Rico,18.436115,-66.278669,189,0
Federal Correctional Institution (FCI),Michigan,,,189,5
Greene,Georgia,33.5769205,-83.17139104,189,11
Lanier,Georgia,31.0382857,-83.06472457,189,3
Roane,Tennessee,35.84923189,-84.52458689,189,0
Grant,Louisiana,31.59882456,-92.56124347,188,3
Isabella,Michigan,43.64060976,-84.84664923,188,8
Jennings,Indiana,38.99588883,-85.62710784,188,12
Orange,Virginia,38.24530219,-78.015604,188,3
Pecos,Texas,30.78097267,-102.7241261,188,1
Edgefield,South Carolina,33.77221995,-81.96231108,187,4
Westmoreland,Virginia,38.11021557,-76.80213247,187,2
Brantley,Georgia,31.19576557,-81.97743999,186,3
Claiborne,Louisiana,32.82308512,-92.99526883,186,10
Indiana,Pennsylvania,40.65241041,-79.08963285,186,6
Robertson,Texas,31.02539637,-96.51272246,186,0
DeKalb,Indiana,41.39804622,-84.99906934,185,4
Hart,Georgia,34.34626973,-82.96567682,185,0
Lincoln,Missouri,39.05345619,-90.95588181,185,1
Perry,Missouri,37.70660776,-89.82741088,185,3
Stoddard,Missouri,36.85571651,-89.9444155,185,9
White,Arkansas,35.25688493,-91.74908296,185,2
Williams,North Dakota,48.34522353,-103.4793387,185,1
Natrona,Wyoming,42.96180148,-106.797885,184,0
Daviess,Indiana,38.70186039,-87.07185406,182,18
Thurston,Nebraska,42.15725356,-96.54157099,182,2
Cherokee,Alabama,34.17805983,-85.60638968,181,7
Fannin,Texas,33.59564294,-96.10751083,181,8
Karnes,Texas,28.90705334,-97.85960149,181,0
La Plata,Colorado,37.28632032,-107.8429014,180,2
Barry,Missouri,36.70978521,-93.82919888,179,0
LaSalle,Louisiana,31.67884782,-92.15907765,179,1
Audrain,Missouri,39.215877,-91.84242683,178,1
Calhoun,Georgia,31.53169785,-84.62725131,178,6
Cherokee,North Carolina,35.1349263,-84.05970864,178,2
Lamar,Georgia,33.07841647,-84.14263877,178,8
Marshall,Tennessee,35.45798777,-86.76420988,178,2
Chippewa,Wisconsin,45.06939744,-91.28068855,177,0
Hancock,Ohio,41.00250487,-83.66838948,177,2
Rio Grande,Puerto Rico,18.346329,-65.813742,177,0
Washington,Ohio,39.45690571,-81.49121382,177,21
Big Horn,Montana,45.42335905,-107.492347,176,5
Camp,Texas,32.97195142,-94.97790104,176,2
Dunklin,Missouri,36.27167174,-90.09122243,176,3
Klamath,Oregon,42.68762984,-121.6496461,175,1
Luna,New Mexico,32.18179341,-107.7508826,175,3
Tioga,New York,42.16852837,-76.30835812,175,24
Columbia,Wisconsin,43.46492199,-89.33589004,173,1
Gibson,Indiana,38.30393723,-87.58054938,173,2
Greene,Mississippi,31.21444233,-88.63922281,173,10
Missoula,Montana,47.03728583,-113.9213508,173,1
Pemiscot,Missouri,36.2130572,-89.78742322,173,6
Pike,Kentucky,37.47088263,-82.39487445,173,3
Reno,Kansas,37.95230263,-98.08607292,173,1
Tehama,California,40.12570935,-122.2370171,173,1
Tunica,Mississippi,34.64967704,-90.37481167,173,3
Dinwiddie,Virginia,37.07544585,-77.63451754,172,2
Adair,Kentucky,37.10459774,-85.28129668,171,19
Dallam,Texas,36.27787176,-102.6020725,171,1
Franklin,Tennessee,35.15634626,-86.09201039,171,3
Jackson,Texas,28.95472367,-96.57749563,171,1
Jayuya,Puerto Rico,18.211446,-66.58878,171,0
Austin,Texas,29.88548725,-96.27736949,170,0
Caswell,North Carolina,36.39312665,-79.33353281,170,2
Butler,Missouri,36.71462476,-90.40421163,169,1
Coshocton,Ohio,40.30096166,-81.91729018,169,4
Owyhee,Idaho,42.58016894,-116.1693871,169,0
Union,Florida,30.04412971,-82.37497443,169,3
Wayne,Tennessee,35.23868267,-87.78644456,169,0
Botetourt,Virginia,37.55531756,-79.80982182,168,4
Colonial Heights,Virginia,37.26420587,-77.39609676,168,20
Putnam,Ohio,41.02094889,-84.1336111,168,16
Ripley,Indiana,39.10235626,-85.26212744,168,7
Steuben,Indiana,41.64423868,-85.00101094,168,3
Union,South Dakota,42.83112163,-96.6557828,168,2
Caroline,Virginia,38.02679129,-77.34901405,167,4
Geneva,Alabama,31.09389027,-85.83572839,167,0
Caldwell,Louisiana,32.0902519,-92.11752148,166,1
Cooke,Texas,33.63979567,-97.21240912,166,0
Lake,California,39.10124298,-122.7536244,166,1
Wayne,West Virginia,38.14901357,-82.42287994,166,9
Cleburne,Arkansas,35.53864922,-92.02640019,165,5
Grayson,Kentucky,37.46231118,-86.34248968,165,11
Jasper,Indiana,41.02078733,-87.11553319,165,2
Le Sueur,Minnesota,44.37136597,-93.72844721,165,1
Lincoln,Tennessee,35.13738622,-86.58910106,165,1
Montcalm,Michigan,43.31082541,-85.15252824,165,1
Barry,Michigan,42.59513984,-85.30834519,164,2
Brewster,Texas,29.81008251,-103.2520326,164,1
Jefferson,Ohio,40.38614126,-80.76259514,164,2
Kay,Oklahoma,36.81799745,-97.14421435,164,9
Lawrence,Ohio,38.59743452,-82.53466552,164,0
Pulaski,Kentucky,37.10466131,-84.57629079,164,2
Pulaski,Missouri,37.82462075,-92.20783203,164,1
Brunswick,Virginia,36.76366949,-77.8593436,163,1
Dare,North Carolina,35.66520691,-75.71767334,163,1
Gurabo,Puerto Rico,18.266461,-65.979705,163,0
Union,Ohio,40.30016061,-83.37239023,163,1
Clay,Iowa,43.08247182,-95.15096481,162,1
Hawkins,Tennessee,36.44355426,-82.94885298,162,2
Laclede,Missouri,37.65896829,-92.5888493,162,1
Lyon,Nevada,39.01777974,-119.1870479,162,2
Monroe,Wisconsin,43.94641218,-90.618819,162,1
Nelson,Kentucky,37.80335779,-85.4657193,162,2
Cass,Illinois,39.96991073,-90.24734436,161,11
Hickman,Tennessee,35.80609681,-87.47643507,161,0
Livingston,New York,42.72596275,-77.77966158,161,8
Franklin,Indiana,39.4142482,-85.06062647,160,8
Jefferson Davis,Mississippi,31.56884708,-89.8267099,160,4
Perry,Indiana,38.07809328,-86.63741946,160,12
Warren,Illinois,40.84925021,-90.6147432,160,0
Flathead,Montana,48.29575866,-114.0520569,159,2
Person,North Carolina,36.38989032,-78.97217358,159,1
Washington,Idaho,44.45275475,-116.7847688,159,2
Oglethorpe,Georgia,33.8786296,-83.08278123,158,7
Arkansas,Arkansas,34.29145151,-91.37277296,157,1
Blair,Pennsylvania,40.47961444,-78.34917412,157,2
Chemung,New York,42.13891056,-76.7638805,157,2
Franklin,Iowa,42.73270384,-93.26256925,157,3
Lamb,Texas,34.06859623,-102.3516289,157,7
Louisa,Virginia,37.97850256,-77.96274807,157,2
Nottoway,Virginia,37.1435975,-78.05065922,157,6
Wilkes,Georgia,33.78290391,-82.74286107,157,3
Amite,Mississippi,31.17467303,-90.80501621,156,4
Clarke,Iowa,41.02868181,-93.78499767,156,3
Emporia,Virginia,36.69455571,-77.53406129,156,15
Jefferson,Florida,30.43669112,-83.89442308,156,5
Yauco,Puerto Rico,18.080374,-66.858814,156,0
Fluvanna,Virginia,37.84157909,-78.27715475,154,8
Garvin,Oklahoma,34.70418038,-97.30811132,154,3
Goodhue,Minnesota,44.40849741,-92.7234195,154,8
Kennebec,Maine,44.40759555,-69.76738544,154,10
Lamar,Alabama,33.77995024,-88.09668032,154,1
Macon,Georgia,32.35207048,-84.04234127,154,10
Waynesboro,Virginia,38.06451466,-78.90293905,154,2
Ashley,Arkansas,33.19153461,-91.7698471,153,4
Cottonwood,Minnesota,44.00715262,-95.18138802,153,0
Crawford,Ohio,40.85065156,-82.91989099,153,5
Henry,Illinois,41.3533994,-90.13296166,153,1
Orange,Indiana,38.5411892,-86.49523093,153,24
Bremer,Iowa,42.77461496,-92.31795937,152,7
Clark,Wisconsin,44.73483377,-90.61207486,152,7
Columbia,Arkansas,33.21230701,-93.22642793,152,5
Independence,Arkansas,35.74242707,-91.57001641,152,0
Jefferson,Mississippi,31.73397872,-91.03764977,152,4
Wood,Wisconsin,44.45537896,-90.04158336,152,1
Auglaize,Ohio,40.55998859,-84.2242143,151,5
Camden,Missouri,38.02199522,-92.76083747,151,3
Jackson,West Virginia,38.84263974,-81.68148753,151,19
Perry,Mississippi,31.17161885,-88.99281835,151,6
Union,Georgia,34.82995757,-83.98967069,151,4
Wayne,Pennsylvania,41.64938475,-75.29956506,151,8
Cameron,Louisiana,29.87592238,-93.19310676,150,0
Hempstead,Arkansas,33.73325583,-93.66935133,150,2
Lawrence,Arkansas,36.04188196,-91.10867198,150,9
Pitkin,Colorado,39.21720112,-106.9310027,150,2
Webster,Mississippi,33.61300486,-89.28392912,150,11
Wilcox,Georgia,31.97496928,-83.43438555,150,17
Wilkinson,Georgia,32.80291082,-83.17140684,150,10
Carroll,Iowa,42.03617207,-94.86032705,149,1
Grand Traverse,Michigan,44.69565625,-85.55585247,149,5
Pike,Georgia,33.09310242,-84.38790389,149,3
Candler,Georgia,32.40209349,-82.07702563,148,1
Cattaraugus,New York,42.24778241,-78.67923096,148,6
Choctaw,Oklahoma,34.02807439,-95.54771129,148,1
Clinch,Georgia,30.91395822,-82.70432472,148,4
Harrison,West Virginia,39.2853852,-80.37919577,148,1
Marion,West Virginia,39.50984542,-80.24244659,148,2
Morgan,Illinois,39.71654544,-90.20255104,148,5
Knox,Kentucky,36.89225732,-83.85403396,147,8
Martinsville,Virginia,36.68212094,-79.86352771,147,1
Castro,Texas,34.53016752,-102.2617243,146,1
Haralson,Georgia,33.79602175,-85.21005667,146,6
Vermilion,Illinois,40.18417171,-87.73384359,146,2
Christian,Missouri,36.9711783,-93.18537118,145,1
Hockley,Texas,33.60771256,-102.3431676,145,4
Montgomery,New York,42.90123494,-74.44011632,145,4
White,Tennessee,35.92929884,-85.45591799,145,3
Allamakee,Iowa,43.28383218,-91.37860922,144,4
Cabo Rojo,Puerto Rico,18.040993,-67.154391,144,0
Crow Wing,Minnesota,46.48096553,-94.06755609,144,12
Fajardo,Puerto Rico,18.318373,-65.666866,144,0
Perry,Kentucky,37.25023553,-83.22922731,144,2
Upshur,Texas,32.73706798,-94.93999853,144,0
Gillespie,Texas,30.31824095,-98.94676915,143,0
Goochland,Virginia,37.71714806,-77.90381514,143,6
Marion,Tennessee,35.12997174,-85.62265895,143,4
Calloway,Kentucky,36.62093411,-88.2731593,142,2
Cayey,Puerto Rico,18.102851,-66.14914,142,0
Hopkins,Texas,33.14875072,-95.56351139,142,1
Jefferson,Illinois,38.29980057,-88.9240025,142,17
Morrow,Ohio,40.5236356,-82.7892599,142,1
San Augustine,Texas,31.39457611,-94.17000399,142,12
San Sebastian,Puerto Rico,18.328646,-66.971214,142,0
Starke,Indiana,41.27890281,-86.64686895,142,4
Gray,Texas,35.40081878,-100.8129222,141,4
Hardin,Ohio,40.66015414,-83.65929931,141,12
Maui,Hawaii,20.86399628,-156.5689097,141,6
Morovis,Puerto Rico,18.316963,-66.420383,141,0
Quitman,Mississippi,34.25157572,-90.28908,141,1
Red River,Louisiana,32.09530039,-93.34213308,141,9
Screven,Georgia,32.74976524,-81.60779441,141,8
Hood River,Oregon,45.51872811,-121.6552036,140,0
Juana Diaz,Puerto Rico,18.050764,-66.494581,140,0
Pierce,Wisconsin,44.71850291,-92.4224416,140,0
Limestone,Texas,31.5454767,-96.58095444,139,1
Rabun,Georgia,34.88389445,-83.40304637,139,3
Barranquitas,Puerto Rico,18.201592,-66.30963,138,0
Butler,Kansas,37.78134351,-96.83878537,138,0
Chisago,Minnesota,45.5021011,-92.90861945,138,1
Wasco,Oregon,45.16292781,-121.1670954,138,3
Jefferson,Indiana,38.78576239,-85.43633383,137,2
Lewis,Washington,46.57756476,-122.3925769,137,3
Otter Tail,Minnesota,46.40846929,-95.70835255,137,1
Polk,Missouri,37.6162296,-93.39828174,137,0
Wilkinson,Mississippi,31.16078225,-91.31018819,137,12
Allendale,South Carolina,32.98837386,-81.35321066,136,3
Clay,Alabama,33.26984193,-85.85836077,136,2
Penobscot,Maine,45.40194593,-68.65020455,136,5
Cayuga,New York,42.91261714,-76.55731592,135,2
Claiborne,Tennessee,36.48319149,-83.65947309,135,0
Oconto,Wisconsin,45.02715345,-88.26807503,135,0
Wabash,Indiana,40.84704239,-85.79328272,135,3
Armstrong,Pennsylvania,40.81665618,-79.46290811,134,6
Muskingum,Ohio,39.96575964,-81.94363275,134,1
Bingham,Idaho,43.2167288,-112.3978437,133,2
Carroll,Kentucky,38.66599534,-85.12601074,133,2
Evans,Georgia,32.15328841,-81.8870105,133,1
Benton,Oregon,44.49167306,-123.4316987,132,6
Boyd,Kentucky,38.36176608,-82.68652187,132,3
Chester,Tennessee,35.42527478,-88.6095842,132,0
Elmore,Idaho,43.3507101,-115.4701578,132,2
Franklin,Virginia,36.99536167,-79.88023649,132,1
Oglala Lakota,South Dakota,43.33749164,-102.5555498,132,1
Cross,Arkansas,35.29631396,-90.77185818,131,1
Custer,Oklahoma,35.63853802,-99.00170785,131,0
Jackson,Kansas,39.41673394,-95.79356799,131,1
Kendall,Texas,29.94414155,-98.7113588,131,0
Mahaska,Iowa,41.33521503,-92.64083907,131,17
Aguadilla,Puerto Rico,18.459681,-67.120815,130,0
Crockett,Tennessee,35.81830662,-89.14916269,130,3
Logan,Oklahoma,35.91899576,-97.44352845,130,1
Posey,Indiana,38.02097333,-87.86480429,130,0
San Jacinto,Texas,30.57933681,-95.16260304,130,2
Stephens,Oklahoma,34.48556989,-97.85141892,130,1
Vega Alta,Puerto Rico,18.409346,-66.33725,130,0
Ward,North Dakota,48.22390169,-101.5436763,130,1
Cass,Nebraska,40.90899107,-96.13971217,129,1
Harvey,Kansas,38.04293782,-97.42747573,129,1
Morgan,Georgia,33.59232073,-83.49129491,129,0
Red River,Texas,33.61886692,-95.04841765,129,12
Bailey,Texas,34.06854817,-102.8299707,128,1
Fayette,Alabama,33.72076938,-87.73886638,128,5
Humacao,Puerto Rico,18.145211,-65.810174,128,0
Lee,Texas,30.31120597,-96.97045773,128,3
Otsego,Michigan,45.02085831,-84.59898295,128,10
TriCounty,Utah,40.12491499,-109.5174415,128,0
Zavala,Texas,28.86617238,-99.76050829,128,0
Fayette,Indiana,39.63684962,-85.17797541,127,7
Leon,Texas,31.29872538,-95.9936328,127,0
Naranjito,Puerto Rico,18.288019,-66.252703,127,0
Otero,New Mexico,32.61348406,-105.7417604,127,10
Salinas,Puerto Rico,18.010387,-66.256592,127,0
Shelby,Iowa,41.6850066,-95.31015553,127,0
Whitley,Indiana,41.13863784,-85.50791236,127,6
Clay,Kentucky,37.16451126,-83.712575,126,4
Crockett,Texas,30.72367027,-101.4134238,126,1
Harlan,Kentucky,36.85699301,-83.21899516,126,2
Orocovis,Puerto Rico,18.215046,-66.433604,126,0
Stark,North Dakota,46.80851182,-102.6576326,126,3
Alpena,Michigan,45.03477666,-83.62212411,125,13
Casey,Kentucky,37.32533118,-84.92726209,125,8
Des Moines,Iowa,40.92012606,-91.18326592,125,2
Emmet,Iowa,43.37782951,-94.67858943,125,0
Putnam,West Virginia,38.50782345,-81.9082131,125,0
Sullivan,Missouri,40.2099105,-93.11150106,125,0
Drew,Arkansas,33.59035001,-91.71777921,124,2
Iosco,Michigan,44.35486835,-83.63484895,124,11
Jackson,Kentucky,37.41866422,-83.99825483,124,14
Lafayette,Missouri,39.06986886,-93.78076396,124,2
Pipestone,Minnesota,44.02301619,-96.25841142,124,6
Staunton,Virginia,38.15965544,-79.05979937,124,0
Desha,Arkansas,33.83011025,-91.25500948,123,1
Franklin,Kansas,38.56443815,-95.28644341,123,1
Refugio,Texas,28.3238976,-97.15766311,123,0
Weakley,Tennessee,36.29896232,-88.71990865,123,1
Beltrami,Minnesota,47.97373527,-94.93732139,122,0
Clark,Kentucky,37.9689263,-84.14615986,122,7
Irwin,Georgia,31.60213036,-83.27501387,122,1
Lawrence,Missouri,37.10626634,-93.83293097,122,2
New Madrid,Missouri,36.59666326,-89.66070007,122,1
Juniata,Pennsylvania,40.53358749,-77.3997513,121,6
Mississippi,Missouri,36.82516239,-89.29505753,121,0
Polk,North Carolina,35.27820615,-82.16812354,121,5
Randolph,Arkansas,36.3415714,-91.02455531,121,2
Carroll,Indiana,40.5807832,-86.56198812,120,2
Clark,Arkansas,34.04613432,-93.17484713,120,0
Clinton,Ohio,39.41485808,-83.80852286,120,4
Gratiot,Michigan,43.29265605,-84.60505416,120,15
Jefferson,New York,44.04200959,-75.94653457,120,0
Lee,Illinois,41.74583951,-89.29977132,120,2
Nez Perce,Idaho,46.32638236,-116.7500975,120,19
Freestone,Texas,31.70422788,-96.15072516,119,0
Green,Wisconsin,42.6794956,-89.60243287,119,1
McDonough,Illinois,40.45674722,-90.67775541,119,15
Palo Pinto,Texas,32.75310985,-98.31319001,119,2
Pine,Minnesota,46.12105238,-92.74070188,119,0
Shawano,Wisconsin,44.78902246,-88.76443896,119,0
Washington,Virginia,36.72341572,-81.95666289,119,4
Conway,Arkansas,35.26205537,-92.70506566,118,3
Cowley,Kansas,37.23781842,-96.83776647,118,2
Dodge,Minnesota,44.02238415,-92.86244324,118,0
Hardin,Iowa,42.38353877,-93.23654611,118,0
Poweshiek,Iowa,41.68625425,-92.53155731,118,8
Raleigh,West Virginia,37.76936795,-81.2456041,118,0
Sequoyah,Oklahoma,35.49447108,-94.75463785,118,3
Hawaii,Hawaii,19.60121157,-155.5210167,117,0
Logan,Arkansas,35.21413234,-93.71951016,117,0
Nevada,Arkansas,33.66340119,-93.30632432,117,8
Salem,Virginia,37.2836193,-80.06219455,117,3
Adair,Missouri,40.19058551,-92.60078167,116,0
Gem,Idaho,44.06482372,-116.398376,116,0
Lake,Montana,47.64514965,-114.0898013,116,0
Montgomery,Kansas,37.19236568,-95.74329258,116,3
Pontotoc,Oklahoma,34.72959848,-96.68337199,116,2
Zapata,Texas,27.00156391,-99.16987152,116,1
Campbell,Tennessee,36.40355516,-84.1510856,115,1
Chattooga,Georgia,34.47197698,-85.34535662,115,2
Gloucester,Virginia,37.40809042,-76.53524337,115,1
McLeod,Minnesota,44.82367677,-94.27287017,115,0
Montgomery,Illinois,39.23198845,-89.47809254,115,3
Scioto,Ohio,38.80270163,-82.98907345,115,0
Simpson,Kentucky,36.74058474,-86.58047435,115,5
Trinity,Texas,31.0879489,-95.1367187,115,0
Union,Pennsylvania,40.96188846,-77.05996014,115,2
Aransas,Texas,28.10556197,-96.9995047,114,0
Clinton,New York,44.74530905,-73.67875352,114,4
Crawford,Pennsylvania,41.68447709,-80.10760592,114,1
Guthrie,Iowa,41.68378965,-94.50111014,114,5
Huron,Michigan,43.83353985,-83.04078453,114,3
McIntosh,Georgia,31.49683595,-81.40163426,114,1
McPherson,Kansas,38.39184858,-97.64769869,114,0
Preston,West Virginia,39.46770987,-79.66712803,114,2
San German,Puerto Rico,18.111484,-67.038581,114,0
Talbot,Georgia,32.69642758,-84.53351366,114,3
Geary,Kansas,38.99871131,-96.7577178,113,1
Howard,Texas,32.30621324,-101.4356444,113,2
Itasca,Minnesota,47.51009045,-93.63092229,113,12
Marion,Georgia,32.3483402,-84.52733571,113,4
Marion,Iowa,41.33445101,-93.09934783,113,0
Marion,Texas,32.79868409,-94.3566123,113,4
Preble,Ohio,39.7420247,-84.64787018,113,2
Stone,Mississippi,30.79187949,-89.11547539,113,2
Dawson,Texas,32.74255572,-101.9477242,112,1
Douglas,Nevada,38.912862,-119.6171333,112,0
Heard,Georgia,33.29686567,-85.12886832,112,3
Franklin,Vermont,44.85627605,-72.91249563,111,6
Huntington,Indiana,40.82907273,-85.48822092,111,2
King George,Virginia,38.26818502,-77.15852768,111,4
Madison,Idaho,43.78141028,-111.6538474,111,0
Poinsett,Arkansas,35.57433534,-90.66268713,111,3
Somerset,Maryland,38.1163542,-75.75118623,111,3
Carlton,Minnesota,46.59180601,-92.67601019,110,0
Duval,Texas,27.68184592,-98.50864568,110,0
Grayson,Virginia,36.65677234,-81.23215889,110,4
Halifax,Virginia,36.76654925,-78.93512622,110,1
Jackson,Iowa,42.17178824,-90.57354837,110,0
Marquette,Michigan,46.4338914,-87.64043701,110,11
McIntosh,Oklahoma,35.37235506,-95.66599306,110,1
Nolan,Texas,32.30365282,-100.4060208,110,1
O'Brien,Iowa,43.08310673,-95.62474482,110,1
Pocahontas,Iowa,42.73420133,-94.67862564,110,1
Bedford,Pennsylvania,40.00522157,-78.48998442,109,4
Bleckley,Georgia,32.43829035,-83.33035166,109,1
Codington,South Dakota,44.97788119,-97.18827677,109,0
Las Piedras,Puerto Rico,18.187527,-65.869468,109,0
Murray,Minnesota,44.02216709,-95.76328482,109,0
Polk,Arkansas,34.48254879,-94.22728802,109,0
Tuolumne,California,38.02644018,-119.9525093,109,0
Douglas,Minnesota,45.93348491,-95.45335469,108,0
Greene,Virginia,38.29545894,-78.46525378,108,2
Le Flore,Oklahoma,34.89851864,-94.70392124,108,1
Powhatan,Virginia,37.55016038,-77.91267882,108,3
Saunders,Nebraska,41.2278103,-96.63773905,108,2
Wyoming,New York,42.70145109,-78.22199579,108,5
Ashland,Ohio,40.84772277,-82.27280781,107,4
Brookings,South Dakota,44.36974375,-96.79079945,107,0
Carroll,Tennessee,35.97366108,-88.45189331,107,2
Cidra,Puerto Rico,18.173559,-66.161179,107,0
Clearfield,Pennsylvania,41.00110782,-78.47592663,107,0
Fayette,West Virginia,38.02974928,-81.08286634,107,5
Harrison,Kentucky,38.44188174,-84.32869741,107,0
Lares,Puerto Rico,18.269035,-66.867236,107,0
Manati,Puerto Rico,18.420473,-66.490461,107,0
Marion,Illinois,38.64963204,-88.91899208,107,0
Bradley,Arkansas,33.46755808,-92.15980837,106,2
Cedar,Iowa,41.77233777,-91.13246684,106,1
Live Oak,Texas,28.35101362,-98.1246786,106,1
Saguache,Colorado,38.08054629,-106.282466,106,2
Seminole,Oklahoma,35.16478725,-96.61686741,106,5
Wells,Indiana,40.72934187,-85.22132966,106,1
Clinton,Pennsylvania,41.23255967,-77.63785995,105,5
Douglas,Oregon,43.27941273,-123.167291,105,1
Fulton,Ohio,41.60213491,-84.12571393,105,0
Guayama,Puerto Rico,18.007516,-66.133908,105,0
Jones,Iowa,42.12118609,-91.13139641,105,1
Somerset,Pennsylvania,39.97172723,-79.02699593,105,1
Bonner,Idaho,48.29996017,-116.6017932,104,0
Buffalo,South Dakota,44.07657829,-99.20814467,104,3
Catano,Puerto Rico,18.437269,-66.143306,104,0
Gooding,Idaho,42.96927962,-114.8108306,104,1
Moca,Puerto Rico,18.377805,-67.080952,104,0
Polk,Minnesota,47.77372465,-96.40134647,104,3
Woodford,Kentucky,38.04178222,-84.7417556,104,0
Jasper,Georgia,33.31535543,-83.68844964,103,1
Knox,Ohio,40.39830217,-82.42027563,103,2
Newton,Indiana,40.95610449,-87.39635768,103,10
Pittsburg,Oklahoma,34.92065823,-95.7513432,103,3
Reeves,Texas,31.32323325,-103.6903896,103,2
Shelby,Ohio,40.33163494,-84.20258189,103,4
Warren,Missouri,38.76529479,-91.16124662,103,0
Benton,Iowa,42.08011739,-92.06463573,102,1
Fulton,Indiana,41.0469907,-86.26252745,102,1
Labette,Kansas,37.19113093,-95.29849679,102,0
Otsego,New York,42.63492579,-75.03151402,102,5
Overton,Tennessee,36.34117832,-85.28989535,102,1
Campbell,Wyoming,44.24886082,-105.5474404,101,0
Clay,Arkansas,36.36826212,-90.4148172,101,4
Clay,South Dakota,42.91296147,-96.97656917,101,0
Henry,Iowa,40.98767962,-91.54436349,101,3
Macoupin,Illinois,39.26119767,-89.92424028,101,3
Mono,California,37.93899289,-118.8872409,101,1
Perry,Pennsylvania,40.40206612,-77.26297447,101,5
Roosevelt,New Mexico,34.02097406,-103.4799493,101,1
San Lorenzo,Puerto Rico,18.147987,-65.976392,101,0
Transylvania,North Carolina,35.20383864,-82.79638423,101,1
Choctaw,Mississippi,33.34598242,-89.24809382,100,4
Florida,Puerto Rico,18.373715,-66.560488,100,0
Hutchinson,Texas,35.84006574,-101.3546643,100,1
Marshall,Kentucky,36.8800707,-88.32803576,100,2
Windham,Vermont,42.986982,-72.71268875,100,3
Cass,Texas,33.07499881,-94.34646905,99,3
New Kent,Virginia,37.50694406,-76.99828634,99,1
Spencer,Indiana,38.01519732,-87.0079644,99,1
Waseca,Minnesota,44.02211116,-93.58720034,99,0
Williamsburg,Virginia,37.28131268,-76.70905141,99,6
Belknap,New Hampshire,43.51637314,-71.41684235,98,4
Charles Mix,South Dakota,43.20660134,-98.58856175,98,0
Grafton,New Hampshire,43.93779815,-71.82057197,98,1
Hocking,Ohio,39.49537927,-82.47991446,98,9
Mountrail,North Dakota,48.20197971,-102.3555315,98,1
Anasco,Puerto Rico,18.287985,-67.120611,97,0
Ellis,Kansas,38.91458712,-99.31751551,97,0
Franklin City,Virginia,36.6831435,-76.93859681,97,4
Grainger,Tennessee,36.27469206,-83.51254721,97,0
Jasper,Texas,30.74685667,-94.02667579,97,1
Montgomery,Georgia,32.17201038,-82.53527476,97,0
Pottawatomie,Kansas,39.37925655,-96.34564657,97,0
Williams,Ohio,41.56052014,-84.58429552,97,3
Defiance,Ohio,41.32398837,-84.49076944,96,4
Floyd,Iowa,43.0600053,-92.78940097,96,2
Isanti,Minnesota,45.56181234,-93.29487636,96,0
Kewaunee,Wisconsin,44.51727459,-87.61468386,96,1
Mason,Michigan,43.99509218,-86.24988902,96,0
Seneca,Ohio,41.12351311,-83.12783209,96,2
Bosque,Texas,31.89978581,-97.63613524,95,0
Delaware,New York,42.19837623,-74.96709306,95,4
Falls,Texas,31.25350609,-96.93630086,95,0
Grant,Arkansas,34.29017991,-92.42320562,95,0
Guernsey,Ohio,40.05026529,-81.49248905,95,6
Hancock,Iowa,43.08178477,-93.73454884,95,2
Park,Wyoming,44.52157546,-109.5852825,95,0
Sabana Grande,Puerto Rico,18.08282,-66.943758,95,0
Washington,North Carolina,35.83810081,-76.57299037,95,3
Yankton,South Dakota,43.00924485,-97.39467635,95,2
Calaveras,California,38.20537103,-120.552913,94,1
Guayanilla,Puerto Rico,18.039942,-66.79186,94,0
Lafayette,Wisconsin,42.66005229,-90.1317729,94,0
Logan,Ohio,40.38996525,-83.76784341,94,1
Long,Georgia,31.75218791,-81.74952375,94,1
Routt,Colorado,40.48596505,-106.9905548,94,6
Towns,Georgia,34.91369188,-83.7410746,94,1
Carroll,Ohio,40.5789686,-81.09178213,93,4
Cherokee,Iowa,42.73538914,-95.62389402,93,1
Delta,Colorado,38.86246243,-107.8631342,93,1
Dukes and Nantucket,Massachusetts,41.40674725,-70.68763497,93,1
Greene,Pennsylvania,39.85746531,-80.22357106,93,0
Knox,Indiana,38.68861576,-87.4194665,93,0
Lewis and Clark,Montana,47.12610041,-112.394698,93,1
Becker,Minnesota,46.93479392,-95.67158144,92,0
Boone,Arkansas,36.3084504,-93.09374925,92,1
Corozal,Puerto Rico,18.304264,-66.327738,92,0
Crawford,Michigan,44.68255561,-84.61006219,92,5
Douglas,Illinois,39.76768052,-88.21854195,92,1
Lincoln,Georgia,33.79201475,-82.45024131,92,2
Miami,Kansas,38.56383358,-94.83832189,92,0
Montezuma,Colorado,37.33859579,-108.5958857,92,4
Montgomery,Kentucky,38.03253032,-83.9145241,92,0
Pawnee,Oklahoma,36.31743373,-96.7033176,92,3
Yancey,North Carolina,35.90079156,-82.31237181,92,0
Humboldt,Nevada,41.40692186,-118.1109427,91,4
Jackson,Tennessee,36.36380466,-85.67239905,91,0
McCormick,South Carolina,33.90161443,-82.30794338,91,2
Polk,Wisconsin,45.46130348,-92.44182875,91,2
Sharkey,Mississippi,32.88149103,-90.8159538,91,0
Mitchell,North Carolina,36.01059309,-82.1582442,90,1
Randolph,Indiana,40.15734772,-85.01139319,90,4
Boyle,Kentucky,37.62680923,-84.8633779,89,0
Campbell,Virginia,37.20553386,-79.09678609,89,1
Ciales,Puerto Rico,18.28885,-66.516475,89,0
Dade,Georgia,34.8549167,-85.50490424,89,1
Marshall,West Virginia,39.86064362,-80.66591062,89,0
Mason,Washington,47.35007586,-123.1863685,89,1
Monroe,Ohio,39.72984936,-81.08464734,89,17
Teller,Colorado,38.88133511,-105.1614893,89,2
Butler,Iowa,42.73172833,-92.79015971,88,2
Garza,Texas,33.17969345,-101.2984114,88,1
Henry,Tennessee,36.33160906,-88.30121797,88,1
Isabela,Puerto Rico,18.44981,-67.005093,88,0
Pulaski,Illinois,37.22631423,-89.13085001,88,0
Barron,Wisconsin,45.42372701,-91.84833627,87,2
Callaway,Missouri,38.83674754,-91.92186505,87,1
Cannon,Tennessee,35.80990797,-86.05738983,87,0
Chippewa,Minnesota,45.02343421,-95.56403693,87,1
Highland,Ohio,39.1839264,-83.60331456,87,1
Webster,Missouri,37.2813734,-92.876329,87,1
Comerio,Puerto Rico,18.224687,-66.221622,86,0
Edmonson,Kentucky,37.21218923,-86.23955613,86,12
Marion,Kentucky,37.55218078,-85.26898542,86,0
Mineral,West Virginia,39.41561583,-78.94104895,86,3
Montour,Pennsylvania,41.03023987,-76.66345939,86,3
Sharp,Arkansas,36.16258158,-91.47819342,86,5
Swain,North Carolina,35.48665845,-83.48748932,86,2
Walsh,North Dakota,48.36876964,-97.72574783,86,0
Aguas Buenas,Puerto Rico,18.251619,-66.126806,85,0
Benton,Mississippi,34.81681228,-89.18945516,85,0
Decatur,Tennessee,35.60048904,-88.11043779,85,0
Henry,Ohio,41.3339642,-84.06830637,85,0
Klickitat,Washington,45.87325839,-120.7913598,85,3
Polk,Tennessee,35.12245443,-84.52075859,85,0
Snyder,Pennsylvania,40.77129231,-77.06840691,85,2
Stutsman,North Dakota,46.97962541,-98.95637318,85,2
Taylor,Iowa,40.73710579,-94.69778563,85,0
Young,Texas,33.17659707,-98.68790885,85,1
Buchanan,Iowa,42.4709188,-91.83510825,84,1
Cleburne,Alabama,33.67679204,-85.52005899,84,1
Franklin,Illinois,37.99189086,-88.92567818,84,0
Hamilton,Nebraska,40.87349452,-98.02099117,84,12
Hidalgo,New Mexico,31.91383467,-108.7151824,84,0
Jo Daviess,Illinois,42.36542373,-90.21094405,84,1
Juneau,Wisconsin,43.92456975,-90.11120239,84,1
Lyman,South Dakota,43.89522709,-99.85201878,84,1
Lyon,Iowa,43.38107862,-96.20926845,84,0
Mifflin,Pennsylvania,40.61116939,-77.61070738,84,1
Miller,Georgia,31.16568912,-84.73151117,84,0
Monona,Iowa,42.05220391,-95.95743843,84,0
Rio Grande,Colorado,37.5836865,-106.3847838,84,2
Wyandot,Ohio,40.84339621,-83.30734173,84,5
Fremont,Colorado,38.47362326,-105.4399667,83,0
Patillas,Puerto Rico,18.03174,-66.012242,83,0
Tyrrell,North Carolina,35.87147226,-76.17055253,83,1
Wythe,Virginia,36.91582035,-81.07834059,83,2
Aguada,Puerto Rico,18.360255,-67.175131,82,0
Ashe,North Carolina,36.43296207,-81.49862729,82,1
Douglas,Wisconsin,46.43222285,-91.91595768,82,0
Franklin,Florida,29.83791238,-84.82731662,82,1
Whitley,Kentucky,36.75700531,-84.14541217,82,1
Barton,Kansas,38.47889676,-98.75636726,81,3
Cascade,Montana,47.30797024,-111.3467922,81,2
Greenbrier,West Virginia,37.9463652,-80.45335881,81,3
Hughes,South Dakota,44.39091534,-99.99661148,81,2
Taos,New Mexico,36.58006022,-105.6310198,81,1
Bennington,Vermont,43.03519828,-73.09048868,80,1
Cheshire,New Hampshire,42.92015988,-72.25311043,80,2
Cortland,New York,42.59509207,-76.07048931,80,0
Grant,Kentucky,38.64962758,-84.62415957,80,5
