FIPS,county,state,Country_Region,Last_Update,Lat,Long_,Confirmed,Deaths,Recovered,Active
45001,Abbeville,South Carolina,US,6/16/20 4:33,34.22333378,-82.46170658,70,0,0,70
22001,Acadia,Louisiana,US,6/16/20 4:33,30.2950649,-92.41419698,597,31,0,566
51001,Accomack,Virginia,US,6/16/20 4:33,37.76707161,-75.63234615,996,14,0,982
16001,Ada,Idaho,US,6/16/20 4:33,43.4526575,-116.2415516,892,22,0,870
19001,Adair,Iowa,US,6/16/20 4:33,41.33075609,-94.47105874,11,0,0,11
29001,Adair,Missouri,US,6/16/20 4:33,40.19058551,-92.60078167,83,0,0,83
40001,Adair,Oklahoma,US,6/16/20 4:33,35.88494195,-94.65859267,96,4,0,92
21001,Adair,Kentucky,US,6/16/20 4:33,37.10459774,-85.28129668,101,19,0,82
16003,Adams,Idaho,US,6/16/20 4:33,44.89333571,-116.4545247,4,0,0,4
19003,Adams,Iowa,US,6/16/20 4:33,41.02903567,-94.69932645,8,0,0,8
55001,Adams,Wisconsin,US,6/16/20 4:33,43.96974651,-89.76782777,8,2,0,6
39001,Adams,Ohio,US,6/16/20 4:33,38.84541072,-83.4718964,15,1,0,14
18001,Adams,Indiana,US,6/16/20 4:33,40.7457653,-84.93671406,27,1,0,26
17001,Adams,Illinois,US,6/16/20 4:33,39.98815591,-91.18786813,46,1,0,45
53001,Adams,Washington,US,6/16/20 4:33,46.98299757,-118.5601734,93,0,0,93
28001,Adams,Mississippi,US,6/16/20 4:33,31.47669768,-91.35326037,226,17,0,209
31001,Adams,Nebraska,US,6/16/20 4:33,40.5244942,-98.50117804,278,11,0,267
42001,Adams,Pennsylvania,US,6/16/20 4:33,39.87140411,-77.21610347,296,9,0,287
8001,Adams,Colorado,US,6/16/20 4:33,39.87432092,-104.3362578,3759,144,0,3615
50001,Addison,Vermont,US,6/16/20 4:33,44.03217337,-73.14130877,66,2,0,64
45003,Aiken,South Carolina,US,6/16/20 4:33,33.54338026,-81.63645384,234,9,0,225
27001,Aitkin,Minnesota,US,6/16/20 4:33,46.60962049,-93.4116826,13,0,0,13
12001,Alachua,Florida,US,6/16/20 4:33,29.67866525,-82.35928158,551,10,0,541
37001,Alamance,North Carolina,US,6/16/20 4:33,36.0434701,-79.39976137,778,34,0,744
6001,Alameda,California,US,6/16/20 4:33,37.64629437,-121.8929271,4373,112,0,4261
8003,Alamosa,Colorado,US,6/16/20 4:33,37.57250606,-105.7885451,127,3,0,124
56001,Albany,Wyoming,US,6/16/20 4:33,41.65498705,-105.7235415,27,0,0,27
36001,Albany,New York,US,6/16/20 4:33,42.60060306,-73.97723916,2022,118,0,1904
51003,Albemarle,Virginia,US,6/16/20 4:33,38.02080697,-78.55481085,290,8,0,282
26001,Alcona,Michigan,US,6/16/20 4:33,44.6846864,-83.59507875,21,1,0,20
28003,Alcorn,Mississippi,US,6/16/20 4:33,34.88084463,-88.57996173,30,1,0,29
17003,Alexander,Illinois,US,6/16/20 4:33,37.18049267,-89.32910838,17,0,0,17
37003,Alexander,North Carolina,US,6/16/20 4:33,35.9223796,-81.17751948,50,0,0,50
51510,Alexandria,Virginia,US,6/16/20 4:33,38.814003,-77.08183073,2160,48,0,2112
40003,Alfalfa,Oklahoma,US,6/16/20 4:33,36.73090616,-98.32408495,1,0,0,1
26003,Alger,Michigan,US,6/16/20 4:33,46.41292944,-86.60260122,1,0,0,1
19005,Allamakee,Iowa,US,6/16/20 4:33,43.28383218,-91.37860922,120,4,0,116
26005,Allegan,Michigan,US,6/16/20 4:33,42.59147037,-85.89102866,287,6,0,281
36003,Allegany,New York,US,6/16/20 4:33,42.25748406,-78.02750466,55,0,0,55
24001,Allegany,Maryland,US,6/16/20 4:33,39.62357628,-78.69280486,187,17,0,170
51005,Alleghany,Virginia,US,6/16/20 4:33,37.78636074,-80.00222498,28,2,0,26
37005,Alleghany,North Carolina,US,6/16/20 4:33,36.49360862,-81.12857041,30,0,0,30
42003,Allegheny,Pennsylvania,US,6/16/20 4:33,40.46809875,-79.98167747,2086,174,0,1912
20001,Allen,Kansas,US,6/16/20 4:33,37.88582951,-95.30030847,2,0,0,2
21003,Allen,Kentucky,US,6/16/20 4:33,36.75197631,-86.19457544,135,3,0,132
22003,Allen,Louisiana,US,6/16/20 4:33,30.65385745,-92.82442028,226,10,0,216
39003,Allen,Ohio,US,6/16/20 4:33,40.77285242,-84.10802343,241,36,0,205
18003,Allen,Indiana,US,6/16/20 4:33,41.09194313,-85.06800636,2224,85,0,2139
45005,Allendale,South Carolina,US,6/16/20 4:33,32.98837386,-81.35321066,40,3,0,37
26007,Alpena,Michigan,US,6/16/20 4:33,45.03477666,-83.62212411,114,11,0,103
6003,Alpine,California,US,6/16/20 4:33,38.59678594,-119.8223594,2,0,0,2
6005,Amador,California,US,6/16/20 4:33,38.44583082,-120.65696,11,0,0,11
51007,Amelia,Virginia,US,6/16/20 4:33,37.34081025,-77.98584649,39,1,0,38
51009,Amherst,Virginia,US,6/16/20 4:33,37.60308293,-79.14548696,27,0,0,27
28005,Amite,Mississippi,US,6/16/20 4:33,31.17467303,-90.80501621,72,2,0,70
2020,Anchorage,Alaska,US,6/16/20 4:33,61.14998174,-149.1426986,320,6,0,314
20003,Anderson,Kansas,US,6/16/20 4:33,38.21413251,-95.29272815,2,0,0,2
21005,Anderson,Kentucky,US,6/16/20 4:33,38.00671029,-84.99171713,25,1,0,24
47001,Anderson,Tennessee,US,6/16/20 4:33,36.12684348,-84.19965764,60,2,0,58
48001,Anderson,Texas,US,6/16/20 4:33,31.81534745,-95.65354823,102,0,0,102
45007,Anderson,South Carolina,US,6/16/20 4:33,34.51828081,-82.63959517,347,9,0,338
29003,Andrew,Missouri,US,6/16/20 4:33,39.98492163,-94.80163024,35,0,0,35
48003,Andrews,Texas,US,6/16/20 4:33,32.30468633,-102.6376548,28,0,0,28
23001,Androscoggin,Maine,US,6/16/20 4:33,44.1664747,-70.20380627,429,4,0,425
48005,Angelina,Texas,US,6/16/20 4:33,31.25457347,-94.60901487,309,5,0,304
24003,Anne Arundel,Maryland,US,6/16/20 4:33,39.00670238,-76.60329337,4623,194,0,4429
27003,Anoka,Minnesota,US,6/16/20 4:33,45.27476015,-93.24604565,1760,90,0,1670
37007,Anson,North Carolina,US,6/16/20 4:33,34.97403241,-80.09953279,87,1,0,86
31003,Antelope,Nebraska,US,6/16/20 4:33,42.17695516,-98.0666283,8,0,0,8
26009,Antrim,Michigan,US,6/16/20 4:33,44.99690221,-85.15503082,14,0,0,14
4001,Apache,Arizona,US,6/16/20 4:33,35.39465006,-109.4892383,1975,56,0,1919
19007,Appanoose,Iowa,US,6/16/20 4:33,40.74324454,-92.86865906,17,3,0,14
13001,Appling,Georgia,US,6/16/20 4:33,31.74847232,-82.28909114,204,13,0,191
51011,Appomattox,Virginia,US,6/16/20 4:33,37.37569884,-78.81340003,34,0,0,34
48007,Aransas,Texas,US,6/16/20 4:33,28.10556197,-96.9995047,6,0,0,6
8005,Arapahoe,Colorado,US,6/16/20 4:33,39.64977461,-104.3353617,4818,335,0,4483
48009,Archer,Texas,US,6/16/20 4:33,33.61569967,-98.68754589,3,0,0,3
8007,Archuleta,Colorado,US,6/16/20 4:33,37.19474156,-107.0476867,8,0,0,8
26011,Arenac,Michigan,US,6/16/20 4:33,44.0636262,-83.89277559,38,1,0,37
5001,Arkansas,Arkansas,US,6/16/20 4:33,34.29145151,-91.37277296,8,0,0,8
51013,Arlington,Virginia,US,6/16/20 4:33,38.8767675,-77.10139853,2346,125,0,2221
48011,Armstrong,Texas,US,6/16/20 4:33,34.96507426,-101.3574874,2,0,0,2
42005,Armstrong,Pennsylvania,US,6/16/20 4:33,40.81665618,-79.46290811,66,5,0,61
23003,Aroostook,Maine,US,6/16/20 4:33,46.65926321,-68.59841248,10,1,0,9
22005,Ascension,Louisiana,US,6/16/20 4:33,30.20406249,-90.9132841,948,58,0,890
37009,Ashe,North Carolina,US,6/16/20 4:33,36.43296207,-81.49862729,43,1,0,42
55003,Ashland,Wisconsin,US,6/16/20 4:33,46.31956891,-90.67837132,3,0,0,3
39005,Ashland,Ohio,US,6/16/20 4:33,40.84772277,-82.27280781,28,0,0,28
5003,Ashley,Arkansas,US,6/16/20 4:33,33.19153461,-91.7698471,45,1,0,44
39007,Ashtabula,Ohio,US,6/16/20 4:33,41.70860332,-80.74830218,390,39,0,351
53003,Asotin,Washington,US,6/16/20 4:33,46.18894415,-117.2022851,20,2,0,18
22007,Assumption,Louisiana,US,6/16/20 4:33,29.89946234,-91.06461642,274,14,0,260
48013,Atascosa,Texas,US,6/16/20 4:33,28.89333001,-98.52730485,42,2,0,40
29005,Atchison,Missouri,US,6/16/20 4:33,40.43238737,-95.42970639,3,0,0,3
20005,Atchison,Kansas,US,6/16/20 4:33,39.53185661,-95.30870026,27,0,0,27
39009,Athens,Ohio,US,6/16/20 4:33,39.33425634,-82.04278644,23,1,0,22
13003,Atkinson,Georgia,US,6/16/20 4:33,31.29633502,-82.87545866,76,2,0,74
34001,Atlantic,New Jersey,US,6/16/20 4:33,39.47538693,-74.65848483,2497,180,0,2317
40005,Atoka,Oklahoma,US,6/16/20 4:33,34.37366573,-96.03802487,8,0,0,8
28007,Attala,Mississippi,US,6/16/20 4:33,33.08658803,-89.57838564,332,23,0,309
29007,Audrain,Missouri,US,6/16/20 4:33,39.215877,-91.84242683,122,1,0,121
19009,Audubon,Iowa,US,6/16/20 4:33,41.6844628,-94.90581859,14,1,0,13
39011,Auglaize,Ohio,US,6/16/20 4:33,40.55998859,-84.2242143,85,3,0,82
51015,Augusta,Virginia,US,6/16/20 4:33,38.16404586,-79.12461614,146,2,0,144
46003,Aurora,South Dakota,US,6/16/20 4:33,43.71757685,-98.56050467,33,0,0,33
48015,Austin,Texas,US,6/16/20 4:33,29.88548725,-96.27736949,34,0,0,34
1001,Autauga,Alabama,US,6/16/20 4:33,32.53952745,-86.64408227,364,6,0,358
37011,Avery,North Carolina,US,6/16/20 4:33,36.07569796,-81.92308483,6,0,0,6
22009,Avoyelles,Louisiana,US,6/16/20 4:33,31.07796211,-92.00079449,188,9,0,179
8009,Baca,Colorado,US,6/16/20 4:33,37.31940883,-102.5603223,12,0,0,12
13005,Bacon,Georgia,US,6/16/20 4:33,31.55456473,-82.45936528,177,3,0,174
48017,Bailey,Texas,US,6/16/20 4:33,34.06854817,-102.8299707,34,0,0,34
41001,Baker,Oregon,US,6/16/20 4:33,44.70915557,-117.6749883,1,0,0,1
12003,Baker,Florida,US,6/16/20 4:33,30.33060121,-82.28467476,30,4,0,26
13007,Baker,Georgia,US,6/16/20 4:33,31.32669878,-84.44218806,37,3,0,34
1003,Baldwin,Alabama,US,6/16/20 4:33,30.72774991,-87.72207058,368,9,0,359
13009,Baldwin,Georgia,US,6/16/20 4:33,33.06882326,-83.24701748,429,32,0,397
21007,Ballard,Kentucky,US,6/16/20 4:33,37.05842757,-88.99427697,14,0,0,14
24005,Baltimore,Maryland,US,6/16/20 4:33,39.45784712,-76.62911955,7199,424,0,6775
24510,Baltimore City,Maryland,US,6/16/20 4:33,39.30211911,-76.61151012,6747,301,0,6446
45009,Bamberg,South Carolina,US,6/16/20 4:33,33.21927586,-81.05659969,48,0,0,48
48019,Bandera,Texas,US,6/16/20 4:33,29.74619598,-99.24598147,7,0,0,7
13011,Banks,Georgia,US,6/16/20 4:33,34.35607081,-83.49644388,109,1,0,108
31007,Banner,Nebraska,US,6/16/20 4:33,41.54634427,-103.7114332,1,0,0,1
16005,Bannock,Idaho,US,6/16/20 4:33,42.67002716,-112.2233311,63,1,0,62
26013,Baraga,Michigan,US,6/16/20 4:33,46.6720582,-88.36363591,1,0,0,1
20007,Barber,Kansas,US,6/16/20 4:33,37.2288586,-98.68460053,1,0,0,1
54001,Barbour,West Virginia,US,6/16/20 4:33,39.1307219,-80.00350858,10,1,0,9
1005,Barbour,Alabama,US,6/16/20 4:33,31.868263,-85.3871286,237,1,0,236
38003,Barnes,North Dakota,US,6/16/20 4:33,46.93579637,-98.06605978,9,0,0,9
25001,Barnstable,Massachusetts,US,6/16/20 4:33,41.72980578,-70.28854339,1489,130,0,1359
45011,Barnwell,South Carolina,US,6/16/20 4:33,33.26679302,-81.43584352,55,1,0,54
21009,Barren,Kentucky,US,6/16/20 4:33,36.96469836,-85.93338945,66,2,0,64
55005,Barron,Wisconsin,US,6/16/20 4:33,45.42372701,-91.84833627,25,0,0,25
13013,Barrow,Georgia,US,6/16/20 4:33,33.99148694,-83.71436292,388,23,0,365
29009,Barry,Missouri,US,6/16/20 4:33,36.70978521,-93.82919888,14,0,0,14
26015,Barry,Michigan,US,6/16/20 4:33,42.59513984,-85.30834519,91,2,0,89
18005,Bartholomew,Indiana,US,6/16/20 4:33,39.20744865,-85.89558181,554,41,0,513
29011,Barton,Missouri,US,6/16/20 4:33,37.50207671,-94.34757022,7,0,0,7
20009,Barton,Kansas,US,6/16/20 4:33,38.47889676,-98.75636726,49,1,0,48
13015,Bartow,Georgia,US,6/16/20 4:33,34.23732119,-84.83887523,548,39,0,509
48021,Bastrop,Texas,US,6/16/20 4:33,30.10370699,-97.31206354,295,4,0,291
29013,Bates,Missouri,US,6/16/20 4:33,38.25271289,-94.34113157,12,1,0,11
21011,Bath,Kentucky,US,6/16/20 4:33,38.14735938,-83.74588932,10,1,0,9
5005,Baxter,Arkansas,US,6/16/20 4:33,36.28784385,-92.33782872,14,0,0,14
12005,Bay,Florida,US,6/16/20 4:33,30.26548745,-85.62122584,153,4,0,149
26017,Bay,Michigan,US,6/16/20 4:33,43.70639106,-83.98731479,378,29,0,349
55007,Bayfield,Wisconsin,US,6/16/20 4:33,46.52868768,-91.19716729,3,1,0,2
48023,Baylor,Texas,US,6/16/20 4:33,33.61640794,-99.21352901,1,0,0,1
46005,Beadle,South Dakota,US,6/16/20 4:33,44.41464384,-98.27858469,448,6,0,442
,Bear River,Utah,US,6/16/20 4:33,41.52106798,-113.0832816,1009,2,0,1007
37013,Beaufort,North Carolina,US,6/16/20 4:33,35.48531943,-76.84325809,51,0,0,51
45013,Beaufort,South Carolina,US,6/16/20 4:33,32.39226291,-80.72619758,615,14,0,601
22011,Beauregard,Louisiana,US,6/16/20 4:33,30.64836518,-93.34173616,136,6,0,130
40007,Beaver,Oklahoma,US,6/16/20 4:33,36.7496847,-100.4758872,30,0,0,30
42007,Beaver,Pennsylvania,US,6/16/20 4:33,40.6825484,-80.34921611,613,77,0,536
30001,Beaverhead,Montana,US,6/16/20 4:33,45.13434354,-112.8984694,1,0,0,1
27005,Becker,Minnesota,US,6/16/20 4:33,46.93479392,-95.67158144,50,0,0,50
40009,Beckham,Oklahoma,US,6/16/20 4:33,35.26862449,-99.68128023,8,0,0,8
42009,Bedford,Pennsylvania,US,6/16/20 4:33,40.00522157,-78.48998442,52,2,0,50
51019,Bedford,Virginia,US,6/16/20 4:33,37.3080028,-79.5281964,91,2,0,89
47003,Bedford,Tennessee,US,6/16/20 4:33,35.51123746,-86.45549096,379,4,0,375
48025,Bee,Texas,US,6/16/20 4:33,28.41761668,-97.74215593,31,0,0,31
33001,Belknap,New Hampshire,US,6/16/20 4:33,43.51637314,-71.41684235,74,1,0,73
21013,Bell,Kentucky,US,6/16/20 4:33,36.73355174,-83.67766671,4,0,0,4
48027,Bell,Texas,US,6/16/20 4:33,31.03736027,-97.4785025,629,6,0,623
39013,Belmont,Ohio,US,6/16/20 4:33,40.01625942,-80.9924051,469,20,0,449
27007,Beltrami,Minnesota,US,6/16/20 4:33,47.97373527,-94.93732139,23,0,0,23
13017,Ben Hill,Georgia,US,6/16/20 4:33,31.76095874,-83.22145359,105,1,0,104
16009,Benewah,Idaho,US,6/16/20 4:33,47.21754179,-116.6586851,19,0,0,19
46007,Bennett,South Dakota,US,6/16/20 4:33,43.19486375,-101.6665572,1,0,0,1
50003,Bennington,Vermont,US,6/16/20 4:33,43.03519828,-73.09048868,67,1,0,66
38005,Benson,North Dakota,US,6/16/20 4:33,48.0683985,-99.35916363,3,0,0,3
8011,Bent,Colorado,US,6/16/20 4:33,37.95474293,-103.0720195,3,0,0,3
47005,Benton,Tennessee,US,6/16/20 4:33,36.07110411,-88.06849355,8,1,0,7
29015,Benton,Missouri,US,6/16/20 4:33,38.29503305,-93.28756116,14,0,0,14
28009,Benton,Mississippi,US,6/16/20 4:33,34.81681228,-89.18945516,17,0,0,17
18007,Benton,Indiana,US,6/16/20 4:33,40.60626947,-87.31093999,37,0,0,37
19011,Benton,Iowa,US,6/16/20 4:33,42.08011739,-92.06463573,46,1,0,45
41003,Benton,Oregon,US,6/16/20 4:33,44.49167306,-123.4316987,63,5,0,58
27009,Benton,Minnesota,US,6/16/20 4:33,45.69804958,-93.99514135,193,3,0,190
53005,Benton,Washington,US,6/16/20 4:33,46.23946995,-119.5120834,1171,73,0,1098
5007,Benton,Arkansas,US,6/16/20 4:33,36.33644656,-94.25680817,1480,8,0,1472
26019,Benzie,Michigan,US,6/16/20 4:33,44.63899297,-86.01608482,5,0,0,5
34003,Bergen,New Jersey,US,6/16/20 4:33,40.96010917,-74.07164325,18848,1664,0,17184
54003,Berkeley,West Virginia,US,6/16/20 4:33,39.46704621,-78.02414609,395,9,0,386
45015,Berkeley,South Carolina,US,6/16/20 4:33,33.20222596,-79.94654523,406,19,0,387
42011,Berks,Pennsylvania,US,6/16/20 4:33,40.41570541,-75.92457766,4324,338,0,3986
25003,Berkshire,Massachusetts,US,6/16/20 4:33,42.37428441,-73.20524838,579,42,0,537
35001,Bernalillo,New Mexico,US,6/16/20 4:33,35.05163625,-106.6703554,1705,80,0,1625
13019,Berrien,Georgia,US,6/16/20 4:33,31.27590016,-83.2252992,73,0,0,73
26021,Berrien,Michigan,US,6/16/20 4:33,41.95447397,-86.4131308,824,57,0,767
37015,Bertie,North Carolina,US,6/16/20 4:33,36.0688473,-76.96545943,135,4,0,131
2050,Bethel,Alaska,US,6/16/20 4:33,60.90980451,-159.8561831,4,0,0,4
48029,Bexar,Texas,US,6/16/20 4:33,29.44928723,-98.52019748,4393,88,0,4305
1007,Bibb,Alabama,US,6/16/20 4:33,32.99642064,-87.1251146,108,1,0,107
13021,Bibb,Georgia,US,6/16/20 4:33,32.80904227,-83.70489165,542,36,0,506
22013,Bienville,Louisiana,US,6/16/20 4:33,32.34569994,-93.05398492,175,24,0,151
56003,Big Horn,Wyoming,US,6/16/20 4:33,44.52405055,-107.9960365,11,0,0,11
30003,Big Horn,Montana,US,6/16/20 4:33,45.42335905,-107.492347,47,2,0,45
27011,Big Stone,Minnesota,US,6/16/20 4:33,45.42712824,-96.41403739,13,0,0,13
16011,Bingham,Idaho,US,6/16/20 4:33,43.2167288,-112.3978437,24,0,0,24
19013,Black Hawk,Iowa,US,6/16/20 4:33,42.4704581,-92.30524729,1836,54,0,1782
18009,Blackford,Indiana,US,6/16/20 4:33,40.47388153,-85.32499702,29,2,0,27
37017,Bladen,North Carolina,US,6/16/20 4:33,34.61296243,-78.56180059,196,2,0,194
40011,Blaine,Oklahoma,US,6/16/20 4:33,35.87518314,-98.43307003,12,0,0,12
16013,Blaine,Idaho,US,6/16/20 4:33,43.4085812,-113.9752658,515,5,0,510
42013,Blair,Pennsylvania,US,6/16/20 4:33,40.47961444,-78.34917412,55,1,0,54
48031,Blanco,Texas,US,6/16/20 4:33,30.26640707,-98.3999852,11,1,0,10
13023,Bleckley,Georgia,US,6/16/20 4:33,32.43829035,-83.33035166,54,1,0,53
47007,Bledsoe,Tennessee,US,6/16/20 4:33,35.59942968,-85.20611967,614,1,0,613
47009,Blount,Tennessee,US,6/16/20 4:33,35.68938198,-83.92847788,106,3,0,103
1009,Blount,Alabama,US,6/16/20 4:33,33.98210918,-86.56790593,114,1,0,113
27013,Blue Earth,Minnesota,US,6/16/20 4:33,44.03554215,-94.06699781,163,2,0,161
28011,Bolivar,Mississippi,US,6/16/20 4:33,33.79696941,-90.87372121,194,12,0,182
29017,Bollinger,Missouri,US,6/16/20 4:33,37.32449052,-90.02725304,10,0,0,10
46009,Bon Homme,South Dakota,US,6/16/20 4:33,42.98914167,-97.88592746,9,0,0,9
17005,Bond,Illinois,US,6/16/20 4:33,38.88829622,-89.43534887,12,1,0,11
16017,Bonner,Idaho,US,6/16/20 4:33,48.29996017,-116.6017932,7,0,0,7
16019,Bonneville,Idaho,US,6/16/20 4:33,43.38713372,-111.6161537,79,0,0,79
31011,Boone,Nebraska,US,6/16/20 4:33,41.70759415,-98.06737183,7,0,0,7
5009,Boone,Arkansas,US,6/16/20 4:33,36.3084504,-93.09374925,10,0,0,10
54005,Boone,West Virginia,US,6/16/20 4:33,38.01974191,-81.69888019,18,0,0,18
19015,Boone,Iowa,US,6/16/20 4:33,42.03657094,-93.9313999,101,1,0,100
29019,Boone,Missouri,US,6/16/20 4:33,38.99186229,-92.30723575,215,2,0,213
18011,Boone,Indiana,US,6/16/20 4:33,40.0509304,-86.46841646,386,38,0,348
17007,Boone,Illinois,US,6/16/20 4:33,42.32359279,-88.82345779,525,19,0,506
21015,Boone,Kentucky,US,6/16/20 4:33,38.97065142,-84.72615357,541,21,0,520
48035,Bosque,Texas,US,6/16/20 4:33,31.89978581,-97.63613524,7,0,0,7
22015,Bossier,Louisiana,US,6/16/20 4:33,32.67932307,-93.60460152,510,28,0,482
51023,Botetourt,Virginia,US,6/16/20 4:33,37.55531756,-79.80982182,47,4,0,43
38009,Bottineau,North Dakota,US,6/16/20 4:33,48.79106111,-100.8378166,4,0,0,4
8013,Boulder,Colorado,US,6/16/20 4:33,40.09313619,-105.3546767,1088,70,0,1018
20011,Bourbon,Kansas,US,6/16/20 4:33,37.85508555,-94.84865997,8,1,0,7
21017,Bourbon,Kentucky,US,6/16/20 4:33,38.2054607,-84.21827874,25,1,0,24
48037,Bowie,Texas,US,6/16/20 4:33,33.44626922,-94.41834132,372,7,0,365
38011,Bowman,North Dakota,US,6/16/20 4:33,46.11285362,-103.5203343,1,0,0,1
31013,Box Butte,Nebraska,US,6/16/20 4:33,42.22079243,-103.0878834,3,0,0,3
31015,Boyd,Nebraska,US,6/16/20 4:33,42.8997274,-98.76486568,1,0,0,1
21019,Boyd,Kentucky,US,6/16/20 4:33,38.36176608,-82.68652187,44,3,0,41
21021,Boyle,Kentucky,US,6/16/20 4:33,37.62680923,-84.8633779,30,0,0,30
21023,Bracken,Kentucky,US,6/16/20 4:33,38.69158994,-84.08532444,14,0,0,14
42015,Bradford,Pennsylvania,US,6/16/20 4:33,41.78869215,-76.51570822,47,3,0,44
12007,Bradford,Florida,US,6/16/20 4:33,29.95079741,-82.16611613,52,2,0,50
5011,Bradley,Arkansas,US,6/16/20 4:33,33.46755808,-92.15980837,35,1,0,34
47011,Bradley,Tennessee,US,6/16/20 4:33,35.15739424,-84.857186,288,2,0,286
26023,Branch,Michigan,US,6/16/20 4:33,41.91600556,-85.05929476,235,2,0,233
13025,Brantley,Georgia,US,6/16/20 4:33,31.19576557,-81.97743999,69,2,0,67
54007,Braxton,West Virginia,US,6/16/20 4:33,38.70036159,-80.72011184,3,0,0,3
48039,Brazoria,Texas,US,6/16/20 4:33,29.18757369,-95.44563172,864,13,0,851
48041,Brazos,Texas,US,6/16/20 4:33,30.6636448,-96.30205577,803,25,0,778
21025,Breathitt,Kentucky,US,6/16/20 4:33,37.52333168,-83.31959161,4,0,0,4
21027,Breckinridge,Kentucky,US,6/16/20 4:33,37.77377239,-86.42885017,23,2,0,21
19017,Bremer,Iowa,US,6/16/20 4:33,42.77461496,-92.31795937,74,6,0,68
12009,Brevard,Florida,US,6/16/20 4:33,28.29409504,-80.73091022,565,15,0,550
48043,Brewster,Texas,US,6/16/20 4:33,29.81008251,-103.2520326,11,0,0,11
48045,Briscoe,Texas,US,6/16/20 4:33,34.53026962,-101.2084947,1,0,0,1
51520,Bristol,Virginia,US,6/16/20 4:33,36.6163024,-82.16359122,4,0,0,4
44001,Bristol,Rhode Island,US,6/16/20 4:33,41.71018079,-71.28652315,240,0,0,240
25005,Bristol,Massachusetts,US,6/16/20 4:33,41.79228404,-71.10872211,7925,518,0,7407
30007,Broadwater,Montana,US,6/16/20 4:33,46.33277565,-111.4955813,4,0,0,4
54009,Brooke,West Virginia,US,6/16/20 4:33,40.27367263,-80.57915332,6,0,0,6
46011,Brookings,South Dakota,US,6/16/20 4:33,44.36974375,-96.79079945,36,0,0,36
48047,Brooks,Texas,US,6/16/20 4:33,27.03103197,-98.21808402,2,0,0,2
13027,Brooks,Georgia,US,6/16/20 4:33,30.83922642,-83.58303423,98,11,0,87
36007,Broome,New York,US,6/16/20 4:33,42.15903158,-75.81326086,655,52,0,603
8014,Broomfield,Colorado,US,6/16/20 4:33,39.95998787,-105.0566324,265,28,0,237
12011,Broward,Florida,US,6/16/20 4:33,26.15184651,-80.48725556,9086,358,0,8728
17009,Brown,Illinois,US,6/16/20 4:33,39.96209138,-90.75068024,10,0,0,10
20013,Brown,Kansas,US,6/16/20 4:33,39.82652589,-95.56421698,10,0,0,10
27015,Brown,Minnesota,US,6/16/20 4:33,44.24205652,-94.72562874,19,2,0,17
18013,Brown,Indiana,US,6/16/20 4:33,39.19605589,-86.22868909,36,1,0,35
39015,Brown,Ohio,US,6/16/20 4:33,38.93416837,-83.86788395,38,1,0,37
48049,Brown,Texas,US,6/16/20 4:33,31.77430356,-98.99907113,60,10,0,50
46013,Brown,South Dakota,US,6/16/20 4:33,45.58994323,-98.35165355,313,2,0,311
55009,Brown,Wisconsin,US,6/16/20 4:33,44.4526553,-88.00411844,2469,38,0,2431
46015,Brule,South Dakota,US,6/16/20 4:33,43.71756379,-99.08118954,10,0,0,10
51025,Brunswick,Virginia,US,6/16/20 4:33,36.76366949,-77.8593436,46,1,0,45
37019,Brunswick,North Carolina,US,6/16/20 4:33,34.070565,-78.22814204,241,3,0,238
40013,Bryan,Oklahoma,US,6/16/20 4:33,33.96472458,-96.25903472,48,1,0,47
13029,Bryan,Georgia,US,6/16/20 4:33,32.00979311,-81.44002948,86,5,0,81
51027,Buchanan,Virginia,US,6/16/20 4:33,37.26818323,-82.03749726,18,0,0,18
19019,Buchanan,Iowa,US,6/16/20 4:33,42.4709188,-91.83510825,35,1,0,34
29021,Buchanan,Missouri,US,6/16/20 4:33,39.65816401,-94.80138942,787,2,0,785
51029,Buckingham,Virginia,US,6/16/20 4:33,37.57242268,-78.52518834,521,3,0,518
42017,Bucks,Pennsylvania,US,6/16/20 4:33,40.33682119,-75.10836643,5439,542,0,4897
51530,Buena Vista,Virginia,US,6/16/20 4:33,37.73484642,-79.35296097,12,0,0,12
19021,Buena Vista,Iowa,US,6/16/20 4:33,42.73545875,-95.15100162,1595,6,0,1589
55011,Buffalo,Wisconsin,US,6/16/20 4:33,44.37835084,-91.75332578,7,2,0,5
46017,Buffalo,South Dakota,US,6/16/20 4:33,44.07657829,-99.20814467,53,0,0,53
31019,Buffalo,Nebraska,US,6/16/20 4:33,40.85486962,-99.07500296,176,1,0,175
21029,Bullitt,Kentucky,US,6/16/20 4:33,37.97162523,-85.68955617,135,4,0,131
13031,Bulloch,Georgia,US,6/16/20 4:33,32.39577406,-81.74811421,108,3,0,105
1011,Bullock,Alabama,US,6/16/20 4:33,32.10030533,-85.71265535,305,8,0,297
37021,Buncombe,North Carolina,US,6/16/20 4:33,35.61113393,-82.53305,456,34,0,422
17011,Bureau,Illinois,US,6/16/20 4:33,41.40385234,-89.5283051,23,1,0,22
38013,Burke,North Dakota,US,6/16/20 4:33,48.79094471,-102.5182117,5,0,0,5
13033,Burke,Georgia,US,6/16/20 4:33,33.05917989,-81.99928721,126,6,0,120
37023,Burke,North Carolina,US,6/16/20 4:33,35.74989637,-81.70755735,775,18,0,757
38015,Burleigh,North Dakota,US,6/16/20 4:33,46.97847375,-100.4645214,167,0,0,167
48051,Burleson,Texas,US,6/16/20 4:33,30.49273808,-96.62158484,41,0,0,41
34005,Burlington,New Jersey,US,6/16/20 4:33,39.87681124,-74.66927768,4894,364,0,4530
48053,Burnet,Texas,US,6/16/20 4:33,30.78801353,-98.181887,62,1,0,61
55013,Burnett,Wisconsin,US,6/16/20 4:33,45.86303537,-92.36711412,2,1,0,1
31021,Burt,Nebraska,US,6/16/20 4:33,41.85056773,-96.32605633,11,0,0,11
19023,Butler,Iowa,US,6/16/20 4:33,42.73172833,-92.79015971,23,2,0,21
20015,Butler,Kansas,US,6/16/20 4:33,37.78134351,-96.83878537,37,0,0,37
29023,Butler,Missouri,US,6/16/20 4:33,36.71462476,-90.40421163,46,0,0,46
31023,Butler,Nebraska,US,6/16/20 4:33,41.22703692,-97.13106306,51,0,0,51
21031,Butler,Kentucky,US,6/16/20 4:33,37.20946153,-86.68748787,244,13,0,231
42019,Butler,Pennsylvania,US,6/16/20 4:33,40.91152759,-79.91351055,257,12,0,245
1013,Butler,Alabama,US,6/16/20 4:33,31.75300095,-86.68057478,541,25,0,516
39017,Butler,Ohio,US,6/16/20 4:33,39.44012838,-84.57388716,1103,34,0,1069
6007,Butte,California,US,6/16/20 4:33,39.66727762,-121.6005252,82,1,0,81
13035,Butts,Georgia,US,6/16/20 4:33,33.2830945,-83.9543504,245,32,0,213
37025,Cabarrus,North Carolina,US,6/16/20 4:33,35.3877799,-80.55267168,716,25,0,691
54011,Cabell,West Virginia,US,6/16/20 4:33,38.42424062,-82.23855912,75,0,0,75
40015,Caddo,Oklahoma,US,6/16/20 4:33,35.17364557,-98.37534464,176,10,0,166
22017,Caddo,Louisiana,US,6/16/20 4:33,32.57991587,-93.88375652,2869,214,0,2655
6009,Calaveras,California,US,6/16/20 4:33,38.20537103,-120.552913,26,0,0,26
22019,Calcasieu,Louisiana,US,6/16/20 4:33,30.22931235,-93.35400434,772,51,0,721
29025,Caldwell,Missouri,US,6/16/20 4:33,39.65620858,-93.98308093,7,0,0,7
21033,Caldwell,Kentucky,US,6/16/20 4:33,37.14749129,-87.86948214,12,0,0,12
22021,Caldwell,Louisiana,US,6/16/20 4:33,32.0902519,-92.11752148,83,1,0,82
48055,Caldwell,Texas,US,6/16/20 4:33,29.83668859,-97.61814775,147,0,0,147
37027,Caldwell,North Carolina,US,6/16/20 4:33,35.95204977,-81.54799522,249,3,0,246
50005,Caledonia,Vermont,US,6/16/20 4:33,44.46548598,-72.10314651,16,0,0,16
17013,Calhoun,Illinois,US,6/16/20 4:33,39.16840183,-90.66330078,1,0,0,1
54013,Calhoun,West Virginia,US,6/16/20 4:33,38.84315422,-81.11934872,2,0,0,2
19025,Calhoun,Iowa,US,6/16/20 4:33,42.38521079,-94.64046046,24,0,0,24
45017,Calhoun,South Carolina,US,6/16/20 4:33,33.66926881,-80.77722168,38,1,0,37
48057,Calhoun,Texas,US,6/16/20 4:33,28.47048236,-96.61633945,46,3,0,43
12013,Calhoun,Florida,US,6/16/20 4:33,30.40666734,-85.19394153,66,5,0,61
28013,Calhoun,Mississippi,US,6/16/20 4:33,33.93683395,-89.33686647,80,4,0,76
13037,Calhoun,Georgia,US,6/16/20 4:33,31.53169785,-84.62725131,148,6,0,142
1015,Calhoun,Alabama,US,6/16/20 4:33,33.77483727,-85.82630386,196,3,0,193
26025,Calhoun,Michigan,US,6/16/20 4:33,42.24633834,-85.00493569,487,27,0,460
48059,Callahan,Texas,US,6/16/20 4:33,32.29760619,-99.37326312,13,2,0,11
29027,Callaway,Missouri,US,6/16/20 4:33,38.83674754,-91.92186505,40,1,0,39
21035,Calloway,Kentucky,US,6/16/20 4:33,36.62093411,-88.2731593,60,1,0,59
55015,Calumet,Wisconsin,US,6/16/20 4:33,44.0816316,-88.21780273,86,2,0,84
24009,Calvert,Maryland,US,6/16/20 4:33,38.53961642,-76.56820632,376,21,0,355
16025,Camas,Idaho,US,6/16/20 4:33,43.46665742,-114.8065892,1,0,0,1
42021,Cambria,Pennsylvania,US,6/16/20 4:33,40.49527404,-78.71377428,61,3,0,58
37029,Camden,North Carolina,US,6/16/20 4:33,36.33804939,-76.15568396,6,0,0,6
29029,Camden,Missouri,US,6/16/20 4:33,38.02199522,-92.76083747,40,1,0,39
13039,Camden,Georgia,US,6/16/20 4:33,30.92951916,-81.66601818,75,1,0,74
34007,Camden,New Jersey,US,6/16/20 4:33,39.80343818,-74.96388753,7025,416,0,6609
42023,Cameron,Pennsylvania,US,6/16/20 4:33,41.43625568,-78.20376845,2,0,0,2
22023,Cameron,Louisiana,US,6/16/20 4:33,29.87592238,-93.19310676,11,0,0,11
48061,Cameron,Texas,US,6/16/20 4:33,26.14524221,-97.48140372,1138,44,0,1094
48063,Camp,Texas,US,6/16/20 4:33,32.97195142,-94.97790104,108,1,0,107
47013,Campbell,Tennessee,US,6/16/20 4:33,36.40355516,-84.1510856,24,1,0,23
51031,Campbell,Virginia,US,6/16/20 4:33,37.20553386,-79.09678609,25,1,0,24
56005,Campbell,Wyoming,US,6/16/20 4:33,44.24886082,-105.5474404,45,0,0,45
21037,Campbell,Kentucky,US,6/16/20 4:33,38.94384345,-84.37875208,207,12,0,195
40017,Canadian,Oklahoma,US,6/16/20 4:33,35.5426055,-97.98465569,156,3,0,153
13043,Candler,Georgia,US,6/16/20 4:33,32.40209349,-82.07702563,17,0,0,17
47015,Cannon,Tennessee,US,6/16/20 4:33,35.80990797,-86.05738983,34,0,0,34
16027,Canyon,Idaho,US,6/16/20 4:33,43.61970148,-116.7095499,356,6,0,350
29031,Cape Girardeau,Missouri,US,6/16/20 4:33,37.38489388,-89.6843587,108,3,0,105
34009,Cape May,New Jersey,US,6/16/20 4:33,39.15008829,-74.80170244,672,61,0,611
30009,Carbon,Montana,US,6/16/20 4:33,45.22850116,-109.0274047,6,0,0,6
56007,Carbon,Wyoming,US,6/16/20 4:33,41.69357844,-106.9326084,22,0,0,22
42025,Carbon,Pennsylvania,US,6/16/20 4:33,40.91545395,-75.7068525,259,24,0,235
16029,Caribou,Idaho,US,6/16/20 4:33,42.77149116,-111.5597683,5,0,0,5
21039,Carlisle,Kentucky,US,6/16/20 4:33,36.85372876,-88.9669222,5,1,0,4
27017,Carlton,Minnesota,US,6/16/20 4:33,46.59180601,-92.67601019,80,0,0,80
51033,Caroline,Virginia,US,6/16/20 4:33,38.02679129,-77.34901405,111,4,0,107
24011,Caroline,Maryland,US,6/16/20 4:33,38.87172293,-75.82904158,283,2,0,281
29033,Carroll,Missouri,US,6/16/20 4:33,39.42762566,-93.50626255,10,0,0,10
21041,Carroll,Kentucky,US,6/16/20 4:33,38.66599534,-85.12601074,17,0,0,17
17015,Carroll,Illinois,US,6/16/20 4:33,42.06823429,-89.93395545,20,2,0,18
47017,Carroll,Tennessee,US,6/16/20 4:33,35.97366108,-88.45189331,36,1,0,35
39019,Carroll,Ohio,US,6/16/20 4:33,40.5789686,-81.09178213,37,3,0,34
19027,Carroll,Iowa,US,6/16/20 4:33,42.03617207,-94.86032705,48,1,0,47
33003,Carroll,New Hampshire,US,6/16/20 4:33,43.87498583,-71.20430216,49,0,0,49
5015,Carroll,Arkansas,US,6/16/20 4:33,36.3403856,-93.54270261,88,1,0,87
18015,Carroll,Indiana,US,6/16/20 4:33,40.5807832,-86.56198812,101,2,0,99
28015,Carroll,Mississippi,US,6/16/20 4:33,33.44834567,-89.91994479,122,11,0,111
51035,Carroll,Virginia,US,6/16/20 4:33,36.73066666,-80.73455942,173,5,0,168
13045,Carroll,Georgia,US,6/16/20 4:33,33.58138199,-85.07976677,614,37,0,577
24013,Carroll,Maryland,US,6/16/20 4:33,39.56453592,-77.02373735,992,105,0,887
48065,Carson,Texas,US,6/16/20 4:33,35.40365929,-101.3542669,6,0,0,6
32510,Carson City,Nevada,US,6/16/20 4:33,39.15509045,-119.7480219,123,5,0,118
29035,Carter,Missouri,US,6/16/20 4:33,36.94160441,-90.96051322,5,1,0,4
21043,Carter,Kentucky,US,6/16/20 4:33,38.31690743,-83.05092385,18,0,0,18
47019,Carter,Tennessee,US,6/16/20 4:33,36.28969086,-82.12588974,20,1,0,19
40019,Carter,Oklahoma,US,6/16/20 4:33,34.25103751,-97.28552485,60,1,0,59
37031,Carteret,North Carolina,US,6/16/20 4:33,34.8932941,-76.54120135,47,3,0,44
27019,Carver,Minnesota,US,6/16/20 4:33,44.82017001,-93.8009918,271,2,0,269
30013,Cascade,Montana,US,6/16/20 4:33,47.30797024,-111.3467922,19,2,0,17
21045,Casey,Kentucky,US,6/16/20 4:33,37.32533118,-84.92726209,10,0,0,10
27021,Cass,Minnesota,US,6/16/20 4:33,46.95043611,-94.32603968,11,2,0,9
19029,Cass,Iowa,US,6/16/20 4:33,41.33149454,-94.92792482,14,0,0,14
48067,Cass,Texas,US,6/16/20 4:33,33.07499881,-94.34646905,34,2,0,32
31025,Cass,Nebraska,US,6/16/20 4:33,40.90899107,-96.13971217,60,0,0,60
17017,Cass,Illinois,US,6/16/20 4:33,39.96991073,-90.24734436,76,0,0,76
29037,Cass,Missouri,US,6/16/20 4:33,38.64789422,-94.353399,114,8,0,106
26027,Cass,Michigan,US,6/16/20 4:33,41.91522292,-85.99405727,115,4,0,111
18017,Cass,Indiana,US,6/16/20 4:33,40.76135835,-86.34830753,1606,9,0,1597
38017,Cass,North Dakota,US,6/16/20 4:33,46.93201724,-97.2444719,2058,62,0,1996
16031,Cassia,Idaho,US,6/16/20 4:33,42.28347888,-113.6012409,136,1,0,135
48069,Castro,Texas,US,6/16/20 4:33,34.53016752,-102.2617243,42,1,0,41
37033,Caswell,North Carolina,US,6/16/20 4:33,36.39312665,-79.33353281,103,1,0,102
22025,Catahoula,Louisiana,US,6/16/20 4:33,31.66778967,-91.84526385,131,3,0,128
37035,Catawba,North Carolina,US,6/16/20 4:33,35.66211129,-81.2132617,435,11,0,424
13047,Catoosa,Georgia,US,6/16/20 4:33,34.89872298,-85.13757014,234,0,0,234
35003,Catron,New Mexico,US,6/16/20 4:33,33.91514144,-108.4046587,2,1,0,1
36009,Cattaraugus,New York,US,6/16/20 4:33,42.24778241,-78.67923096,106,5,0,101
36011,Cayuga,New York,US,6/16/20 4:33,42.91261714,-76.55731592,106,2,0,104
24015,Cecil,Maryland,US,6/16/20 4:33,39.56647682,-75.94627411,445,30,0,415
31027,Cedar,Nebraska,US,6/16/20 4:33,42.5988851,-97.25311951,8,0,0,8
29039,Cedar,Missouri,US,6/16/20 4:33,37.72391475,-93.85445441,9,0,0,9
19031,Cedar,Iowa,US,6/16/20 4:33,41.77233777,-91.13246684,54,1,0,53
,Central Utah,Utah,US,6/16/20 4:33,39.37231946,-111.5758676,77,0,0,77
42027,Centre,Pennsylvania,US,6/16/20 4:33,40.92058903,-77.82200624,171,6,0,165
19033,Cerro Gordo,Iowa,US,6/16/20 4:33,43.08177563,-93.2612239,44,1,0,43
8015,Chaffee,Colorado,US,6/16/20 4:33,38.74745778,-106.1926573,78,20,0,58
48071,Chambers,Texas,US,6/16/20 4:33,29.70972016,-94.67154501,109,1,0,108
1017,Chambers,Alabama,US,6/16/20 4:33,32.91360079,-85.39072749,461,26,0,435
39021,Champaign,Ohio,US,6/16/20 4:33,40.13923427,-83.76875242,35,1,0,34
17019,Champaign,Illinois,US,6/16/20 4:33,40.13919438,-88.20046615,736,9,0,727
29041,Chariton,Missouri,US,6/16/20 4:33,39.51499357,-92.9629191,6,0,0,6
24017,Charles,Maryland,US,6/16/20 4:33,38.51092331,-76.98580666,1272,83,0,1189
51036,Charles City,Virginia,US,6/16/20 4:33,37.35358063,-77.05634116,32,3,0,29
46023,Charles Mix,South Dakota,US,6/16/20 4:33,43.20660134,-98.58856175,32,0,0,32
45019,Charleston,South Carolina,US,6/16/20 4:33,32.82487866,-79.96512315,1165,16,0,1149
26029,Charlevoix,Michigan,US,6/16/20 4:33,45.37790017,-85.19614053,20,2,0,18
51037,Charlotte,Virginia,US,6/16/20 4:33,37.01909701,-78.66314092,30,0,0,30
12015,Charlotte,Florida,US,6/16/20 4:33,26.90131002,-81.92949121,537,73,0,464
51540,Charlottesville,Virginia,US,6/16/20 4:33,38.03527919,-78.48569588,154,3,0,151
13049,Charlton,Georgia,US,6/16/20 4:33,30.78371028,-82.13951596,39,1,0,38
31029,Chase,Nebraska,US,6/16/20 4:33,40.5237198,-101.6978026,1,0,0,1
20017,Chase,Kansas,US,6/16/20 4:33,38.30292938,-96.59563862,3,0,0,3
13051,Chatham,Georgia,US,6/16/20 4:33,32.00043026,-81.12489526,636,31,0,605
37037,Chatham,North Carolina,US,6/16/20 4:33,35.70394416,-79.25541492,808,37,0,771
13053,Chattahoochee,Georgia,US,6/16/20 4:33,32.34341231,-84.78809239,252,0,0,252
13055,Chattooga,Georgia,US,6/16/20 4:33,34.47197698,-85.34535662,36,2,0,34
20019,Chautauqua,Kansas,US,6/16/20 4:33,37.14994405,-96.2454192,4,0,0,4
36013,Chautauqua,New York,US,6/16/20 4:33,42.2276921,-79.36691763,107,4,0,103
35005,Chaves,New Mexico,US,6/16/20 4:33,33.36406072,-104.4665365,59,2,0,57
47021,Cheatham,Tennessee,US,6/16/20 4:33,36.26136216,-87.08903581,155,0,0,155
26031,Cheboygan,Michigan,US,6/16/20 4:33,45.44787015,-84.50122149,26,1,0,25
53007,Chelan,Washington,US,6/16/20 4:33,47.87046092,-120.6173956,273,6,0,267
36015,Chemung,New York,US,6/16/20 4:33,42.13891056,-76.7638805,138,2,0,136
36017,Chenango,New York,US,6/16/20 4:33,42.49430041,-75.60887553,138,5,0,133
20021,Cherokee,Kansas,US,6/16/20 4:33,37.16928494,-94.8462897,16,0,0,16
37039,Cherokee,North Carolina,US,6/16/20 4:33,35.1349263,-84.05970864,30,1,0,29
40021,Cherokee,Oklahoma,US,6/16/20 4:33,35.90692775,-94.99980896,48,1,0,47
1019,Cherokee,Alabama,US,6/16/20 4:33,34.17805983,-85.60638968,51,5,0,46
48073,Cherokee,Texas,US,6/16/20 4:33,31.837258,-95.16559897,54,2,0,52
19035,Cherokee,Iowa,US,6/16/20 4:33,42.73538914,-95.62389402,59,0,0,59
45021,Cherokee,South Carolina,US,6/16/20 4:33,35.05122251,-81.61828622,93,6,0,87
13057,Cherokee,Georgia,US,6/16/20 4:33,34.24393976,-84.47431861,1040,38,0,1002
31031,Cherry,Nebraska,US,6/16/20 4:33,42.54502621,-101.1244332,1,0,0,1
51550,Chesapeake,Virginia,US,6/16/20 4:33,36.67670048,-76.30545744,672,16,0,656
33005,Cheshire,New Hampshire,US,6/16/20 4:33,42.92015988,-72.25311043,60,2,0,58
47023,Chester,Tennessee,US,6/16/20 4:33,35.42527478,-88.6095842,12,0,0,12
45023,Chester,South Carolina,US,6/16/20 4:33,34.69249168,-81.1583216,123,1,0,122
42029,Chester,Pennsylvania,US,6/16/20 4:33,39.97291773,-75.74768357,3315,307,0,3008
45025,Chesterfield,South Carolina,US,6/16/20 4:33,34.64137396,-80.1564014,292,7,0,285
51041,Chesterfield,Virginia,US,6/16/20 4:33,37.37373208,-77.5868014,2194,39,0,2155
20023,Cheyenne,Kansas,US,6/16/20 4:33,39.78580976,-101.7318201,2,0,0,2
8017,Cheyenne,Colorado,US,6/16/20 4:33,38.82777431,-102.6032558,5,0,0,5
31033,Cheyenne,Nebraska,US,6/16/20 4:33,41.21999357,-102.9941693,10,0,0,10
19037,Chickasaw,Iowa,US,6/16/20 4:33,43.06001295,-92.31773347,15,0,0,15
28017,Chickasaw,Mississippi,US,6/16/20 4:33,33.91983202,-88.9481545,168,16,0,152
5017,Chicot,Arkansas,US,6/16/20 4:33,33.26458973,-91.29539209,54,2,0,52
48075,Childress,Texas,US,6/16/20 4:33,34.5293041,-100.2077916,6,0,0,6
1021,Chilton,Alabama,US,6/16/20 4:33,32.85044126,-86.7173256,135,2,0,133
26033,Chippewa,Michigan,US,6/16/20 4:33,46.29552653,-84.54353449,3,0,0,3
27023,Chippewa,Minnesota,US,6/16/20 4:33,45.02343421,-95.56403693,56,1,0,55
55017,Chippewa,Wisconsin,US,6/16/20 4:33,45.06939744,-91.28068855,62,0,0,62
27025,Chisago,Minnesota,US,6/16/20 4:33,45.5021011,-92.90861945,80,1,0,79
50007,Chittenden,Vermont,US,6/16/20 4:33,44.46322849,-73.08359212,570,39,0,531
28019,Choctaw,Mississippi,US,6/16/20 4:33,33.34598242,-89.24809382,65,2,0,63
40023,Choctaw,Oklahoma,US,6/16/20 4:33,34.02807439,-95.54771129,102,1,0,101
1023,Choctaw,Alabama,US,6/16/20 4:33,32.02227341,-88.2656443,175,11,0,164
37041,Chowan,North Carolina,US,6/16/20 4:33,36.12908077,-76.60118385,19,0,0,19
29043,Christian,Missouri,US,6/16/20 4:33,36.9711783,-93.18537118,30,0,0,30
17021,Christian,Illinois,US,6/16/20 4:33,39.54581621,-89.27780482,39,4,0,35
21047,Christian,Kentucky,US,6/16/20 4:33,36.89267803,-87.49055367,138,3,0,135
32001,Churchill,Nevada,US,6/16/20 4:33,39.58105744,-118.3394607,10,1,0,9
35006,Cibola,New Mexico,US,6/16/20 4:33,34.91131525,-107.998876,185,8,0,177
40025,Cimarron,Oklahoma,US,6/16/20 4:33,36.74817177,-102.5173885,1,0,0,1
12017,Citrus,Florida,US,6/16/20 4:33,28.84804315,-82.47614748,150,12,0,138
41005,Clackamas,Oregon,US,6/16/20 4:33,45.18787398,-122.2179634,488,18,0,470
47025,Claiborne,Tennessee,US,6/16/20 4:33,36.48319149,-83.65947309,15,0,0,15
22027,Claiborne,Louisiana,US,6/16/20 4:33,32.82308512,-92.99526883,78,10,0,68
28021,Claiborne,Mississippi,US,6/16/20 4:33,31.97061673,-90.90702196,140,8,0,132
53009,Clallam,Washington,US,6/16/20 4:33,48.04754642,-123.9226319,29,0,0,29
26035,Clare,Michigan,US,6/16/20 4:33,43.98794227,-84.8481986,25,2,0,23
45027,Clarendon,South Carolina,US,6/16/20 4:33,33.66610974,-80.21647898,343,41,0,302
42031,Clarion,Pennsylvania,US,6/16/20 4:33,41.19265812,-79.42413524,31,2,0,29
29045,Clark,Missouri,US,6/16/20 4:33,40.41040752,-91.73661677,1,0,0,1
46025,Clark,South Dakota,US,6/16/20 4:33,44.85834507,-97.72925109,11,0,0,11
17023,Clark,Illinois,US,6/16/20 4:33,39.33425789,-87.78705622,13,0,0,13
20025,Clark,Kansas,US,6/16/20 4:33,37.23577007,-99.81883015,34,1,0,33
5019,Clark,Arkansas,US,6/16/20 4:33,34.04613432,-93.17484713,48,0,0,48
55019,Clark,Wisconsin,US,6/16/20 4:33,44.73483377,-90.61207486,51,4,0,47
21049,Clark,Kentucky,US,6/16/20 4:33,37.9689263,-84.14615986,77,0,0,77
39023,Clark,Ohio,US,6/16/20 4:33,39.91592258,-83.78498252,425,8,0,417
18019,Clark,Indiana,US,6/16/20 4:33,38.48015445,-85.70510334,568,42,0,526
53011,Clark,Washington,US,6/16/20 4:33,45.77568046,-122.4829204,620,27,0,593
32003,Clark,Nevada,US,6/16/20 4:33,36.21458855,-115.0130241,8815,379,0,8436
51043,Clarke,Virginia,US,6/16/20 4:33,39.11271747,-77.99199425,38,0,0,38
19039,Clarke,Iowa,US,6/16/20 4:33,41.02868181,-93.78499767,89,1,0,88
28023,Clarke,Mississippi,US,6/16/20 4:33,32.04158545,-88.6889622,166,21,0,145
1025,Clarke,Alabama,US,6/16/20 4:33,31.68099859,-87.83548597,191,3,0,188
13059,Clarke,Georgia,US,6/16/20 4:33,33.95436462,-83.37124007,348,15,0,333
41007,Clatsop,Oregon,US,6/16/20 4:33,45.99712889,-123.660711,46,0,0,46
17025,Clay,Illinois,US,6/16/20 4:33,38.75388572,-88.48914513,2,0,0,2
48077,Clay,Texas,US,6/16/20 4:33,33.78686685,-98.20771198,5,0,0,5
20027,Clay,Kansas,US,6/16/20 4:33,39.34948772,-97.16518128,6,2,0,4
37043,Clay,North Carolina,US,6/16/20 4:33,35.05704275,-83.74353633,9,0,0,9
54015,Clay,West Virginia,US,6/16/20 4:33,38.46231092,-81.07652217,10,0,0,10
47027,Clay,Tennessee,US,6/16/20 4:33,36.55151008,-85.53930419,11,0,0,11
21051,Clay,Kentucky,US,6/16/20 4:33,37.16451126,-83.712575,17,2,0,15
5021,Clay,Arkansas,US,6/16/20 4:33,36.36826212,-90.4148172,20,0,0,20
31035,Clay,Nebraska,US,6/16/20 4:33,40.52439441,-98.05126296,24,0,0,24
1027,Clay,Alabama,US,6/16/20 4:33,33.26984193,-85.85836077,30,2,0,28
13061,Clay,Georgia,US,6/16/20 4:33,31.62221166,-84.97713865,52,2,0,50
18021,Clay,Indiana,US,6/16/20 4:33,39.39561833,-87.11723506,56,3,0,53
46027,Clay,South Dakota,US,6/16/20 4:33,42.91296147,-96.97656917,66,0,0,66
19041,Clay,Iowa,US,6/16/20 4:33,43.08247182,-95.15096481,77,0,0,77
28025,Clay,Mississippi,US,6/16/20 4:33,33.65358105,-88.77784255,174,6,0,168
29047,Clay,Missouri,US,6/16/20 4:33,39.31132056,-94.41850862,293,3,0,290
12019,Clay,Florida,US,6/16/20 4:33,29.98319144,-81.85609986,440,32,0,408
27027,Clay,Minnesota,US,6/16/20 4:33,46.89289518,-96.48761922,506,36,0,470
19043,Clayton,Iowa,US,6/16/20 4:33,42.84443388,-91.34133693,35,3,0,32
13063,Clayton,Georgia,US,6/16/20 4:33,33.54187245,-84.35594188,1440,72,0,1368
8019,Clear Creek,Colorado,US,6/16/20 4:33,39.68864463,-105.6463118,17,1,0,16
42033,Clearfield,Pennsylvania,US,6/16/20 4:33,41.00110782,-78.47592663,55,0,0,55
27029,Clearwater,Minnesota,US,6/16/20 4:33,47.57992111,-95.37790562,5,0,0,5
1029,Cleburne,Alabama,US,6/16/20 4:33,33.67679204,-85.52005899,22,1,0,21
5023,Cleburne,Arkansas,US,6/16/20 4:33,35.53864922,-92.02640019,75,4,0,71
39025,Clermont,Ohio,US,6/16/20 4:33,39.04847534,-84.15375786,240,6,0,234
5025,Cleveland,Arkansas,US,6/16/20 4:33,33.89723187,-92.18537045,20,0,0,20
37045,Cleveland,North Carolina,US,6/16/20 4:33,35.33553364,-81.55204486,159,2,0,157
40027,Cleveland,Oklahoma,US,6/16/20 4:33,35.20413532,-97.32519562,552,40,0,512
13065,Clinch,Georgia,US,6/16/20 4:33,30.91395822,-82.70432472,80,2,0,78
21053,Clinton,Kentucky,US,6/16/20 4:33,36.72581156,-85.13377529,5,0,0,5
29049,Clinton,Missouri,US,6/16/20 4:33,39.6013098,-94.40465394,21,0,0,21
39027,Clinton,Ohio,US,6/16/20 4:33,39.41485808,-83.80852286,54,1,0,53
42035,Clinton,Pennsylvania,US,6/16/20 4:33,41.23255967,-77.63785995,64,3,0,61
19045,Clinton,Iowa,US,6/16/20 4:33,41.89981633,-90.53275096,68,1,0,67
36019,Clinton,New York,US,6/16/20 4:33,44.74530905,-73.67875352,98,4,0,94
26037,Clinton,Michigan,US,6/16/20 4:33,42.94400871,-84.60145248,190,11,0,179
17027,Clinton,Illinois,US,6/16/20 4:33,38.60704876,-89.42385254,213,17,0,196
18023,Clinton,Indiana,US,6/16/20 4:33,40.30319754,-86.47277257,262,1,0,261
20029,Cloud,Kansas,US,6/16/20 4:33,39.48028352,-97.64925343,5,0,0,5
28027,Coahoma,Mississippi,US,6/16/20 4:33,34.22772299,-90.60415045,150,4,0,146
40029,Coal,Oklahoma,US,6/16/20 4:33,34.58840127,-96.29798747,6,0,0,6
13067,Cobb,Georgia,US,6/16/20 4:33,33.94243204,-84.5761255,3618,217,0,3401
4003,Cochise,Arizona,US,6/16/20 4:33,31.87934684,-109.7516088,221,4,0,217
48079,Cochran,Texas,US,6/16/20 4:33,33.60425307,-102.8284499,1,0,0,1
47029,Cocke,Tennessee,US,6/16/20 4:33,35.9278914,-83.11828725,26,0,0,26
4005,Coconino,Arizona,US,6/16/20 4:33,35.83883429,-111.7707178,1373,88,0,1285
46029,Codington,South Dakota,US,6/16/20 4:33,44.97788119,-97.18827677,46,0,0,46
47031,Coffee,Tennessee,US,6/16/20 4:33,35.49090731,-86.07311784,94,0,0,94
1031,Coffee,Alabama,US,6/16/20 4:33,31.39932826,-85.98901039,290,1,0,289
13069,Coffee,Georgia,US,6/16/20 4:33,31.54892966,-82.8549206,346,14,0,332
20031,Coffey,Kansas,US,6/16/20 4:33,38.2365018,-95.73379515,52,8,0,44
48081,Coke,Texas,US,6/16/20 4:33,31.88911733,-100.5297533,4,0,0,4
1033,Colbert,Alabama,US,6/16/20 4:33,34.69847452,-87.80168544,265,5,0,260
29051,Cole,Missouri,US,6/16/20 4:33,38.50455671,-92.27860244,57,1,0,56
48083,Coleman,Texas,US,6/16/20 4:33,31.76736834,-99.45240766,3,0,0,3
17029,Coles,Illinois,US,6/16/20 4:33,39.51949084,-88.22358557,143,17,0,126
35007,Colfax,New Mexico,US,6/16/20 4:33,36.60569702,-104.6472674,8,0,0,8
31037,Colfax,Nebraska,US,6/16/20 4:33,41.57486951,-97.0868542,647,4,0,643
45029,Colleton,South Carolina,US,6/16/20 4:33,32.87582989,-80.67641292,201,16,0,185
12021,Collier,Florida,US,6/16/20 4:33,26.11091986,-81.34687065,2592,60,0,2532
48085,Collin,Texas,US,6/16/20 4:33,33.18820114,-96.57264368,1667,37,0,1630
48087,Collingsworth,Texas,US,6/16/20 4:33,34.96489496,-100.2700111,5,0,0,5
51570,Colonial Heights,Virginia,US,6/16/20 4:33,37.26420587,-77.39609676,115,17,0,98
48089,Colorado,Texas,US,6/16/20 4:33,29.622098,-96.5273805,34,0,0,34
13071,Colquitt,Georgia,US,6/16/20 4:33,31.18810588,-83.7677946,679,17,0,662
53013,Columbia,Washington,US,6/16/20 4:33,46.29442881,-117.9051983,1,0,0,1
41009,Columbia,Oregon,US,6/16/20 4:33,45.94464254,-123.0890898,22,0,0,22
5027,Columbia,Arkansas,US,6/16/20 4:33,33.21230701,-93.22642793,28,2,0,26
55021,Columbia,Wisconsin,US,6/16/20 4:33,43.46492199,-89.33589004,56,1,0,55
12023,Columbia,Florida,US,6/16/20 4:33,30.22509788,-82.62160164,183,2,0,181
13073,Columbia,Georgia,US,6/16/20 4:33,33.54534185,-82.263524,301,8,0,293
42037,Columbia,Pennsylvania,US,6/16/20 4:33,41.04821986,-76.40565017,380,33,0,347
36021,Columbia,New York,US,6/16/20 4:33,42.24819348,-73.63089095,439,37,0,402
39029,Columbiana,Ohio,US,6/16/20 4:33,40.76932373,-80.78094576,920,57,0,863
37047,Columbus,North Carolina,US,6/16/20 4:33,34.26744084,-78.65801424,427,31,0,396
6011,Colusa,California,US,6/16/20 4:33,39.17881957,-122.2331726,7,0,0,7
48091,Comal,Texas,US,6/16/20 4:33,29.80811278,-98.27647225,159,7,0,152
20033,Comanche,Kansas,US,6/16/20 4:33,37.1911452,-99.27113247,2,0,0,2
48093,Comanche,Texas,US,6/16/20 4:33,31.94854689,-98.55876441,12,1,0,11
40031,Comanche,Oklahoma,US,6/16/20 4:33,34.65973764,-98.47195055,341,4,0,337
48095,Concho,Texas,US,6/16/20 4:33,31.32635934,-99.86473038,1,0,0,1
22029,Concordia,Louisiana,US,6/16/20 4:33,31.44817835,-91.63814433,107,5,0,102
1035,Conecuh,Alabama,US,6/16/20 4:33,31.43401703,-86.99320044,100,1,0,99
8021,Conejos,Colorado,US,6/16/20 4:33,37.201606,-106.1917488,5,0,0,5
6013,Contra Costa,California,US,6/16/20 4:33,37.91923498,-121.9289527,1983,44,0,1939
56009,Converse,Wyoming,US,6/16/20 4:33,42.97272268,-105.5081848,24,0,0,24
5029,Conway,Arkansas,US,6/16/20 4:33,35.26205537,-92.70506566,24,2,0,22
27031,Cook,Minnesota,US,6/16/20 4:33,47.90504893,-90.52629546,1,0,0,1
13075,Cook,Georgia,US,6/16/20 4:33,31.16068491,-83.42947229,75,1,0,74
17031,Cook,Illinois,US,6/16/20 4:33,41.84144849,-87.81658794,85184,4206,0,80978
48097,Cooke,Texas,US,6/16/20 4:33,33.63979567,-97.21240912,23,0,0,23
29053,Cooper,Missouri,US,6/16/20 4:33,38.844478,-92.80896081,9,0,0,9
33007,Coos,New Hampshire,US,6/16/20 4:33,44.69063265,-71.30633239,6,0,0,6
41011,Coos,Oregon,US,6/16/20 4:33,43.17406868,-124.0594514,32,0,0,32
1037,Coosa,Alabama,US,6/16/20 4:33,32.93690146,-86.24847739,46,1,0,45
28029,Copiah,Mississippi,US,6/16/20 4:33,31.86977774,-90.44565118,412,6,0,406
46031,Corson,South Dakota,US,6/16/20 4:33,45.70889983,-101.1970473,11,0,0,11
36023,Cortland,New York,US,6/16/20 4:33,42.59509207,-76.07048931,42,0,0,42
48099,Coryell,Texas,US,6/16/20 4:33,31.39078397,-97.79936155,300,2,0,298
39031,Coshocton,Ohio,US,6/16/20 4:33,40.30096166,-81.91729018,51,0,0,51
8023,Costilla,Colorado,US,6/16/20 4:33,37.27732493,-105.4276548,15,0,0,15
48101,Cottle,Texas,US,6/16/20 4:33,34.07783319,-100.2785062,4,1,0,3
40033,Cotton,Oklahoma,US,6/16/20 4:33,34.28845626,-98.37053567,5,2,0,3
27033,Cottonwood,Minnesota,US,6/16/20 4:33,44.00715262,-95.18138802,110,0,0,110
51580,Covington,Virginia,US,6/16/20 4:33,37.7824656,-79.98631446,4,0,0,4
1039,Covington,Alabama,US,6/16/20 4:33,31.2477854,-86.45050893,171,1,0,170
28031,Covington,Mississippi,US,6/16/20 4:33,31.63225413,-89.55389939,206,3,0,203
13077,Coweta,Georgia,US,6/16/20 4:33,33.35334302,-84.76129976,515,12,0,503
20035,Cowley,Kansas,US,6/16/20 4:33,37.23781842,-96.83776647,41,1,0,40
53015,Cowlitz,Washington,US,6/16/20 4:33,46.19074721,-122.6782231,109,0,0,109
51045,Craig,Virginia,US,6/16/20 4:33,37.48133648,-80.21072274,6,0,0,6
40035,Craig,Oklahoma,US,6/16/20 4:33,36.76268118,-95.20916602,16,0,0,16
5031,Craighead,Arkansas,US,6/16/20 4:33,35.83018283,-90.63235729,363,2,0,361
48103,Crane,Texas,US,6/16/20 4:33,31.43052248,-102.5143314,32,5,0,27
37049,Craven,North Carolina,US,6/16/20 4:33,35.11833364,-77.08398081,276,5,0,271
29055,Crawford,Missouri,US,6/16/20 4:33,37.97663738,-91.30528104,9,0,0,9
17033,Crawford,Illinois,US,6/16/20 4:33,39.0032229,-87.75954624,17,0,0,17
18025,Crawford,Indiana,US,6/16/20 4:33,38.28814402,-86.44518825,27,0,0,27
55023,Crawford,Wisconsin,US,6/16/20 4:33,43.23870316,-90.93073686,27,0,0,27
13079,Crawford,Georgia,US,6/16/20 4:33,32.71391813,-83.98061238,32,0,0,32
42039,Crawford,Pennsylvania,US,6/16/20 4:33,41.68447709,-80.10760592,36,0,0,36
5033,Crawford,Arkansas,US,6/16/20 4:33,35.58928601,-94.2446814,61,0,0,61
26039,Crawford,Michigan,US,6/16/20 4:33,44.68255561,-84.61006219,65,5,0,60
20037,Crawford,Kansas,US,6/16/20 4:33,37.50675523,-94.85245778,98,1,0,97
39033,Crawford,Ohio,US,6/16/20 4:33,40.85065156,-82.91989099,123,5,0,118
19047,Crawford,Iowa,US,6/16/20 4:33,42.03718237,-95.3819718,622,2,0,620
40037,Creek,Oklahoma,US,6/16/20 4:33,35.90230551,-96.37086028,106,7,0,99
1041,Crenshaw,Alabama,US,6/16/20 4:33,31.72941803,-86.31593104,112,3,0,109
13081,Crisp,Georgia,US,6/16/20 4:33,31.92289565,-83.76811843,242,10,0,232
21055,Crittenden,Kentucky,US,6/16/20 4:33,37.35839237,-88.0882609,7,1,0,6
5035,Crittenden,Arkansas,US,6/16/20 4:33,35.21247318,-90.30839406,537,9,0,528
48105,Crockett,Texas,US,6/16/20 4:33,30.72367027,-101.4134238,5,0,0,5
47033,Crockett,Tennessee,US,6/16/20 4:33,35.81830662,-89.14916269,18,3,0,15
56011,Crook,Wyoming,US,6/16/20 4:33,44.58855102,-104.5697705,6,0,0,6
41013,Crook,Oregon,US,6/16/20 4:33,44.14230227,-120.356297,8,0,0,8
48107,Crosby,Texas,US,6/16/20 4:33,33.61431553,-101.3000364,4,1,0,3
5037,Cross,Arkansas,US,6/16/20 4:33,35.29631396,-90.77185818,79,0,0,79
27035,Crow Wing,Minnesota,US,6/16/20 4:33,46.48096553,-94.06755609,90,9,0,81
8025,Crowley,Colorado,US,6/16/20 4:33,38.32608609,-103.7844965,68,1,0,67
1043,Cullman,Alabama,US,6/16/20 4:33,34.13020303,-86.86888037,273,1,0,272
51047,Culpeper,Virginia,US,6/16/20 4:33,38.48199985,-77.9563087,783,9,0,774
21057,Cumberland,Kentucky,US,6/16/20 4:33,36.78926125,-85.39050034,5,0,0,5
17035,Cumberland,Illinois,US,6/16/20 4:33,39.27432424,-88.2401158,10,0,0,10
51049,Cumberland,Virginia,US,6/16/20 4:33,37.51328851,-78.24398086,49,0,0,49
47035,Cumberland,Tennessee,US,6/16/20 4:33,35.95271721,-84.99840585,133,2,0,131
42041,Cumberland,Pennsylvania,US,6/16/20 4:33,40.1625372,-77.26130755,738,60,0,678
37051,Cumberland,North Carolina,US,6/16/20 4:33,35.04762133,-78.82623165,895,30,0,865
23005,Cumberland,Maine,US,6/16/20 4:33,43.8370751,-70.37226999,1445,57,0,1388
34011,Cumberland,New Jersey,US,6/16/20 4:33,39.37199394,-75.10712559,2697,108,0,2589
31039,Cuming,Nebraska,US,6/16/20 4:33,41.91637624,-96.78730772,34,0,0,34
37053,Currituck,North Carolina,US,6/16/20 4:33,36.36123664,-75.95876401,16,0,0,16
41015,Curry,Oregon,US,6/16/20 4:33,42.45911325,-124.157282,7,0,0,7
35009,Curry,New Mexico,US,6/16/20 4:33,34.57421077,-103.3468876,83,0,0,83
8027,Custer,Colorado,US,6/16/20 4:33,38.10883162,-105.3683478,2,0,0,2
16037,Custer,Idaho,US,6/16/20 4:33,44.24186819,-114.2855494,2,0,0,2
46033,Custer,South Dakota,US,6/16/20 4:33,43.67741105,-103.4534521,2,0,0,2
30017,Custer,Montana,US,6/16/20 4:33,46.25319932,-105.5737526,11,0,0,11
31041,Custer,Nebraska,US,6/16/20 4:33,41.39374521,-99.72805369,34,4,0,30
40039,Custer,Oklahoma,US,6/16/20 4:33,35.63853802,-99.00170785,41,0,0,41
39035,Cuyahoga,Ohio,US,6/16/20 4:33,41.424119,-81.65918339,5220,315,0,4905
29057,Dade,Missouri,US,6/16/20 4:33,37.431814,-93.8503345,1,0,0,1
13083,Dade,Georgia,US,6/16/20 4:33,34.8549167,-85.50490424,48,1,0,47
31043,Dakota,Nebraska,US,6/16/20 4:33,42.39040144,-96.56656425,1724,27,0,1697
27037,Dakota,Minnesota,US,6/16/20 4:33,44.67172617,-93.06299363,1730,74,0,1656
1045,Dale,Alabama,US,6/16/20 4:33,31.43037123,-85.61095742,178,0,0,178
48111,Dallam,Texas,US,6/16/20 4:33,36.27787176,-102.6020725,35,1,0,34
5039,Dallas,Arkansas,US,6/16/20 4:33,33.97042763,-92.65167437,3,0,0,3
29059,Dallas,Missouri,US,6/16/20 4:33,37.6811355,-93.02127031,6,0,0,6
1047,Dallas,Alabama,US,6/16/20 4:33,32.32688101,-87.1086671,503,6,0,497
19049,Dallas,Iowa,US,6/16/20 4:33,41.68560356,-94.04127625,1029,26,0,1003
48113,Dallas,Texas,US,6/16/20 4:33,32.76670599,-96.7779605,14537,285,0,14252
55025,Dane,Wisconsin,US,6/16/20 4:33,43.06601594,-89.41733797,968,30,0,938
51590,Danville,Virginia,US,6/16/20 4:33,36.58022376,-79.40395668,66,2,0,64
37055,Dare,North Carolina,US,6/16/20 4:33,35.66520691,-75.71767334,25,1,0,24
39037,Darke,Ohio,US,6/16/20 4:33,40.13412966,-84.6194517,222,25,0,197
45031,Darlington,South Carolina,US,6/16/20 4:33,34.33358335,-79.96027485,353,13,0,340
42043,Dauphin,Pennsylvania,US,6/16/20 4:33,40.41377078,-76.77993242,1655,107,0,1548
37057,Davidson,North Carolina,US,6/16/20 4:33,35.79115496,-80.21256572,655,14,0,641
47037,Davidson,Tennessee,US,6/16/20 4:33,36.17007426,-86.78646056,6818,88,0,6730
37059,Davie,North Carolina,US,6/16/20 4:33,35.93099927,-80.54496571,142,2,0,140
29061,Daviess,Missouri,US,6/16/20 4:33,39.96145298,-93.98519678,7,0,0,7
18027,Daviess,Indiana,US,6/16/20 4:33,38.70186039,-87.07185406,123,16,0,107
21059,Daviess,Kentucky,US,6/16/20 4:33,37.73028906,-87.0901948,360,8,0,352
19051,Davis,Iowa,US,6/16/20 4:33,40.74773536,-92.41005468,34,1,0,33
49011,Davis,Utah,US,6/16/20 4:33,40.99001837,-112.1139997,672,4,0,668
46035,Davison,South Dakota,US,6/16/20 4:33,43.67490933,-98.14458906,33,0,0,33
31045,Dawes,Nebraska,US,6/16/20 4:33,42.71985036,-103.1313774,1,0,0,1
48115,Dawson,Texas,US,6/16/20 4:33,32.74255572,-101.9477242,45,1,0,44
13085,Dawson,Georgia,US,6/16/20 4:33,34.44244079,-84.16964071,119,3,0,116
31047,Dawson,Nebraska,US,6/16/20 4:33,40.87028216,-99.8201461,845,8,0,837
46037,Day,South Dakota,US,6/16/20 4:33,45.367281,-97.60737498,13,0,0,13
22031,De Soto,Louisiana,US,6/16/20 4:33,32.05457447,-93.74130302,271,17,0,254
17039,De Witt,Illinois,US,6/16/20 4:33,40.17514519,-88.90959682,4,0,0,4
48117,Deaf Smith,Texas,US,6/16/20 4:33,34.96522957,-102.6054267,212,14,0,198
18029,Dearborn,Indiana,US,6/16/20 4:33,39.14647946,-84.97333539,179,22,0,157
19053,Decatur,Iowa,US,6/16/20 4:33,40.73742757,-93.78645949,7,0,0,7
47039,Decatur,Tennessee,US,6/16/20 4:33,35.60048904,-88.11043779,14,0,0,14
13087,Decatur,Georgia,US,6/16/20 4:33,30.87967778,-84.57619536,224,8,0,216
18031,Decatur,Indiana,US,6/16/20 4:33,39.30712658,-85.50087166,237,32,0,205
30023,Deer Lodge,Montana,US,6/16/20 4:33,46.05953325,-113.073353,3,0,0,3
39039,Defiance,Ohio,US,6/16/20 4:33,41.32398837,-84.49076944,40,2,0,38
29063,DeKalb,Missouri,US,6/16/20 4:33,39.89201062,-94.40476508,9,0,0,9
47041,DeKalb,Tennessee,US,6/16/20 4:33,35.97616272,-85.83689361,41,0,0,41
18033,DeKalb,Indiana,US,6/16/20 4:33,41.39804622,-84.99906934,121,3,0,118
1049,DeKalb,Alabama,US,6/16/20 4:33,34.45946862,-85.80782906,322,5,0,317
17037,DeKalb,Illinois,US,6/16/20 4:33,41.89373302,-88.76958483,490,15,0,475
13089,DeKalb,Georgia,US,6/16/20 4:33,33.76944049,-84.22396017,4355,148,0,4207
6015,Del Norte,California,US,6/16/20 4:33,41.74228275,-123.8974063,47,0,0,47
19055,Delaware,Iowa,US,6/16/20 4:33,42.47104597,-91.3664492,27,1,0,26
36025,Delaware,New York,US,6/16/20 4:33,42.19837623,-74.96709306,88,4,0,84
40041,Delaware,Oklahoma,US,6/16/20 4:33,36.40823634,-94.80325046,109,16,0,93
18035,Delaware,Indiana,US,6/16/20 4:33,40.22787247,-85.39732772,402,44,0,358
39041,Delaware,Ohio,US,6/16/20 4:33,40.27942393,-83.00457058,402,15,0,387
42045,Delaware,Pennsylvania,US,6/16/20 4:33,39.91680171,-75.40243663,6921,620,0,6301
48119,Delta,Texas,US,6/16/20 4:33,33.38570922,-95.66921122,2,0,0,2
26041,Delta,Michigan,US,6/16/20 4:33,45.9048491,-86.9080745,21,2,0,19
8029,Delta,Colorado,US,6/16/20 4:33,38.86246243,-107.8631342,78,1,0,77
29065,Dent,Missouri,US,6/16/20 4:33,37.60663134,-91.50790473,1,0,0,1
48121,Denton,Texas,US,6/16/20 4:33,33.20521901,-97.11691153,1736,36,0,1700
8031,Denver,Colorado,US,6/16/20 4:33,39.76018276,-104.8725695,6376,364,0,6012
19057,Des Moines,Iowa,US,6/16/20 4:33,40.92012606,-91.18326592,66,2,0,64
41017,Deschutes,Oregon,US,6/16/20 4:33,43.91570171,-121.2289121,137,0,0,137
5041,Desha,Arkansas,US,6/16/20 4:33,33.83011025,-91.25500948,22,0,0,22
12027,DeSoto,Florida,US,6/16/20 4:33,27.18677893,-81.80941373,387,10,0,377
28033,DeSoto,Mississippi,US,6/16/20 4:33,34.87625235,-89.99091418,718,13,0,705
46039,Deuel,South Dakota,US,6/16/20 4:33,44.75994309,-96.66943645,1,0,0,1
46041,Dewey,South Dakota,US,6/16/20 4:33,45.15639647,-100.8709139,2,0,0,2
40043,Dewey,Oklahoma,US,6/16/20 4:33,35.98772922,-99.00730714,5,0,0,5
48123,DeWitt,Texas,US,6/16/20 4:33,29.08101855,-97.3568117,28,1,0,27
48125,Dickens,Texas,US,6/16/20 4:33,33.61616822,-100.7788855,2,0,0,2
38021,Dickey,North Dakota,US,6/16/20 4:33,46.11017712,-98.5049008,3,0,0,3
20041,Dickinson,Kansas,US,6/16/20 4:33,38.86600962,-97.15532383,6,1,0,5
26043,Dickinson,Michigan,US,6/16/20 4:33,46.00999672,-87.86961634,7,2,0,5
19059,Dickinson,Iowa,US,6/16/20 4:33,43.37787725,-95.1510206,151,0,0,151
47043,Dickson,Tennessee,US,6/16/20 4:33,36.14669837,-87.35891709,138,0,0,138
45033,Dillon,South Carolina,US,6/16/20 4:33,34.39007791,-79.37741872,202,4,0,198
48127,Dimmit,Texas,US,6/16/20 4:33,28.42270064,-99.75645095,1,0,0,1
51053,Dinwiddie,Virginia,US,6/16/20 4:33,37.07544585,-77.63451754,110,0,0,110
11001,Washington,D.C.,US,6/16/20 4:33,38.90417773,-77.01655992,9799,515,0,9284
38023,Divide,North Dakota,US,6/16/20 4:33,48.8149387,-103.4873611,1,0,0,1
12029,Dixie,Florida,US,6/16/20 4:33,29.60631086,-83.15724673,60,3,0,57
31051,Dixon,Nebraska,US,6/16/20 4:33,42.49188363,-96.86782408,40,1,0,39
13091,Dodge,Georgia,US,6/16/20 4:33,32.17265114,-83.16948926,56,2,0,54
27039,Dodge,Minnesota,US,6/16/20 4:33,44.02238415,-92.86244324,59,0,0,59
55027,Dodge,Wisconsin,US,6/16/20 4:33,43.41576662,-88.70928178,424,4,0,420
31053,Dodge,Nebraska,US,6/16/20 4:33,41.58071748,-96.65598179,638,3,0,635
35013,Dona Ana,New Mexico,US,6/16/20 4:33,32.35275771,-106.8329387,657,6,0,651
20043,Doniphan,Kansas,US,6/16/20 4:33,39.79067154,-95.14056866,20,0,0,20
48129,Donley,Texas,US,6/16/20 4:33,34.96517499,-100.8140093,28,0,0,28
13093,Dooly,Georgia,US,6/16/20 4:33,32.15630737,-83.79746561,191,12,0,179
55029,Door,Wisconsin,US,6/16/20 4:33,44.95856458,-87.30002707,39,3,0,36
24019,Dorchester,Maryland,US,6/16/20 4:33,38.45413522,-76.02752426,165,4,0,161
45035,Dorchester,South Carolina,US,6/16/20 4:33,33.0794369,-80.40502652,276,3,0,273
13095,Dougherty,Georgia,US,6/16/20 4:33,31.53328528,-84.21722377,1839,150,0,1689
29067,Douglas,Missouri,US,6/16/20 4:33,36.9325593,-92.49905109,3,0,0,3
46043,Douglas,South Dakota,US,6/16/20 4:33,43.38520741,-98.36978007,4,0,0,4
55031,Douglas,Wisconsin,US,6/16/20 4:33,46.43222285,-91.91595768,20,0,0,20
41019,Douglas,Oregon,US,6/16/20 4:33,43.27941273,-123.167291,29,0,0,29
17041,Douglas,Illinois,US,6/16/20 4:33,39.76768052,-88.21854195,38,0,0,38
32005,Douglas,Nevada,US,6/16/20 4:33,38.912862,-119.6171333,46,0,0,46
27041,Douglas,Minnesota,US,6/16/20 4:33,45.93348491,-95.45335469,48,0,0,48
20045,Douglas,Kansas,US,6/16/20 4:33,38.88503636,-95.2925121,82,0,0,82
53017,Douglas,Washington,US,6/16/20 4:33,47.7361335,-119.692937,183,3,0,180
13097,Douglas,Georgia,US,6/16/20 4:33,33.70291126,-84.77026156,660,28,0,632
8035,Douglas,Colorado,US,6/16/20 4:33,39.33133796,-104.930001,807,49,0,758
31055,Douglas,Nebraska,US,6/16/20 4:33,41.29518299,-96.15085305,5734,61,0,5673
5043,Drew,Arkansas,US,6/16/20 4:33,33.59035001,-91.71777921,26,1,0,25
18037,Dubois,Indiana,US,6/16/20 4:33,38.36597551,-86.8792417,241,4,0,237
19061,Dubuque,Iowa,US,6/16/20 4:33,42.46815349,-90.88181925,387,22,0,365
25007,Dukes,Massachusetts,US,6/16/20 4:33,41.40674725,-70.68763497,42,0,0,42
29069,Dunklin,Missouri,US,6/16/20 4:33,36.27167174,-90.09122243,61,3,0,58
38025,Dunn,North Dakota,US,6/16/20 4:33,47.35423935,-102.6160468,11,0,0,11
55033,Dunn,Wisconsin,US,6/16/20 4:33,44.94562799,-91.8962481,29,0,0,29
17043,DuPage,Illinois,US,6/16/20 4:33,41.85116968,-88.08642662,8465,431,0,8034
37061,Duplin,North Carolina,US,6/16/20 4:33,34.93449805,-77.93140529,1213,20,0,1193
37063,Durham,North Carolina,US,6/16/20 4:33,36.03638492,-78.87608331,2712,56,0,2656
36027,Dutchess,New York,US,6/16/20 4:33,41.7648606,-73.74356679,4068,145,0,3923
48131,Duval,Texas,US,6/16/20 4:33,27.68184592,-98.50864568,5,0,0,5
12031,Duval,Florida,US,6/16/20 4:33,30.33225875,-81.66976468,2032,57,0,1975
47045,Dyer,Tennessee,US,6/16/20 4:33,36.05931946,-89.41542855,99,0,0,99
8037,Eagle,Colorado,US,6/16/20 4:33,39.62754308,-106.6933637,626,8,0,618
13099,Early,Georgia,US,6/16/20 4:33,31.32155345,-84.90255207,255,31,0,224
22033,East Baton Rouge,Louisiana,US,6/16/20 4:33,30.53842039,-91.09777565,4284,259,0,4025
22035,East Carroll,Louisiana,US,6/16/20 4:33,32.73926954,-91.23425694,243,0,0,243
22037,East Feliciana,Louisiana,US,6/16/20 4:33,30.84425359,-91.04976723,227,32,0,195
48133,Eastland,Texas,US,6/16/20 4:33,32.32743996,-98.83243566,7,0,0,7
26045,Eaton,Michigan,US,6/16/20 4:33,42.59599185,-84.83740035,258,7,0,251
55035,Eau Claire,Wisconsin,US,6/16/20 4:33,44.726614,-91.28609183,137,0,0,137
13101,Echols,Georgia,US,6/16/20 4:33,30.71101099,-82.89687287,161,0,0,161
48135,Ector,Texas,US,6/16/20 4:33,31.86898877,-102.5429428,238,6,0,232
38027,Eddy,North Dakota,US,6/16/20 4:33,47.71701474,-98.90432337,5,0,0,5
35015,Eddy,New Mexico,US,6/16/20 4:33,32.47167456,-104.3053527,47,1,0,46
17045,Edgar,Illinois,US,6/16/20 4:33,39.6809186,-87.74759563,2,0,0,2
37065,Edgecombe,North Carolina,US,6/16/20 4:33,35.91230639,-77.59436892,253,9,0,244
45037,Edgefield,South Carolina,US,6/16/20 4:33,33.77221995,-81.96231108,61,2,0,59
21061,Edmonson,Kentucky,US,6/16/20 4:33,37.21218923,-86.23955613,67,11,0,56
46045,Edmunds,South Dakota,US,6/16/20 4:33,45.41846445,-99.21545423,4,0,0,4
17047,Edwards,Illinois,US,6/16/20 4:33,38.41353228,-88.05720863,2,0,0,2
20047,Edwards,Kansas,US,6/16/20 4:33,37.88735543,-99.31263309,5,0,0,5
17049,Effingham,Illinois,US,6/16/20 4:33,39.05935711,-88.58969584,8,1,0,7
13103,Effingham,Georgia,US,6/16/20 4:33,32.36616021,-81.34280942,86,1,0,85
6017,El Dorado,California,US,6/16/20 4:33,38.77965956,-120.5233166,117,0,0,117
8041,El Paso,Colorado,US,6/16/20 4:33,38.83240149,-104.5251411,1941,103,0,1838
48141,El Paso,Texas,US,6/16/20 4:33,31.76980765,-106.2363275,3911,102,0,3809
8039,Elbert,Colorado,US,6/16/20 4:33,39.28656773,-104.1358721,54,2,0,52
13105,Elbert,Georgia,US,6/16/20 4:33,34.11302332,-82.83936148,86,0,0,86
42047,Elk,Pennsylvania,US,6/16/20 4:33,41.42822061,-78.64524744,6,0,0,6
18039,Elkhart,Indiana,US,6/16/20 4:33,41.59761169,-85.85875695,2168,34,0,2134
32007,Elko,Nevada,US,6/16/20 4:33,41.14531606,-115.3577619,37,1,0,36
21063,Elliott,Kentucky,US,6/16/20 4:33,38.11624059,-83.09771563,2,0,0,2
20051,Ellis,Kansas,US,6/16/20 4:33,38.91458712,-99.31751551,13,0,0,13
48139,Ellis,Texas,US,6/16/20 4:33,32.34894117,-96.79371841,448,19,0,429
20053,Ellsworth,Kansas,US,6/16/20 4:33,38.69677695,-98.20462799,3,0,0,3
16039,Elmore,Idaho,US,6/16/20 4:33,43.3507101,-115.4701578,34,2,0,32
1051,Elmore,Alabama,US,6/16/20 4:33,32.59785413,-86.14415284,547,9,0,538
13107,Emanuel,Georgia,US,6/16/20 4:33,32.59221302,-82.30239915,53,2,0,51
26047,Emmet,Michigan,US,6/16/20 4:33,45.52625509,-84.89083249,26,2,0,24
19063,Emmet,Iowa,US,6/16/20 4:33,43.37782951,-94.67858943,39,0,0,39
38029,Emmons,North Dakota,US,6/16/20 4:33,46.28398398,-100.2389766,4,1,0,3
51595,Emporia,Virginia,US,6/16/20 4:33,36.69455571,-77.53406129,98,6,0,92
48143,Erath,Texas,US,6/16/20 4:33,32.23602653,-98.21773417,36,1,0,35
39043,Erie,Ohio,US,6/16/20 4:33,41.36796058,-82.62904521,213,20,0,193
42049,Erie,Pennsylvania,US,6/16/20 4:33,41.99253829,-80.03301954,468,8,0,460
36029,Erie,New York,US,6/16/20 4:33,42.76249024,-78.73063652,6817,587,0,6230
1053,Escambia,Alabama,US,6/16/20 4:33,31.1256789,-87.15918694,107,3,0,104
12033,Escambia,Florida,US,6/16/20 4:33,30.67652764,-87.37284571,999,38,0,961
50009,Essex,Vermont,US,6/16/20 4:33,44.72736416,-71.73579864,3,0,0,3
36031,Essex,New York,US,6/16/20 4:33,44.11630765,-73.77297842,40,0,0,40
51057,Essex,Virginia,US,6/16/20 4:33,37.93357639,-76.94230311,53,0,0,53
25009,Essex,Massachusetts,US,6/16/20 4:33,42.6687626,-70.94687179,15627,1051,0,14576
34013,Essex,New Jersey,US,6/16/20 4:33,40.78681335,-74.24657979,18375,1751,0,16624
21065,Estill,Kentucky,US,6/16/20 4:33,37.69241417,-83.95956369,5,0,0,5
1055,Etowah,Alabama,US,6/16/20 4:33,34.04567266,-86.04051873,330,12,0,318
22039,Evangeline,Louisiana,US,6/16/20 4:33,30.72985248,-92.39915924,91,1,0,90
13109,Evans,Georgia,US,6/16/20 4:33,32.15328841,-81.8870105,8,0,0,8
2090,Fairbanks North Star,Alaska,US,6/16/20 4:33,64.80726247,-146.5692662,96,2,0,94
51059,Fairfax,Virginia,US,6/16/20 4:33,38.83677558,-77.27565836,13092,423,0,12669
51600,Fairfax City,Virginia,US,6/16/20 4:33,38.85157547,-77.2977964,67,6,0,61
45039,Fairfield,South Carolina,US,6/16/20 4:33,34.39287073,-81.1195624,231,20,0,211
39045,Fairfield,Ohio,US,6/16/20 4:33,39.75107189,-82.63088163,370,10,0,360
9001,Fairfield,Connecticut,US,6/16/20 4:33,41.26809896,-73.3881171,16338,1347,0,14991
46047,Fall River,South Dakota,US,6/16/20 4:33,43.23929297,-103.5275691,6,0,0,6
48145,Falls,Texas,US,6/16/20 4:33,31.25350609,-96.93630086,17,0,0,17
51610,Falls Church,Virginia,US,6/16/20 4:33,38.88485255,-77.17560759,56,7,0,49
48147,Fannin,Texas,US,6/16/20 4:33,33.59564294,-96.10751083,54,2,0,52
13111,Fannin,Georgia,US,6/16/20 4:33,34.86430205,-84.316964,67,1,0,66
27043,Faribault,Minnesota,US,6/16/20 4:33,43.67381499,-93.94787458,27,0,0,27
46049,Faulk,South Dakota,US,6/16/20 4:33,45.07082625,-99.14535601,20,0,0,20
5045,Faulkner,Arkansas,US,6/16/20 4:33,35.14719007,-92.33717519,172,3,0,169
51061,Fauquier,Virginia,US,6/16/20 4:33,38.73564842,-77.80647472,386,6,0,380
17051,Fayette,Illinois,US,6/16/20 4:33,39.00072038,-89.02452658,22,3,0,19
19065,Fayette,Iowa,US,6/16/20 4:33,42.86271799,-91.8441231,28,0,0,28
48149,Fayette,Texas,US,6/16/20 4:33,29.87788372,-96.92076062,44,2,0,42
1057,Fayette,Alabama,US,6/16/20 4:33,33.72076938,-87.73886638,45,0,0,45
39047,Fayette,Ohio,US,6/16/20 4:33,39.56021306,-83.4562016,45,0,0,45
54019,Fayette,West Virginia,US,6/16/20 4:33,38.02974928,-81.08286634,54,4,0,50
18041,Fayette,Indiana,US,6/16/20 4:33,39.63684962,-85.17797541,84,7,0,77
42051,Fayette,Pennsylvania,US,6/16/20 4:33,39.92041012,-79.64291195,95,4,0,91
47047,Fayette,Tennessee,US,6/16/20 4:33,35.19615831,-89.41399032,177,2,0,175
13113,Fayette,Georgia,US,6/16/20 4:33,33.41357794,-84.49089434,261,15,0,246
21067,Fayette,Kentucky,US,6/16/20 4:33,38.0368225,-84.45576892,1064,17,0,1047
,Federal Correctional Institution (FCI),Michigan,US,6/16/20 4:33,,,165,5,0,160
47049,Fentress,Tennessee,US,6/16/20 4:33,36.38128818,-84.92870012,14,0,0,14
53019,Ferry,Washington,US,6/16/20 4:33,48.4711431,-118.5154041,1,0,0,1
31059,Fillmore,Nebraska,US,6/16/20 4:33,40.52458567,-97.59646937,11,1,0,10
27045,Fillmore,Minnesota,US,6/16/20 4:33,43.67394126,-92.08980382,20,1,0,19
20055,Finney,Kansas,US,6/16/20 4:33,38.04340344,-100.7381938,1540,10,0,1530
48151,Fisher,Texas,US,6/16/20 4:33,32.74281316,-100.4019302,2,1,0,1
12035,Flagler,Florida,US,6/16/20 4:33,29.45933576,-81.31508595,207,5,0,202
30029,Flathead,Montana,US,6/16/20 4:33,48.29575866,-114.0520569,39,2,0,37
21069,Fleming,Kentucky,US,6/16/20 4:33,38.36758311,-83.69657514,6,0,0,6
55037,Florence,Wisconsin,US,6/16/20 4:33,45.84963535,-88.39804137,2,0,0,2
45041,Florence,South Carolina,US,6/16/20 4:33,34.02361754,-79.70189312,826,43,0,783
51063,Floyd,Virginia,US,6/16/20 4:33,36.9302126,-80.36738849,10,1,0,9
48153,Floyd,Texas,US,6/16/20 4:33,34.07227468,-101.3031546,16,1,0,15
21071,Floyd,Kentucky,US,6/16/20 4:33,37.56213922,-82.74750924,19,0,0,19
19067,Floyd,Iowa,US,6/16/20 4:33,43.0600053,-92.78940097,20,1,0,19
18043,Floyd,Indiana,US,6/16/20 4:33,38.32117957,-85.90385377,335,42,0,293
13115,Floyd,Georgia,US,6/16/20 4:33,34.26268279,-85.21577392,371,15,0,356
51065,Fluvanna,Virginia,US,6/16/20 4:33,37.84157909,-78.27715475,102,6,0,96
55039,Fond du Lac,Wisconsin,US,6/16/20 4:33,43.75354908,-88.48885325,269,6,0,263
17053,Ford,Illinois,US,6/16/20 4:33,40.59706922,-88.22350769,22,1,0,21
20057,Ford,Kansas,US,6/16/20 4:33,37.69200114,-99.88825298,1863,8,0,1855
42053,Forest,Pennsylvania,US,6/16/20 4:33,41.51095103,-79.23229292,7,0,0,7
55041,Forest,Wisconsin,US,6/16/20 4:33,45.66678019,-88.77084892,34,2,0,32
28035,Forrest,Mississippi,US,6/16/20 4:33,31.18961454,-89.25832496,681,41,0,640
13117,Forsyth,Georgia,US,6/16/20 4:33,34.22604035,-84.1231513,598,13,0,585
37067,Forsyth,North Carolina,US,6/16/20 4:33,36.12859861,-80.25459052,2250,25,0,2225
48157,Fort Bend,Texas,US,6/16/20 4:33,29.52704478,-95.77219463,2385,49,0,2336
38031,Foster,North Dakota,US,6/16/20 4:33,47.4571084,-98.88279923,1,0,0,1
18045,Fountain,Indiana,US,6/16/20 4:33,40.12361933,-87.24217689,24,2,0,22
12037,Franklin,Florida,US,6/16/20 4:33,29.83791238,-84.82731662,2,0,0,2
5047,Franklin,Arkansas,US,6/16/20 4:33,35.51202821,-93.89299569,6,0,0,6
31061,Franklin,Nebraska,US,6/16/20 4:33,40.17636348,-98.95299073,6,0,0,6
17055,Franklin,Illinois,US,6/16/20 4:33,37.99189086,-88.92567818,12,0,0,12
16041,Franklin,Idaho,US,6/16/20 4:33,42.18332217,-111.8149666,14,0,0,14
36033,Franklin,New York,US,6/16/20 4:33,44.59040891,-74.29926032,25,0,0,25
48159,Franklin,Texas,US,6/16/20 4:33,33.17653242,-95.21917243,27,0,0,27
28037,Franklin,Mississippi,US,6/16/20 4:33,31.47786634,-90.89672989,30,2,0,28
23007,Franklin,Maine,US,6/16/20 4:33,44.97330019,-70.44381045,37,1,0,36
51067,Franklin,Virginia,US,6/16/20 4:33,36.99536167,-79.88023649,43,1,0,42
19069,Franklin,Iowa,US,6/16/20 4:33,42.73270384,-93.26256925,49,0,0,49
20059,Franklin,Kansas,US,6/16/20 4:33,38.56443815,-95.28644341,51,0,0,51
47051,Franklin,Tennessee,US,6/16/20 4:33,35.15634626,-86.09201039,63,2,0,61
21073,Franklin,Kentucky,US,6/16/20 4:33,38.2379395,-84.87962551,98,2,0,96
50011,Franklin,Vermont,US,6/16/20 4:33,44.85627605,-72.91249563,102,5,0,97
18047,Franklin,Indiana,US,6/16/20 4:33,39.4142482,-85.06062647,120,8,0,112
13119,Franklin,Georgia,US,6/16/20 4:33,34.37525597,-83.23159927,140,1,0,139
29071,Franklin,Missouri,US,6/16/20 4:33,38.41127108,-91.07522826,168,18,0,150
37069,Franklin,North Carolina,US,6/16/20 4:33,36.081519,-78.28708884,231,22,0,209
25011,Franklin,Massachusetts,US,6/16/20 4:33,42.58119713,-72.58602547,353,51,0,302
22041,Franklin,Louisiana,US,6/16/20 4:33,32.13675181,-91.67589857,424,13,0,411
1059,Franklin,Alabama,US,6/16/20 4:33,34.44235334,-87.84289505,730,10,0,720
42055,Franklin,Pennsylvania,US,6/16/20 4:33,39.92956518,-77.72157791,843,42,0,801
53021,Franklin,Washington,US,6/16/20 4:33,46.53351425,-118.9018212,946,26,0,920
39049,Franklin,Ohio,US,6/16/20 4:33,39.96995815,-83.01115755,7202,332,0,6870
51620,Franklin City,Virginia,US,6/16/20 4:33,36.6831435,-76.93859681,44,2,0,42
51069,Frederick,Virginia,US,6/16/20 4:33,39.20172582,-78.25974949,435,4,0,431
24021,Frederick,Maryland,US,6/16/20 4:33,39.47296601,-77.39999394,2298,114,0,2184
51630,Fredericksburg,Virginia,US,6/16/20 4:33,38.2977863,-77.4922454,211,0,0,211
27047,Freeborn,Minnesota,US,6/16/20 4:33,43.67385583,-93.34884422,220,0,0,220
48161,Freestone,Texas,US,6/16/20 4:33,31.70422788,-96.15072516,15,0,0,15
16043,Fremont,Idaho,US,6/16/20 4:33,44.22800938,-111.4809943,4,0,0,4
19071,Fremont,Iowa,US,6/16/20 4:33,40.7454272,-95.60129045,4,0,0,4
8043,Fremont,Colorado,US,6/16/20 4:33,38.47362326,-105.4399667,29,0,0,29
56013,Fremont,Wyoming,US,6/16/20 4:33,43.04183996,-108.6296893,308,0,0,308
6019,Fresno,California,US,6/16/20 4:33,36.75733899,-119.6466953,2706,55,0,2651
48163,Frio,Texas,US,6/16/20 4:33,28.86751206,-99.10804207,79,0,0,79
31063,Frontier,Nebraska,US,6/16/20 4:33,40.52993007,-100.3924658,1,0,0,1
5049,Fulton,Arkansas,US,6/16/20 4:33,36.38177105,-91.81729127,9,0,0,9
17057,Fulton,Illinois,US,6/16/20 4:33,40.47289135,-90.20862357,12,0,0,12
21075,Fulton,Kentucky,US,6/16/20 4:33,36.55238827,-89.20140068,12,0,0,12
42057,Fulton,Pennsylvania,US,6/16/20 4:33,39.92913544,-78.11163677,16,1,0,15
39051,Fulton,Ohio,US,6/16/20 4:33,41.60213491,-84.12571393,53,0,0,53
18049,Fulton,Indiana,US,6/16/20 4:33,41.0469907,-86.26252745,55,1,0,54
36035,Fulton,New York,US,6/16/20 4:33,43.11363907,-74.41798804,235,24,0,211
13121,Fulton,Georgia,US,6/16/20 4:33,33.79216944,-84.46319413,5157,290,0,4867
31065,Furnas,Nebraska,US,6/16/20 4:33,40.17642064,-99.91247454,9,1,0,8
12039,Gadsden,Florida,US,6/16/20 4:33,30.57796289,-84.61915825,305,4,0,301
31067,Gage,Nebraska,US,6/16/20 4:33,40.26186809,-96.68946704,45,4,0,41
48165,Gaines,Texas,US,6/16/20 4:33,32.74055318,-102.6353295,14,0,0,14
51640,Galax,Virginia,US,6/16/20 4:33,36.66601852,-80.91703124,205,10,0,195
17059,Gallatin,Illinois,US,6/16/20 4:33,37.76430935,-88.22953869,2,0,0,2
21077,Gallatin,Kentucky,US,6/16/20 4:33,38.75398691,-84.8558382,57,7,0,50
30031,Gallatin,Montana,US,6/16/20 4:33,45.54486106,-111.1692571,188,1,0,187
39053,Gallia,Ohio,US,6/16/20 4:33,38.82708533,-82.31647569,9,1,0,8
48167,Galveston,Texas,US,6/16/20 4:33,29.40167322,-94.90469073,1255,40,0,1215
31069,Garden,Nebraska,US,6/16/20 4:33,41.61703149,-102.3313973,4,0,0,4
31071,Garfield,Nebraska,US,6/16/20 4:33,41.91428955,-98.99111827,1,0,0,1
40047,Garfield,Oklahoma,US,6/16/20 4:33,36.3791334,-97.78265517,47,1,0,46
8045,Garfield,Colorado,US,6/16/20 4:33,39.59921777,-107.902708,193,2,0,191
5051,Garland,Arkansas,US,6/16/20 4:33,34.57692074,-93.14921604,165,1,0,164
21079,Garrard,Kentucky,US,6/16/20 4:33,37.6388668,-84.53289319,11,0,0,11
24023,Garrett,Maryland,US,6/16/20 4:33,39.52786077,-79.27355126,10,0,0,10
40049,Garvin,Oklahoma,US,6/16/20 4:33,34.70418038,-97.30811132,30,1,0,29
48169,Garza,Texas,US,6/16/20 4:33,33.17969345,-101.2984114,6,0,0,6
29073,Gasconade,Missouri,US,6/16/20 4:33,38.43947277,-91.50847147,2,0,0,2
37071,Gaston,North Carolina,US,6/16/20 4:33,35.29373559,-81.17477045,525,8,0,517
37073,Gates,North Carolina,US,6/16/20 4:33,36.44667547,-76.69749701,24,1,0,23
20061,Geary,Kansas,US,6/16/20 4:33,38.99871131,-96.7577178,29,1,0,28
39055,Geauga,Ohio,US,6/16/20 4:33,41.49952319,-81.17935342,337,35,0,302
16045,Gem,Idaho,US,6/16/20 4:33,44.06482372,-116.398376,17,0,0,17
36037,Genesee,New York,US,6/16/20 4:33,43.0022601,-78.19135193,213,5,0,208
26049,Genesee,Michigan,US,6/16/20 4:33,43.02244215,-83.70589709,2583,282,0,2301
1061,Geneva,Alabama,US,6/16/20 4:33,31.09389027,-85.83572839,46,0,0,46
29075,Gentry,Missouri,US,6/16/20 4:33,40.21097916,-94.40944419,54,8,0,46
28039,George,Mississippi,US,6/16/20 4:33,30.86259065,-88.64436789,37,2,0,35
45043,Georgetown,South Carolina,US,6/16/20 4:33,33.43443342,-79.33202141,181,3,0,178
18051,Gibson,Indiana,US,6/16/20 4:33,38.30393723,-87.58054938,24,2,0,22
47053,Gibson,Tennessee,US,6/16/20 4:33,35.99438059,-88.93358327,69,1,0,68
4007,Gila,Arizona,US,6/16/20 4:33,33.80190085,-110.8132779,87,3,0,84
12041,Gilchrist,Florida,US,6/16/20 4:33,29.72856978,-82.79880657,26,0,0,26
51071,Giles,Virginia,US,6/16/20 4:33,37.31234791,-80.70636931,6,0,0,6
47055,Giles,Tennessee,US,6/16/20 4:33,35.20222469,-87.03992678,23,0,0,23
48171,Gillespie,Texas,US,6/16/20 4:33,30.31824095,-98.94676915,6,0,0,6
54021,Gilmer,West Virginia,US,6/16/20 4:33,38.9251277,-80.85952723,10,0,0,10
13123,Gilmer,Georgia,US,6/16/20 4:33,34.69316688,-84.45802506,170,1,0,169
8047,Gilpin,Colorado,US,6/16/20 4:33,39.85646523,-105.5252597,6,0,0,6
30035,Glacier,Montana,US,6/16/20 4:33,48.70513576,-112.9934235,6,0,0,6
12043,Glades,Florida,US,6/16/20 4:33,26.95635849,-81.18996211,116,1,0,115
26051,Gladwin,Michigan,US,6/16/20 4:33,43.98901072,-84.38774817,20,1,0,19
13125,Glascock,Georgia,US,6/16/20 4:33,33.22879932,-82.61297636,1,0,0,1
48173,Glasscock,Texas,US,6/16/20 4:33,31.86942909,-101.5207776,2,0,0,2
6021,Glenn,California,US,6/16/20 4:33,39.59875897,-122.3938452,32,0,0,32
51073,Gloucester,Virginia,US,6/16/20 4:33,37.40809042,-76.53524337,38,1,0,37
34015,Gloucester,New Jersey,US,6/16/20 4:33,39.71581067,-75.13995546,2416,163,0,2253
13127,Glynn,Georgia,US,6/16/20 4:33,31.23279254,-81.53811412,190,3,0,187
26053,Gogebic,Michigan,US,6/16/20 4:33,46.40862701,-89.69377193,5,1,0,4
30037,Golden Valley,Montana,US,6/16/20 4:33,46.3816474,-109.1768522,3,0,0,3
48175,Goliad,Texas,US,6/16/20 4:33,28.65696592,-97.42760647,7,0,0,7
48177,Gonzales,Texas,US,6/16/20 4:33,29.45634206,-97.49424032,166,4,0,162
51075,Goochland,Virginia,US,6/16/20 4:33,37.71714806,-77.90381514,116,6,0,110
27049,Goodhue,Minnesota,US,6/16/20 4:33,44.40849741,-92.7234195,94,7,0,87
16047,Gooding,Idaho,US,6/16/20 4:33,42.96927962,-114.8108306,59,0,0,59
13129,Gordon,Georgia,US,6/16/20 4:33,34.50487351,-84.87296253,256,18,0,238
56015,Goshen,Wyoming,US,6/16/20 4:33,42.08798185,-104.3534743,5,0,0,5
31073,Gosper,Nebraska,US,6/16/20 4:33,40.51481965,-99.83020279,13,0,0,13
20063,Gove,Kansas,US,6/16/20 4:33,38.91588178,-100.4829321,1,0,0,1
40051,Grady,Oklahoma,US,6/16/20 4:33,35.0167709,-97.88339847,118,3,0,115
13131,Grady,Georgia,US,6/16/20 4:33,30.87454847,-84.23418364,139,4,0,135
33009,Grafton,New Hampshire,US,6/16/20 4:33,43.93779815,-71.82057197,76,1,0,75
37075,Graham,North Carolina,US,6/16/20 4:33,35.3506925,-83.83369267,6,0,0,6
4009,Graham,Arizona,US,6/16/20 4:33,32.93166885,-109.8882178,50,1,0,49
47057,Grainger,Tennessee,US,6/16/20 4:33,36.27469206,-83.51254721,20,0,0,20
8049,Grand,Colorado,US,6/16/20 4:33,40.10603347,-106.1178042,17,0,0,17
38035,Grand Forks,North Dakota,US,6/16/20 4:33,47.92093639,-97.45450447,345,4,0,341
50013,Grand Isle,Vermont,US,6/16/20 4:33,44.7975824,-73.29679772,8,0,0,8
26055,Grand Traverse,Michigan,US,6/16/20 4:33,44.69565625,-85.55585247,37,5,0,32
41023,Grant,Oregon,US,6/16/20 4:33,44.49024544,-119.0068631,1,0,0,1
38037,Grant,North Dakota,US,6/16/20 4:33,46.35821257,-101.6390013,2,0,0,2
40053,Grant,Oklahoma,US,6/16/20 4:33,36.796297,-97.78638765,2,0,0,2
27051,Grant,Minnesota,US,6/16/20 4:33,45.93424769,-96.01139609,6,0,0,6
46051,Grant,South Dakota,US,6/16/20 4:33,45.1723937,-96.77002276,13,0,0,13
35017,Grant,New Mexico,US,6/16/20 4:33,32.73911281,-108.3827845,16,0,0,16
54023,Grant,West Virginia,US,6/16/20 4:33,39.10314817,-79.19440518,16,0,0,16
20067,Grant,Kansas,US,6/16/20 4:33,37.56227336,-101.3079758,18,1,0,17
5053,Grant,Arkansas,US,6/16/20 4:33,34.29017991,-92.42320562,24,0,0,24
21081,Grant,Kentucky,US,6/16/20 4:33,38.64962758,-84.62415957,53,4,0,49
22043,Grant,Louisiana,US,6/16/20 4:33,31.59882456,-92.56124347,61,1,0,60
55043,Grant,Wisconsin,US,6/16/20 4:33,42.8671731,-90.7063218,107,12,0,95
18053,Grant,Indiana,US,6/16/20 4:33,40.51587228,-85.65468702,262,24,0,238
53025,Grant,Washington,US,6/16/20 4:33,47.20753737,-119.4500749,264,5,0,259
37077,Granville,North Carolina,US,6/16/20 4:33,36.30337451,-78.65184241,680,15,0,665
26057,Gratiot,Michigan,US,6/16/20 4:33,43.29265605,-84.60505416,91,12,0,79
21083,Graves,Kentucky,US,6/16/20 4:33,36.72292505,-88.65143315,175,20,0,155
20069,Gray,Kansas,US,6/16/20 4:33,37.73836671,-100.4369088,23,0,0,23
48179,Gray,Texas,US,6/16/20 4:33,35.40081878,-100.8129222,111,3,0,108
53027,Grays Harbor,Washington,US,6/16/20 4:33,47.14003705,-123.7820567,20,0,0,20
51077,Grayson,Virginia,US,6/16/20 4:33,36.65677234,-81.23215889,66,2,0,64
21085,Grayson,Kentucky,US,6/16/20 4:33,37.46231118,-86.34248968,137,11,0,126
48181,Grayson,Texas,US,6/16/20 4:33,33.62744998,-96.67753461,438,4,0,434
31077,Greeley,Nebraska,US,6/16/20 4:33,41.56742671,-98.52150266,3,0,0,3
21087,Green,Kentucky,US,6/16/20 4:33,37.26484328,-85.5540745,3,0,0,3
55045,Green,Wisconsin,US,6/16/20 4:33,42.6794956,-89.60243287,75,1,0,74
55047,Green Lake,Wisconsin,US,6/16/20 4:33,43.80025981,-89.04679553,24,0,0,24
54025,Greenbrier,West Virginia,US,6/16/20 4:33,37.9463652,-80.45335881,30,0,0,30
17061,Greene,Illinois,US,6/16/20 4:33,39.35907414,-90.388865,7,0,0,7
19073,Greene,Iowa,US,6/16/20 4:33,42.03614551,-94.39658081,21,0,0,21
42059,Greene,Pennsylvania,US,6/16/20 4:33,39.85746531,-80.22357106,30,0,0,30
51079,Greene,Virginia,US,6/16/20 4:33,38.29545894,-78.46525378,45,1,0,44
47059,Greene,Tennessee,US,6/16/20 4:33,36.17470125,-82.84691273,53,2,0,51
28041,Greene,Mississippi,US,6/16/20 4:33,31.21444233,-88.63922281,54,3,0,51
5055,Greene,Arkansas,US,6/16/20 4:33,36.1173546,-90.55832668,73,0,0,73
13133,Greene,Georgia,US,6/16/20 4:33,33.5769205,-83.17139104,86,8,0,78
37079,Greene,North Carolina,US,6/16/20 4:33,35.48544173,-77.67578087,122,2,0,120
1063,Greene,Alabama,US,6/16/20 4:33,32.85504247,-87.95684022,132,5,0,127
39057,Greene,Ohio,US,6/16/20 4:33,39.69116283,-83.89032084,143,6,0,137
18055,Greene,Indiana,US,6/16/20 4:33,39.03630547,-86.96223202,181,29,0,152
29077,Greene,Missouri,US,6/16/20 4:33,37.2575872,-93.34230916,193,9,0,184
36039,Greene,New York,US,6/16/20 4:33,42.275797,-74.12384884,251,18,0,233
4011,Greenlee,Arizona,US,6/16/20 4:33,33.21498827,-109.2405279,12,1,0,11
51081,Greensville,Virginia,US,6/16/20 4:33,36.67878901,-77.56351439,344,7,0,337
21089,Greenup,Kentucky,US,6/16/20 4:33,38.54332505,-82.9215658,16,0,0,16
45045,Greenville,South Carolina,US,6/16/20 4:33,34.89502264,-82.37295012,3011,69,0,2942
20073,Greenwood,Kansas,US,6/16/20 4:33,37.8774388,-96.23250453,11,0,0,11
45047,Greenwood,South Carolina,US,6/16/20 4:33,34.15272415,-82.12715789,312,5,0,307
40055,Greer,Oklahoma,US,6/16/20 4:33,34.93535801,-99.5605612,66,7,0,59
48183,Gregg,Texas,US,6/16/20 4:33,32.47940482,-94.81591935,278,11,0,267
46053,Gregory,South Dakota,US,6/16/20 4:33,43.19419064,-99.18883902,1,0,0,1
28043,Grenada,Mississippi,US,6/16/20 4:33,33.77036166,-89.80245083,164,4,0,160
38039,Griggs,North Dakota,US,6/16/20 4:33,47.45785838,-98.23850925,1,0,0,1
48185,Grimes,Texas,US,6/16/20 4:33,30.54579585,-95.98902499,274,2,0,272
29079,Grundy,Missouri,US,6/16/20 4:33,40.11406587,-93.56509276,12,0,0,12
19075,Grundy,Iowa,US,6/16/20 4:33,42.40183723,-92.78829551,23,0,0,23
47061,Grundy,Tennessee,US,6/16/20 4:33,35.38433717,-85.72142731,36,1,0,35
17063,Grundy,Illinois,US,6/16/20 4:33,41.28569601,-88.41905692,129,2,0,127
35019,Guadalupe,New Mexico,US,6/16/20 4:33,34.86319296,-104.790669,20,0,0,20
48187,Guadalupe,Texas,US,6/16/20 4:33,29.58165339,-97.94786822,171,0,0,171
39059,Guernsey,Ohio,US,6/16/20 4:33,40.05026529,-81.49248905,44,3,0,41
37081,Guilford,North Carolina,US,6/16/20 4:33,36.07959451,-79.78824948,2061,91,0,1970
12045,Gulf,Florida,US,6/16/20 4:33,29.93543004,-85.2427099,9,0,0,9
8051,Gunnison,Colorado,US,6/16/20 4:33,38.66611652,-107.0320729,181,6,0,175
19077,Guthrie,Iowa,US,6/16/20 4:33,41.68378965,-94.50111014,59,3,0,56
13135,Gwinnett,Georgia,US,6/16/20 4:33,33.96044201,-84.02137802,5308,155,0,5153
13137,Habersham,Georgia,US,6/16/20 4:33,34.63331566,-83.53094677,596,31,0,565
2100,Haines,Alaska,US,6/16/20 4:33,59.09893571,-135.4679843,1,0,0,1
48189,Hale,Texas,US,6/16/20 4:33,34.07044901,-101.8268114,85,5,0,80
1065,Hale,Alabama,US,6/16/20 4:33,32.76039258,-87.63284988,235,15,0,220
51083,Halifax,Virginia,US,6/16/20 4:33,36.76654925,-78.93512622,37,1,0,36
37083,Halifax,North Carolina,US,6/16/20 4:33,36.25669272,-77.6556109,239,2,0,237
48191,Hall,Texas,US,6/16/20 4:33,34.5307555,-100.6813852,2,1,0,1
31079,Hall,Nebraska,US,6/16/20 4:33,40.87257079,-98.50218293,1562,45,0,1517
13139,Hall,Georgia,US,6/16/20 4:33,34.32207823,-83.81896936,2755,55,0,2700
47063,Hamblen,Tennessee,US,6/16/20 4:33,36.21990035,-83.26586179,75,3,0,72
17065,Hamilton,Illinois,US,6/16/20 4:33,38.08163641,-88.53883373,2,0,0,2
36041,Hamilton,New York,US,6/16/20 4:33,43.66146647,-74.49721957,6,0,0,6
48193,Hamilton,Texas,US,6/16/20 4:33,31.70470573,-98.11083887,11,1,0,10
20075,Hamilton,Kansas,US,6/16/20 4:33,37.99978709,-101.7921066,28,0,0,28
31081,Hamilton,Nebraska,US,6/16/20 4:33,40.87349452,-98.02099117,56,11,0,45
19079,Hamilton,Iowa,US,6/16/20 4:33,42.38382428,-93.70197703,123,0,0,123
12047,Hamilton,Florida,US,6/16/20 4:33,30.49673973,-82.94998918,272,2,0,270
18057,Hamilton,Indiana,US,6/16/20 4:33,40.07306535,-86.05244729,1357,96,0,1261
47065,Hamilton,Tennessee,US,6/16/20 4:33,35.17670231,-85.16652245,1731,20,0,1711
39061,Hamilton,Ohio,US,6/16/20 4:33,39.19673558,-84.54502924,3250,179,0,3071
46057,Hamlin,South Dakota,US,6/16/20 4:33,44.67385954,-97.18829593,11,0,0,11
25013,Hampden,Massachusetts,US,6/16/20 4:33,42.13440424,-72.63235561,6489,640,0,5849
54027,Hampshire,West Virginia,US,6/16/20 4:33,39.32103553,-78.60826476,39,1,0,38
25015,Hampshire,Massachusetts,US,6/16/20 4:33,42.33997957,-72.65898478,926,103,0,823
45049,Hampton,South Carolina,US,6/16/20 4:33,32.77419582,-81.13845571,50,1,0,49
51650,Hampton,Virginia,US,6/16/20 4:33,37.03513786,-76.35879121,241,5,0,236
47067,Hancock,Tennessee,US,6/16/20 4:33,36.52692871,-83.22375847,1,0,0,1
21091,Hancock,Kentucky,US,6/16/20 4:33,37.83766422,-86.78280584,9,0,0,9
23009,Hancock,Maine,US,6/16/20 4:33,44.59816444,-68.38401854,13,1,0,12
17067,Hancock,Illinois,US,6/16/20 4:33,40.40423981,-91.16313899,18,1,0,17
54029,Hancock,West Virginia,US,6/16/20 4:33,40.51943859,-80.57461608,20,0,0,20
19081,Hancock,Iowa,US,6/16/20 4:33,43.08178477,-93.73454884,32,0,0,32
39063,Hancock,Ohio,US,6/16/20 4:33,41.00250487,-83.66838948,61,1,0,60
28045,Hancock,Mississippi,US,6/16/20 4:33,30.41830223,-89.48851033,100,12,0,88
13141,Hancock,Georgia,US,6/16/20 4:33,33.2721566,-82.99766919,202,30,0,172
18059,Hancock,Indiana,US,6/16/20 4:33,39.82304555,-85.77566351,386,29,0,357
46059,Hand,South Dakota,US,6/16/20 4:33,44.54708407,-99.00386459,6,0,0,6
51085,Hanover,Virginia,US,6/16/20 4:33,37.7583355,-77.49464673,374,25,0,349
48195,Hansford,Texas,US,6/16/20 4:33,36.27743284,-101.3545796,21,2,0,19
46061,Hanson,South Dakota,US,6/16/20 4:33,43.6746384,-97.78715148,3,0,0,3
13143,Haralson,Georgia,US,6/16/20 4:33,33.79602175,-85.21005667,57,4,0,53
12049,Hardee,Florida,US,6/16/20 4:33,27.49293939,-81.80956574,205,0,0,205
48197,Hardeman,Texas,US,6/16/20 4:33,34.28944521,-99.74632408,4,0,0,4
47069,Hardeman,Tennessee,US,6/16/20 4:33,35.20772017,-88.99161161,220,0,0,220
17069,Hardin,Illinois,US,6/16/20 4:33,37.51810645,-88.26873022,1,0,0,1
47071,Hardin,Tennessee,US,6/16/20 4:33,35.19732531,-88.18593755,37,4,0,33
19083,Hardin,Iowa,US,6/16/20 4:33,42.38353877,-93.23654611,45,0,0,45
39065,Hardin,Ohio,US,6/16/20 4:33,40.66015414,-83.65929931,93,4,0,89
21093,Hardin,Kentucky,US,6/16/20 4:33,37.6976111,-85.96319251,133,4,0,129
48199,Hardin,Texas,US,6/16/20 4:33,30.33364686,-94.38931817,146,5,0,141
35021,Harding,New Mexico,US,6/16/20 4:33,35.85751555,-103.8220938,1,0,0,1
54031,Hardy,West Virginia,US,6/16/20 4:33,39.00683177,-78.85855301,40,0,0,40
24025,Harford,Maryland,US,6/16/20 4:33,39.55010644,-76.3077594,1019,58,0,961
21095,Harlan,Kentucky,US,6/16/20 4:33,36.85699301,-83.21899516,13,0,0,13
37085,Harnett,North Carolina,US,6/16/20 4:33,35.36731853,-78.87243571,411,30,0,381
41025,Harney,Oregon,US,6/16/20 4:33,43.06422669,-118.9666306,1,0,0,1
40059,Harper,Oklahoma,US,6/16/20 4:33,36.78836519,-99.6679804,1,0,0,1
20077,Harper,Kansas,US,6/16/20 4:33,37.19175361,-98.07578384,2,0,0,2
13145,Harris,Georgia,US,6/16/20 4:33,32.73709786,-84.90538572,203,6,0,197
48201,Harris,Texas,US,6/16/20 4:33,29.86,-95.39,17282,284,0,16998
29081,Harrison,Missouri,US,6/16/20 4:33,40.35570088,-93.99222144,9,0,0,9
39067,Harrison,Ohio,US,6/16/20 4:33,40.29380509,-81.09068544,10,0,0,10
21097,Harrison,Kentucky,US,6/16/20 4:33,38.44188174,-84.32869741,34,0,0,34
19085,Harrison,Iowa,US,6/16/20 4:33,41.68330137,-95.81558439,40,0,0,40
54033,Harrison,West Virginia,US,6/16/20 4:33,39.2853852,-80.37919577,48,1,0,47
18061,Harrison,Indiana,US,6/16/20 4:33,38.19467379,-86.10948271,198,22,0,176
48203,Harrison,Texas,US,6/16/20 4:33,32.54935988,-94.36934071,270,28,0,242
28047,Harrison,Mississippi,US,6/16/20 4:33,30.51359752,-89.12467576,367,7,0,360
51660,Harrisonburg,Virginia,US,6/16/20 4:33,38.43542574,-78.87536254,856,23,0,833
21099,Hart,Kentucky,US,6/16/20 4:33,37.29943898,-85.88461055,30,0,0,30
13147,Hart,Georgia,US,6/16/20 4:33,34.34626973,-82.96567682,44,0,0,44
9003,Hartford,Connecticut,US,6/16/20 4:33,41.80283011,-72.73103891,11231,1328,0,9903
48205,Hartley,Texas,US,6/16/20 4:33,35.84008013,-102.6029022,13,2,0,11
20079,Harvey,Kansas,US,6/16/20 4:33,38.04293782,-97.42747573,12,0,0,12
48207,Haskell,Texas,US,6/16/20 4:33,33.17823584,-99.73037358,4,0,0,4
40061,Haskell,Oklahoma,US,6/16/20 4:33,35.222576,-95.11513306,6,0,0,6
20081,Haskell,Kansas,US,6/16/20 4:33,37.5620394,-100.8710738,22,0,0,22
15001,Hawaii,Hawaii,US,6/16/20 4:33,19.60121157,-155.5210167,82,0,0,82
47073,Hawkins,Tennessee,US,6/16/20 4:33,36.44355426,-82.94885298,34,2,0,32
48209,Hays,Texas,US,6/16/20 4:33,30.05669873,-98.02944344,673,5,0,668
47075,Haywood,Tennessee,US,6/16/20 4:33,35.58332824,-89.28536625,37,2,0,35
37087,Haywood,North Carolina,US,6/16/20 4:33,35.55269063,-82.98196486,65,0,0,65
13149,Heard,Georgia,US,6/16/20 4:33,33.29686567,-85.12886832,43,3,0,40
48211,Hemphill,Texas,US,6/16/20 4:33,35.83764858,-100.2703577,1,0,0,1
5057,Hempstead,Arkansas,US,6/16/20 4:33,33.73325583,-93.66935133,39,1,0,38
17071,Henderson,Illinois,US,6/16/20 4:33,40.81908672,-90.92491462,8,0,0,8
47077,Henderson,Tennessee,US,6/16/20 4:33,35.65581134,-88.38600175,19,0,0,19
48213,Henderson,Texas,US,6/16/20 4:33,32.21128872,-95.85846587,80,3,0,77
21101,Henderson,Kentucky,US,6/16/20 4:33,37.79344553,-87.57392021,133,3,0,130
37089,Henderson,North Carolina,US,6/16/20 4:33,35.33788927,-82.4766782,448,48,0,400
18063,Hendricks,Indiana,US,6/16/20 4:33,39.76719009,-86.51037283,1276,92,0,1184
12051,Hendry,Florida,US,6/16/20 4:33,26.55386945,-81.16469006,650,20,0,630
27053,Hennepin,Minnesota,US,6/16/20 4:33,45.00761521,-93.47694895,10281,720,0,9561
51087,Henrico,Virginia,US,6/16/20 4:33,37.53460572,-77.39326555,2289,136,0,2153
29083,Henry,Missouri,US,6/16/20 4:33,38.38482826,-93.79293734,16,3,0,13
39069,Henry,Ohio,US,6/16/20 4:33,41.3339642,-84.06830637,20,0,0,20
21103,Henry,Kentucky,US,6/16/20 4:33,38.44942688,-85.11587507,26,2,0,24
47079,Henry,Tennessee,US,6/16/20 4:33,36.33160906,-88.30121797,35,0,0,35
17073,Henry,Illinois,US,6/16/20 4:33,41.3533994,-90.13296166,72,1,0,71
19087,Henry,Iowa,US,6/16/20 4:33,40.98767962,-91.54436349,74,2,0,72
1067,Henry,Alabama,US,6/16/20 4:33,31.51148016,-85.24267944,108,2,0,106
51089,Henry,Virginia,US,6/16/20 4:33,36.68542395,-79.87634026,202,3,0,199
18065,Henry,Indiana,US,6/16/20 4:33,39.93029017,-85.39625719,204,14,0,190
13151,Henry,Georgia,US,6/16/20 4:33,33.4533428,-84.1481466,852,30,0,822
36043,Herkimer,New York,US,6/16/20 4:33,43.42034246,-74.96145307,128,3,0,125
12053,Hernando,Florida,US,6/16/20 4:33,28.55364461,-82.42700204,141,5,0,136
37091,Hertford,North Carolina,US,6/16/20 4:33,36.3607755,-76.98104134,151,7,0,144
21105,Hickman,Kentucky,US,6/16/20 4:33,36.6794808,-88.97875928,5,0,0,5
47081,Hickman,Tennessee,US,6/16/20 4:33,35.80609681,-87.47643507,62,0,0,62
35023,Hidalgo,New Mexico,US,6/16/20 4:33,31.91383467,-108.7151824,20,0,0,20
48215,Hidalgo,Texas,US,6/16/20 4:33,26.39418217,-98.18299696,1050,12,0,1038
51091,Highland,Virginia,US,6/16/20 4:33,38.35799465,-79.56124594,3,0,0,3
39071,Highland,Ohio,US,6/16/20 4:33,39.1839264,-83.60331456,34,1,0,33
12055,Highlands,Florida,US,6/16/20 4:33,27.34254618,-81.34071957,172,9,0,163
30041,Hill,Montana,US,6/16/20 4:33,48.62879827,-110.1129252,1,0,0,1
48217,Hill,Texas,US,6/16/20 4:33,31.99045053,-97.13423143,36,1,0,35
33011,Hillsborough,New Hampshire,US,6/16/20 4:33,42.91537785,-71.7200253,2963,205,0,2758
12057,Hillsborough,Florida,US,6/16/20 4:33,27.9276559,-82.32013172,3826,99,0,3727
26059,Hillsdale,Michigan,US,6/16/20 4:33,41.88753639,-84.59312019,182,25,0,157
28049,Hinds,Mississippi,US,6/16/20 4:33,32.2656285,-90.44435448,1308,27,0,1281
8053,Hinsdale,Colorado,US,6/16/20 4:33,37.82247444,-107.3004345,3,0,0,3
31087,Hitchcock,Nebraska,US,6/16/20 4:33,40.17609175,-101.0416477,1,0,0,1
39073,Hocking,Ohio,US,6/16/20 4:33,39.49537927,-82.47991446,73,7,0,66
48219,Hockley,Texas,US,6/16/20 4:33,33.60771256,-102.3431676,28,1,0,27
20083,Hodgeman,Kansas,US,6/16/20 4:33,38.08780079,-99.89829881,6,0,0,6
37093,Hoke,North Carolina,US,6/16/20 4:33,35.01888303,-79.23651674,300,1,0,299
12059,Holmes,Florida,US,6/16/20 4:33,30.86747479,-85.81319222,31,0,0,31
39075,Holmes,Ohio,US,6/16/20 4:33,40.56163713,-81.92635677,90,3,0,87
28051,Holmes,Mississippi,US,6/16/20 4:33,33.12345854,-90.08923538,471,34,0,437
29087,Holt,Missouri,US,6/16/20 4:33,40.09799248,-95.2163888,1,0,0,1
31089,Holt,Nebraska,US,6/16/20 4:33,42.45522056,-98.78402558,1,0,0,1
15003,Honolulu,Hawaii,US,6/16/20 4:33,21.45803166,-157.9712182,501,11,0,490
48221,Hood,Texas,US,6/16/20 4:33,32.42990927,-97.83242024,35,4,0,31
41027,Hood River,Oregon,US,6/16/20 4:33,45.51872811,-121.6552036,82,0,0,82
51670,Hopewell,Virginia,US,6/16/20 4:33,37.29186313,-77.29754684,141,2,0,139
48223,Hopkins,Texas,US,6/16/20 4:33,33.14875072,-95.56351139,41,0,0,41
21107,Hopkins,Kentucky,US,6/16/20 4:33,37.30939025,-87.54670406,229,31,0,198
45051,Horry,South Carolina,US,6/16/20 4:33,33.9212828,-78.99555293,1194,34,0,1160
5059,Hot Spring,Arkansas,US,6/16/20 4:33,34.31709259,-92.95396325,42,0,0,42
56017,Hot Springs,Wyoming,US,6/16/20 4:33,43.71930657,-108.4423174,12,0,0,12
26061,Houghton,Michigan,US,6/16/20 4:33,46.89988536,-88.68495385,8,0,0,8
27055,Houston,Minnesota,US,6/16/20 4:33,43.67129565,-91.49143057,5,0,0,5
47083,Houston,Tennessee,US,6/16/20 4:33,36.28872054,-87.71878828,10,0,0,10
48225,Houston,Texas,US,6/16/20 4:33,31.31925973,-95.42226208,156,0,0,156
1069,Houston,Alabama,US,6/16/20 4:33,31.15197924,-85.29939599,315,5,0,310
13153,Houston,Georgia,US,6/16/20 4:33,32.45802497,-83.66879087,446,20,0,426
29089,Howard,Missouri,US,6/16/20 4:33,39.1435761,-92.69756691,3,0,0,3
19089,Howard,Iowa,US,6/16/20 4:33,43.35671042,-92.31702714,12,0,0,12
48227,Howard,Texas,US,6/16/20 4:33,32.30621324,-101.4356444,18,1,0,17
5061,Howard,Arkansas,US,6/16/20 4:33,34.09007427,-93.9934871,41,0,0,41
31093,Howard,Nebraska,US,6/16/20 4:33,41.2200529,-98.5166499,44,4,0,40
18067,Howard,Indiana,US,6/16/20 4:33,40.48527731,-86.11351892,472,45,0,427
24027,Howard,Maryland,US,6/16/20 4:33,39.25305293,-76.93126208,2350,75,0,2275
29091,Howell,Missouri,US,6/16/20 4:33,36.77383887,-91.88683935,26,0,0,26
27057,Hubbard,Minnesota,US,6/16/20 4:33,47.10778564,-94.91693868,5,0,0,5
34017,Hudson,New Jersey,US,6/16/20 4:33,40.73766234,-74.07515667,19195,1256,0,17939
48229,Hudspeth,Texas,US,6/16/20 4:33,31.45628381,-105.388178,13,0,0,13
8055,Huerfano,Colorado,US,6/16/20 4:33,37.68473101,-104.9612585,3,0,0,3
40063,Hughes,Oklahoma,US,6/16/20 4:33,35.04912569,-96.24921145,3,0,0,3
46065,Hughes,South Dakota,US,6/16/20 4:33,44.39091534,-99.99661148,22,0,0,22
19091,Humboldt,Iowa,US,6/16/20 4:33,42.7764426,-94.20722537,34,1,0,33
32013,Humboldt,Nevada,US,6/16/20 4:33,41.40692186,-118.1109427,78,4,0,74
6023,Humboldt,California,US,6/16/20 4:33,40.69923009,-123.876044,106,4,0,102
47085,Humphreys,Tennessee,US,6/16/20 4:33,36.03958805,-87.77992872,18,1,0,17
28053,Humphreys,Mississippi,US,6/16/20 4:33,33.12825718,-90.52252707,82,8,0,74
48231,Hunt,Texas,US,6/16/20 4:33,33.12351514,-96.08551032,185,5,0,180
34019,Hunterdon,New Jersey,US,6/16/20 4:33,40.56335249,-74.91284156,1041,66,0,975
42061,Huntingdon,Pennsylvania,US,6/16/20 4:33,40.42162652,-77.97673273,239,4,0,235
18069,Huntington,Indiana,US,6/16/20 4:33,40.82907273,-85.48822092,52,2,0,50
26063,Huron,Michigan,US,6/16/20 4:33,43.83353985,-83.04078453,61,1,0,60
39077,Huron,Ohio,US,6/16/20 4:33,41.14651175,-82.59867951,77,1,0,76
46067,Hutchinson,South Dakota,US,6/16/20 4:33,43.33449012,-97.75536441,9,0,0,9
48233,Hutchinson,Texas,US,6/16/20 4:33,35.84006574,-101.3546643,45,0,0,45
37095,Hyde,North Carolina,US,6/16/20 4:33,35.42017674,-76.15180542,3,0,0,3
46069,Hyde,South Dakota,US,6/16/20 4:33,44.54747703,-99.48572582,3,0,0,3
22045,Iberia,Louisiana,US,6/16/20 4:33,29.86803617,-91.75871777,465,42,0,423
22047,Iberville,Louisiana,US,6/16/20 4:33,30.25734305,-91.3499598,615,43,0,572
19093,Ida,Iowa,US,6/16/20 4:33,42.38696136,-95.51355387,18,0,0,18
16049,Idaho,Idaho,US,6/16/20 4:33,45.84721541,-115.4634436,3,0,0,3
6025,Imperial,California,US,6/16/20 4:33,33.0393082,-115.3669042,4298,47,0,4251
5063,Independence,Arkansas,US,6/16/20 4:33,35.74242707,-91.57001641,42,0,0,42
12061,Indian River,Florida,US,6/16/20 4:33,27.69308961,-80.60556721,216,12,0,204
42063,Indiana,Pennsylvania,US,6/16/20 4:33,40.65241041,-79.08963285,93,5,0,88
26065,Ingham,Michigan,US,6/16/20 4:33,42.59716886,-84.37472069,822,29,0,793
6027,Inyo,California,US,6/16/20 4:33,36.51112084,-117.4111978,24,1,0,23
26067,Ionia,Michigan,US,6/16/20 4:33,42.94502238,-85.07413319,180,4,0,176
26069,Iosco,Michigan,US,6/16/20 4:33,44.35486835,-83.63484895,112,10,0,102
55049,Iowa,Wisconsin,US,6/16/20 4:33,43.00050278,-90.13469017,17,0,0,17
19095,Iowa,Iowa,US,6/16/20 4:33,41.68630265,-92.0643373,34,0,0,34
37097,Iredell,North Carolina,US,6/16/20 4:33,35.80950511,-80.8743128,446,6,0,440
48235,Irion,Texas,US,6/16/20 4:33,31.30375559,-100.982439,1,0,0,1
29093,Iron,Missouri,US,6/16/20 4:33,37.55487945,-90.7735296,2,0,0,2
55051,Iron,Wisconsin,US,6/16/20 4:33,46.26302338,-90.24295041,2,1,0,1
26071,Iron,Michigan,US,6/16/20 4:33,46.20974132,-88.53136251,3,0,0,3
17075,Iroquois,Illinois,US,6/16/20 4:33,40.74717633,-87.82466784,138,5,0,133
13155,Irwin,Georgia,US,6/16/20 4:33,31.60213036,-83.27501387,38,1,0,37
26073,Isabella,Michigan,US,6/16/20 4:33,43.64060976,-84.84664923,97,8,0,89
27059,Isanti,Minnesota,US,6/16/20 4:33,45.56181234,-93.29487636,50,0,0,50
53029,Island,Washington,US,6/16/20 4:33,48.14713305,-122.5216407,182,11,0,171
51093,Isle of Wight,Virginia,US,6/16/20 4:33,36.90579348,-76.70842863,156,8,0,148
27061,Itasca,Minnesota,US,6/16/20 4:33,47.51009045,-93.63092229,59,12,0,47
28057,Itawamba,Mississippi,US,6/16/20 4:33,34.27993475,-88.3606733,103,8,0,95
5065,Izard,Arkansas,US,6/16/20 4:33,36.09604046,-91.90847954,20,1,0,19
48237,Jack,Texas,US,6/16/20 4:33,33.23377248,-98.17283469,4,0,0,4
46071,Jackson,South Dakota,US,6/16/20 4:33,43.69318385,-101.6255063,5,0,0,5
19097,Jackson,Iowa,US,6/16/20 4:33,42.17178824,-90.57354837,14,0,0,14
5067,Jackson,Arkansas,US,6/16/20 4:33,35.59802983,-91.21494602,16,0,0,16
39079,Jackson,Ohio,US,6/16/20 4:33,39.01914254,-82.6181856,16,0,0,16
47087,Jackson,Tennessee,US,6/16/20 4:33,36.36380466,-85.67239905,20,0,0,20
48239,Jackson,Texas,US,6/16/20 4:33,28.95472367,-96.57749563,21,1,0,20
55053,Jackson,Wisconsin,US,6/16/20 4:33,44.31864893,-90.80566792,21,1,0,20
40065,Jackson,Oklahoma,US,6/16/20 4:33,34.58781741,-99.41138784,30,3,0,27
27063,Jackson,Minnesota,US,6/16/20 4:33,43.67423373,-95.15398258,48,0,0,48
37099,Jackson,North Carolina,US,6/16/20 4:33,35.28814273,-83.14093385,59,1,0,58
21109,Jackson,Kentucky,US,6/16/20 4:33,37.41866422,-83.99825483,63,13,0,50
41029,Jackson,Oregon,US,6/16/20 4:33,42.43201126,-122.7289309,82,0,0,82
20085,Jackson,Kansas,US,6/16/20 4:33,39.41673394,-95.79356799,103,1,0,102
1071,Jackson,Alabama,US,6/16/20 4:33,34.78144169,-85.99750489,122,3,0,119
54035,Jackson,West Virginia,US,6/16/20 4:33,38.84263974,-81.68148753,141,18,0,123
22049,Jackson,Louisiana,US,6/16/20 4:33,32.30251776,-92.55692092,162,15,0,147
13157,Jackson,Georgia,US,6/16/20 4:33,34.13794553,-83.56814788,262,7,0,255
17077,Jackson,Illinois,US,6/16/20 4:33,37.78595185,-89.38232563,317,13,0,304
12063,Jackson,Florida,US,6/16/20 4:33,30.7954597,-85.21500423,320,1,0,319
28059,Jackson,Mississippi,US,6/16/20 4:33,30.54020656,-88.64184064,367,16,0,351
18071,Jackson,Indiana,US,6/16/20 4:33,38.9091582,-86.03851889,419,2,0,417
26075,Jackson,Michigan,US,6/16/20 4:33,42.24807035,-84.42258681,487,30,0,457
29095,Jackson,Missouri,US,6/16/20 4:33,39.01002188,-94.34724536,865,22,0,843
51095,James City,Virginia,US,6/16/20 4:33,37.31156958,-76.76950618,233,15,0,218
48241,Jasper,Texas,US,6/16/20 4:33,30.74685667,-94.02667579,32,1,0,31
17079,Jasper,Illinois,US,6/16/20 4:33,39.01054275,-88.15437049,46,7,0,39
45053,Jasper,South Carolina,US,6/16/20 4:33,32.43171982,-81.02487495,55,3,0,52
13159,Jasper,Georgia,US,6/16/20 4:33,33.31535543,-83.68844964,56,1,0,55
18073,Jasper,Indiana,US,6/16/20 4:33,41.02078733,-87.11553319,84,1,0,83
29097,Jasper,Missouri,US,6/16/20 4:33,37.20351921,-94.34050458,139,0,0,139
28061,Jasper,Mississippi,US,6/16/20 4:33,32.01922104,-89.11786866,197,4,0,193
