County,State,Lat,Long_,Confirmed,Deaths,Recovered
Adair,Iowa,41.33075609,-94.47105874,1,0,0
Adams,Idaho,44.89333571,-116.4545247,1,0,0
Adams,Ohio,38.84541072,-83.4718964,1,0,0
Adams,Wisconsin,43.96974651,-89.76782777,1,0,0
Alpine,California,38.59678594,-119.8223594,1,0,0
Anderson,Texas,31.81534745,-95.65354823,1,0,0
Andrews,Texas,32.30468633,-102.6376548,1,0,0
Antelope,Nebraska,42.17695516,-98.0666283,1,0,0
Appanoose,Iowa,40.74324454,-92.86865906,1,0,0
Archuleta,Colorado,37.19474156,-107.0476867,1,0,0
Arkansas,Arkansas,34.29145151,-91.37277296,1,0,0
Aroostook,Maine,46.65926321,-68.59841248,1,0,0
Ashe,North Carolina,36.43296207,-81.49862729,1,0,0
Ashland,Wisconsin,46.31956891,-90.67837132,1,0,0
Ashley,Arkansas,33.19153461,-91.7698471,1,0,0
Asotin,Washington,46.18894415,-117.2022851,1,0,0
Atchison,Missouri,40.43238737,-95.42970639,1,0,0
Atoka,Oklahoma,34.37366573,-96.03802487,1,0,0
Audubon,Iowa,41.6844628,-94.90581859,1,0,0
Aurora,South Dakota,43.71757685,-98.56050467,1,0,0
Barren,Kentucky,36.96469836,-85.93338945,1,0,0
Barron,Wisconsin,45.42372701,-91.84833627,1,0,0
Barry,Missouri,36.70978521,-93.82919888,1,0,0
Bath,Kentucky,38.14735938,-83.74588932,1,0,0
Baxter,Arkansas,36.28784385,-92.33782872,1,0,0
Beaverhead,Montana,45.13434354,-112.8984694,1,0,0
Beckham,Oklahoma,35.26862449,-99.68128023,1,0,0
Benton,Minnesota,45.69804958,-93.99514135,1,0,0
Big Stone,Minnesota,45.42712824,-96.41403739,1,0,0
Bladen,North Carolina,34.61296243,-78.56180059,1,0,0
Bleckley,Georgia,32.43829035,-83.33035166,1,0,0
Bollinger,Missouri,37.32449052,-90.02725304,1,0,0
Bon Homme,South Dakota,42.98914167,-97.88592746,1,0,0
Boone,Arkansas,36.3084504,-93.09374925,1,0,0
Bracken,Kentucky,38.69158994,-84.08532444,1,0,0
Breathitt,Kentucky,37.52333168,-83.31959161,1,0,0
Bristol,Virginia,36.6163024,-82.16359122,1,0,0
Brunswick,Virginia,36.76366949,-77.8593436,1,0,0
Buena Vista,Virginia,37.73484642,-79.35296097,1,0,0
Butler,Alabama,31.75300095,-86.68057478,1,0,0
Butler,Iowa,42.73172833,-92.79015971,1,0,0
Butler,Kentucky,37.20946153,-86.68748787,1,0,0
Caldwell,Missouri,39.65620858,-93.98308093,1,0,0
Camas,Idaho,43.46665742,-114.8065892,1,0,0
Cameron,Pennsylvania,41.43625568,-78.20376845,1,0,0
Camp,Texas,32.97195142,-94.97790104,1,0,0
Candler,Georgia,32.40209349,-82.07702563,1,0,0
Carbon,Montana,45.22850116,-109.0274047,1,0,0
Carbon,Utah,39.64834818,-110.5872512,1,0,0
Caroline,Virginia,38.02679129,-77.34901405,1,0,0
Carroll,Arkansas,36.3403856,-93.54270261,1,0,0
Carroll,Iowa,42.03617207,-94.86032705,1,0,0
Carroll,Virginia,36.73066666,-80.73455942,1,0,0
Carter,Kentucky,38.31690743,-83.05092385,1,0,0
Carter,Oklahoma,34.25103751,-97.28552485,1,0,0
Cass,Minnesota,46.95043611,-94.32603968,1,0,0
Caswell,North Carolina,36.39312665,-79.33353281,1,0,0
Catron,New Mexico,33.91514144,-108.4046587,1,0,0
Charlotte,Virginia,37.01909701,-78.66314092,1,0,0
Charlton,Georgia,30.78371028,-82.13951596,1,0,0
Cherry,Nebraska,42.54502621,-101.1244332,1,0,0
Chippewa,Michigan,46.29552653,-84.54353449,1,0,0
Chowan,North Carolina,36.12908077,-76.60118385,1,0,0
Claiborne,Mississippi,31.97061673,-90.90702196,1,0,0
Clare,Michigan,43.98794227,-84.8481986,1,0,0
Clark,Missouri,40.41040752,-91.73661677,1,0,0
Clark,South Dakota,44.85834507,-97.72925109,1,0,0
Clay,Kansas,39.34948772,-97.16518128,1,0,0
Clay,Tennessee,36.55151008,-85.53930419,1,0,0
Clay,Texas,33.78686685,-98.20771198,1,0,0
Clinton,Kentucky,36.72581156,-85.13377529,1,0,0
Clinton,Pennsylvania,41.23255967,-77.63785995,1,0,0
Cloud,Kansas,39.48028352,-97.64925343,1,0,0
Cocke,Tennessee,35.9278914,-83.11828725,1,0,0
Colfax,Nebraska,41.57486951,-97.0868542,1,0,0
Columbia,Arkansas,33.21230701,-93.22642793,1,0,0
Columbia,Oregon,45.94464254,-123.0890898,1,0,0
Columbia,Washington,46.29442881,-117.9051983,1,0,0
Conway,Arkansas,35.26205537,-92.70506566,1,1,0
Cook,Georgia,31.16068491,-83.42947229,1,0,0
Coos,New Hampshire,44.69063265,-71.30633239,1,0,0
Covington,Virginia,37.7824656,-79.98631446,1,0,0
Cowley,Kansas,37.23781842,-96.83776647,1,0,0
Crawford,Arkansas,35.58928601,-94.2446814,1,0,0
Crawford,Michigan,44.68255561,-84.61006219,1,0,0
Crawford,Wisconsin,43.23870316,-90.93073686,1,0,0
Crittenden,Kentucky,37.35839237,-88.0882609,1,0,0
Crook,Oregon,44.14230227,-120.356297,1,0,0
Crowley,Colorado,38.32608609,-103.7844965,1,1,0
Cumberland,Illinois,39.27432424,-88.2401158,1,0,0
Cumberland,Kentucky,36.78926125,-85.39050034,1,0,0
Cuming,Nebraska,41.91637624,-96.78730772,1,0,0
Dade,Georgia,34.8549167,-85.50490424,1,1,0
Dawson,Nebraska,40.87028216,-99.8201461,1,0,0
De Witt,Illinois,40.17514519,-88.90959682,1,0,0
DeKalb,Missouri,39.89201062,-94.40476508,1,0,0
Des Moines,Iowa,40.92012606,-91.18326592,1,0,0
Deuel,South Dakota,44.75994309,-96.66943645,1,0,0
Dickinson,Iowa,43.37787725,-95.1510206,1,0,0
Dickinson,Michigan,46.00999672,-87.86961634,1,1,0
Dillon,South Carolina,34.39007791,-79.37741872,1,0,0
Divide,North Dakota,48.8149387,-103.4873611,1,0,0
Dixie,Florida,29.60631086,-83.15724673,1,0,0
Doniphan,Kansas,39.79067154,-95.14056866,1,0,0
Dorchester,Maryland,38.45413522,-76.02752426,1,0,0
Douglas,Minnesota,45.93348491,-95.45335469,1,0,0
Drew,Arkansas,33.59035001,-91.71777921,1,0,0
Duchesne,Utah,40.29772254,-110.425237,1,0,0
Dunn,North Dakota,47.35423935,-102.6160468,1,0,0
East Carroll,Louisiana,32.73926954,-91.23425694,1,0,0
Eddy,North Dakota,47.71701474,-98.90432337,1,0,0
Effingham,Illinois,39.05935711,-88.58969584,1,0,0
Elbert,Georgia,34.11302332,-82.83936148,1,0,0
Emanuel,Georgia,32.59221302,-82.30239915,1,0,0
Emery,Utah,38.99617072,-110.7013958,1,0,0
Fall River,South Dakota,43.23929297,-103.5275691,1,0,0
Falls,Texas,31.25350609,-96.93630086,1,0,0
Faulk,South Dakota,45.07082625,-99.14535601,1,0,0
Fayette,Alabama,33.72076938,-87.73886638,1,0,0
Fentress,Tennessee,36.38128818,-84.92870012,1,0,0
Ferry,Washington,48.4711431,-118.5154041,1,0,0
Ford,Illinois,40.59706922,-88.22350769,1,0,0
Ford,Kansas,37.69200114,-99.88825298,1,0,0
Foster,North Dakota,47.4571084,-98.88279923,1,0,0
Franklin,Florida,29.83791238,-84.82731662,1,0,0
Franklin,Illinois,37.99189086,-88.92567818,1,0,0
Franklin,Texas,33.17653242,-95.21917243,1,0,0
Fremont,Idaho,44.22800938,-111.4809943,1,0,0
Gaines,Texas,32.74055318,-102.6353295,1,0,0
Galax,Virginia,36.66601852,-80.91703124,1,0,0
Garfield,Utah,37.85447192,-111.4418764,1,0,0
Gates,North Carolina,36.44667547,-76.69749701,1,0,0
Gilmer,Georgia,34.69316688,-84.45802506,1,0,0
Glacier,Montana,48.70513576,-112.9934235,1,0,0
Goliad,Texas,28.65696592,-97.42760647,1,0,0
Gonzales,Texas,29.45634206,-97.49424032,1,0,0
Gooding,Idaho,42.96927962,-114.8108306,1,0,0
Gosper,Nebraska,40.51481965,-99.83020279,1,0,0
Gove,Kansas,38.91588178,-100.4829321,1,0,0
Grand,Utah,38.98103848,-109.5704487,1,0,0
Grant,New Mexico,32.73911281,-108.3827845,1,0,0
Grant,North Dakota,46.35821257,-101.6390013,1,0,0
Grant,Oklahoma,36.796297,-97.78638765,1,0,0
Grant,Oregon,44.49024544,-119.0068631,1,0,0
Greene,Arkansas,36.1173546,-90.55832668,1,0,0
Greenlee,Arizona,33.21498827,-109.2405279,1,0,0
Greenup,Kentucky,38.54332505,-82.9215658,1,0,0
Greenwood,Kansas,37.8774388,-96.23250453,1,0,0
Grundy,Iowa,42.40183723,-92.78829551,1,0,0
Guernsey,Ohio,40.05026529,-81.49248905,1,0,0
Gulf,Florida,29.93543004,-85.2427099,1,0,0
Guthrie,Iowa,41.68378965,-94.50111014,1,0,0
Halifax,Virginia,36.76654925,-78.93512622,1,0,0
Hamlin,South Dakota,44.67385954,-97.18829593,1,0,0
Hampton,South Carolina,32.77419582,-81.13845571,1,0,0
Hancock,Kentucky,37.83766422,-86.78280584,1,0,0
Hardee,Florida,27.49293939,-81.80956574,1,0,0
Hardin,Iowa,42.38353877,-93.23654611,1,0,0
Hardin,Ohio,40.66015414,-83.65929931,1,0,0
Hemphill,Texas,35.83764858,-100.2703577,1,0,0
Hempstead,Arkansas,33.73325583,-93.66935133,1,0,0
Henderson,Texas,32.21128872,-95.85846587,1,0,0
Henry,Missouri,38.38482826,-93.79293734,1,1,0
Hickman,Tennessee,35.80609681,-87.47643507,1,0,0
Hill,Montana,48.62879827,-110.1129252,1,0,0
Hinsdale,Colorado,37.82247444,-107.3004345,1,0,0
Holmes,Florida,30.86747479,-85.81319222,1,0,0
Holmes,Ohio,40.56163713,-81.92635677,1,0,0
Howard,Arkansas,34.09007427,-93.9934871,1,0,0
Howard,Iowa,43.35671042,-92.31702714,1,0,0
Howell,Missouri,36.77383887,-91.88683935,1,0,0
Huerfano,Colorado,37.68473101,-104.9612585,1,0,0
Iron,Wisconsin,46.26302338,-90.24295041,1,1,0
Jackson,Kansas,39.41673394,-95.79356799,1,0,0
Jackson,Louisiana,32.30251776,-92.55692092,1,0,0
Jackson,Minnesota,43.67423373,-95.15398258,1,0,0
Jefferson,Florida,30.43669112,-83.89442308,1,0,0
Jersey,Illinois,39.08869046,-90.35393073,1,0,0
Jewell,Kansas,39.78470589,-98.21820662,1,0,0
Johnson,Georgia,32.70211082,-82.66166794,1,0,0
Johnson,Kentucky,37.85106355,-82.8264322,1,0,0
Kane,Utah,37.28507306,-111.8861752,1,0,0
Kearney,Nebraska,40.50663314,-98.94877182,1,0,0
King William,Virginia,37.70965316,-77.09384941,1,0,0
King and Queen,Virginia,37.71044922,-76.88689628,1,0,0
Kiowa,Oklahoma,34.91671958,-98.97720696,1,0,0
Knox,Illinois,40.93148779,-90.2133034,1,0,0
Koochiching,Minnesota,48.24539665,-93.78352843,1,0,0
Kossuth,Iowa,43.20405458,-94.20691791,1,0,0
Lac qui Parle,Minnesota,44.9973857,-96.17488219,1,0,0
Lafayette,Arkansas,33.24116713,-93.60677071,1,0,0
Lake,South Dakota,44.02193107,-97.12926365,1,0,0
Lamb,Texas,34.06859623,-102.3516289,1,0,0
Lampasas,Texas,31.19531316,-98.24206613,1,0,0
Lancaster,Virginia,37.71889653,-76.46400482,1,0,0
Lanier,Georgia,31.0382857,-83.06472457,1,0,0
Las Animas,Colorado,37.3153406,-104.0376458,1,0,0
Latah,Idaho,46.81587887,-116.7113698,1,0,0
Lawrence,Arkansas,36.04188196,-91.10867198,1,0,0
Lawrence,Kentucky,38.07136018,-82.72882223,1,0,0
Le Flore,Oklahoma,34.89851864,-94.70392124,1,0,0
Lee,Arkansas,34.78498904,-90.78383866,1,0,0
Lee,Iowa,40.64181461,-91.48183025,1,0,0
Leelanau,Michigan,44.94430054,-85.80150326,1,0,0
Lewis,Idaho,46.23315327,-116.434146,1,0,0
Liberty,Montana,48.56084317,-111.024307,1,0,0
Lincoln,Colorado,38.98749519,-103.5136649,1,0,0
Lincoln,Minnesota,44.41311883,-96.26688165,1,0,0
Lincoln,Washington,47.57705241,-118.4194388,1,0,0
Lincoln,Wyoming,42.26376367,-110.6563997,1,0,0
Livingston,Missouri,39.78110272,-93.54645978,1,0,0
Logan,Illinois,40.12581572,-89.36638784,1,0,0
Long,Georgia,31.75218791,-81.74952375,1,0,0
Louisa,Iowa,41.21842119,-91.26102611,1,0,0
Luce,Michigan,46.47227431,-85.54471223,1,0,0
Lyman,South Dakota,43.89522709,-99.85201878,1,0,0
Macon,North Carolina,35.14867843,-83.41696617,1,0,0
Madison,Iowa,41.33081904,-94.01554631,1,0,0
Madison,Louisiana,32.36918118,-91.23973355,1,0,0
Mahnomen,Minnesota,47.32557075,-95.80921485,1,0,0
Major,Oklahoma,36.31149996,-98.53467076,1,0,0
Manitowoc,Wisconsin,44.11946801,-87.80928853,1,0,0
Marshall,Illinois,41.0327901,-89.34510444,1,0,0
Marshall,South Dakota,45.75870838,-97.59855639,1,0,0
Martin,Indiana,38.7099921,-86.80373186,1,0,0
Martin,Kentucky,37.79990579,-82.51247478,1,0,0
Martin,Texas,32.30600051,-101.9513518,1,0,0
Mason,Illinois,40.23917274,-89.91824452,1,0,0
Mason,Texas,30.71780434,-99.22629416,1,0,0
Massac,Illinois,37.22078441,-88.71036614,1,0,0
McCormick,South Carolina,33.90161443,-82.30794338,1,0,0
McCreary,Kentucky,36.73874143,-84.48102924,1,0,0
McCurtain,Oklahoma,34.11664328,-94.77222373,1,0,0
McHenry,North Dakota,48.23104458,-100.6324822,1,1,0
McIntosh,North Dakota,46.11182017,-99.44145858,1,0,0
McKean,Pennsylvania,41.80938602,-78.56478358,1,0,0
McLean,Kentucky,37.5301951,-87.26803443,1,0,0
McLeod,Minnesota,44.82367677,-94.27287017,1,0,0
Meade,South Dakota,44.56676791,-102.7162741,1,0,0
Meagher,Montana,46.59907074,-110.8898557,1,0,0
Meeker,Minnesota,45.12328869,-94.52839455,1,0,0
Menard,Illinois,40.02742725,-89.80246001,1,0,0
Menominee,Wisconsin,45.00422544,-88.70950714,1,0,0
Mercer,Illinois,41.20596782,-90.74290052,1,0,0
Mills,Iowa,41.03299766,-95.61920963,1,0,0
Minidoka,Idaho,42.85518524,-113.6357257,1,0,0
Missaukee,Michigan,44.33772443,-85.09256478,1,1,0
Mississippi,Arkansas,35.76271485,-90.0519437,1,0,0
Monroe,Arkansas,34.6815935,-91.20540287,1,0,0
Montague,Texas,33.67521893,-97.72500958,1,0,0
Montgomery,Iowa,41.03018714,-95.15642896,1,0,0
Morgan,Missouri,38.4181765,-92.88791859,1,0,0
Morgan,West Virginia,39.55439028,-78.26311676,1,0,0
Morris,Texas,33.11304005,-94.73255695,1,0,0
Moultrie,Illinois,39.64187451,-88.62099969,1,0,0
Musselshell,Montana,46.49684637,-108.39498,1,0,0
Nemaha,Nebraska,40.38514847,-95.85433992,1,0,0
Neosho,Kansas,37.55862897,-95.30670046,1,0,0
Nevada,Arkansas,33.66340119,-93.30632432,1,0,0
New Madrid,Missouri,36.59666326,-89.66070007,1,0,0
Newton,Arkansas,35.91947491,-93.21612969,1,0,0
Newton,Indiana,40.95610449,-87.39635768,1,0,0
Newton,Texas,30.78548982,-93.74408813,1,0,0
Nicholas,Kentucky,38.33342292,-84.01889177,1,0,0
Nodaway,Missouri,40.36079813,-94.88133008,1,0,0
Nottoway,Virginia,37.1435975,-78.05065922,1,0,0
Oconto,Wisconsin,45.02715345,-88.26807503,1,0,0
Oglethorpe,Georgia,33.8786296,-83.08278123,1,1,0
Ohio,Indiana,38.955305,-84.96515993,1,0,0
Ohio,Kentucky,37.47751843,-86.85368087,1,0,0
Oliver,North Dakota,47.11530482,-101.3406158,1,0,0
Otoe,Nebraska,40.64843556,-96.13374142,1,0,0
Otter Tail,Minnesota,46.40846929,-95.70835255,1,0,0
Ouachita,Arkansas,33.58839816,-92.87795984,1,0,0
Palo Pinto,Texas,32.75310985,-98.31319001,1,0,0
Park,Wyoming,44.52157546,-109.5852825,1,0,0
Pend Oreille,Washington,48.53234021,-117.2741804,1,0,0
Pender,North Carolina,34.52265624,-77.90352133,1,0,0
Pendleton,Kentucky,38.69607718,-84.35599463,1,0,0
Pendleton,West Virginia,38.68314479,-79.35084086,1,0,0
Perquimans,North Carolina,36.17847453,-76.40603143,1,0,0
Perry,Arkansas,34.9459153,-92.94372564,1,0,0
Petersburg,Alaska,57.13978948,-132.9540995,1,0,0
Piatt,Illinois,40.01360584,-88.59319339,1,0,0
Pike,Arkansas,34.16250414,-93.65789349,1,0,0
Pike,Illinois,39.62265059,-90.8877017,1,0,0
Pike,Kentucky,37.47088263,-82.39487445,1,0,0
Pike,Ohio,39.07634001,-83.06769584,1,0,0
Pleasants,West Virginia,39.37091679,-81.16771771,1,0,0
Polk,Minnesota,47.77372465,-96.40134647,1,0,0
Powell,Kentucky,37.83218794,-83.82553961,1,0,0
Prairie,Arkansas,34.83624419,-91.55162157,1,0,0
Pratt,Kansas,37.64780729,-98.73922153,1,0,0
Pulaski,Virginia,37.06474963,-80.71229738,1,0,0
Quitman,Georgia,31.86728114,-85.01773177,1,0,0
Radford,Virginia,37.12222899,-80.5602732,1,0,0
Ralls,Missouri,39.52817427,-91.51838643,1,0,0
Randolph,Arkansas,36.3415714,-91.02455531,1,0,0
Reeves,Texas,31.32323325,-103.6903896,1,0,0
Rio Blanco,Colorado,39.97913541,-108.2179009,1,0,0
Rockcastle,Kentucky,37.36642393,-84.31176452,1,0,0
Roosevelt,Montana,48.29607488,-105.0079268,1,0,0
Roosevelt,New Mexico,34.02097406,-103.4799493,1,0,0
Rusk,Wisconsin,45.47498854,-91.1333012,1,0,0
Russell,Kentucky,36.99308373,-85.06070117,1,0,0
Salem,Virginia,37.2836193,-80.06219455,1,0,0
Saline,Illinois,37.75332999,-88.54119706,1,0,0
San Jacinto,Texas,30.57933681,-95.16260304,1,0,0
San Miguel,New Mexico,35.48014807,-104.8163562,1,0,0
Scott,Arkansas,34.85588887,-94.0632176,1,0,0
Sevier,Arkansas,33.99780401,-94.2424869,1,0,0
Sharp,Arkansas,36.16258158,-91.47819342,1,0,0
Shelby,Missouri,39.79742518,-92.07634971,1,0,0
Sibley,Minnesota,44.5796592,-94.23164924,1,0,0
Sioux,North Dakota,46.11323337,-101.0440149,1,0,0
Skamania,Washington,46.02408726,-121.9164403,1,0,0
Slope,North Dakota,46.44737738,-103.4601547,1,0,0
Southeast Fairbanks,Alaska,63.87692095,-143.2127643,1,0,0
Spencer,Indiana,38.01519732,-87.0079644,1,0,0
St. Francis,Arkansas,35.02201976,-90.74828138,1,0,0
Stafford,Kansas,38.03100851,-98.71762001,1,0,0
Staunton,Virginia,38.15965544,-79.05979937,1,0,0
Stevens,Kansas,37.1923008,-101.3118967,1,0,0
Stewart,Georgia,32.07996777,-84.83208037,1,0,0
Stewart,Tennessee,36.50235092,-87.83920548,1,0,0
Sublette,Wyoming,42.76558279,-109.9130922,1,0,0
Sullivan,Pennsylvania,41.44634738,-76.51246591,1,0,0
Swain,North Carolina,35.48665845,-83.48748932,1,0,0
Swisher,Texas,34.53028891,-101.7349174,1,0,0
Taylor,Iowa,40.73710579,-94.69778563,1,0,0
Tehama,California,40.12570935,-122.2370171,1,0,0
Texas,Missouri,37.31728859,-91.96564727,1,0,0
Texas,Oklahoma,36.74777635,-101.4889765,1,0,0
Tillman,Oklahoma,34.37288446,-98.92426619,1,0,0
Tishomingo,Mississippi,34.74023475,-88.23917219,1,0,0
Titus,Texas,33.21339719,-94.96797273,1,0,0
Todd,South Dakota,43.19338568,-100.7195503,1,0,0
Towns,Georgia,34.91369188,-83.7410746,1,0,0
Trempealeau,Wisconsin,44.30360275,-91.35893614,1,0,0
Uintah,Utah,40.12491499,-109.5174415,1,0,0
Unicoi,Tennessee,36.10890856,-82.43709629,1,0,0
Union,Georgia,34.82995757,-83.98967069,1,0,0
Union,Tennessee,36.28590426,-83.83651902,1,0,0
Upshur,West Virginia,38.89285061,-80.23689136,1,0,0
Wabash,Indiana,40.84704239,-85.79328272,1,0,0
Wahkiakum,Washington,46.2918004,-123.4250831,1,0,0
Wallowa,Oregon,45.57894064,-117.183538,1,0,0
Walsh,North Dakota,48.36876964,-97.72574783,1,0,0
Wapello,Iowa,41.03064984,-92.40954728,1,0,0
Warren,North Carolina,36.39728256,-78.10652228,1,0,0
Warren,Pennsylvania,41.81304978,-79.26969577,1,0,0
Warren,Tennessee,35.6728299,-85.77969117,1,0,0
Washington,Colorado,39.97015535,-103.202587,1,0,0
Washington,Florida,30.61359259,-85.66002461,1,0,0
Washington,Idaho,44.45275475,-116.7847688,1,0,0
Washington,Illinois,38.35309213,-89.40982703,1,0,0
Washington,Maine,45.01607142,-67.62813524,1,0,0
Weakley,Tennessee,36.29896232,-88.71990865,1,0,0
Webster,Georgia,32.04066113,-84.54742852,1,0,0
Webster,Iowa,42.42853483,-94.17987389,1,0,0
Wheeler,Georgia,32.12009104,-82.72574721,1,0,0
White Pine,Nevada,39.44157041,-114.899966,1,0,0
Williams,Ohio,41.56052014,-84.58429552,1,0,0
Wirt,West Virginia,39.02775007,-81.37473928,1,0,0
Wood,Texas,32.78722382,-95.38236368,1,0,0
Woodruff,Arkansas,35.18902527,-91.2439489,1,0,0
Woodward,Oklahoma,36.42316318,-99.26283045,1,0,0
Wright,Iowa,42.73305373,-93.73515113,1,0,0
Yates,New York,42.63505484,-77.10369919,1,0,0
Yellow Medicine,Minnesota,44.71710183,-95.86842453,1,0,0
York,Nebraska,40.87272618,-97.59710186,1,0,0
Yukon-Koyukuk,Alaska,65.50815459,-151.3907387,1,0,0
Adams,Indiana,40.7457653,-84.93671406,2,0,0
Alexander,North Carolina,35.9223796,-81.17751948,2,0,0
Alleghany,North Carolina,36.49360862,-81.12857041,2,0,0
Alleghany,Virginia,37.78636074,-80.00222498,2,0,0
Allen,Kentucky,36.75197631,-86.19457544,2,0,0
Allendale,South Carolina,32.98837386,-81.35321066,2,0,0
Atascosa,Texas,28.89333001,-98.52730485,2,0,0
Atchison,Kansas,39.53185661,-95.30870026,2,0,0
Barbour,Alabama,31.868263,-85.3871286,2,0,0
Barbour,West Virginia,39.1307219,-80.00350858,2,0,0
Barnes,North Dakota,46.93579637,-98.06605978,2,0,0
Barnwell,South Carolina,33.26679302,-81.43584352,2,0,0
Bingham,Idaho,43.2167288,-112.3978437,2,0,0
Blackford,Indiana,40.47388153,-85.32499702,2,0,0
Blanco,Texas,30.26640707,-98.3999852,2,0,0
Bledsoe,Tennessee,35.59942968,-85.20611967,2,0,0
Bonner,Idaho,48.29996017,-116.6017932,2,0,0
Boone,Iowa,42.03657094,-93.9313999,2,0,0
Bremer,Iowa,42.77461496,-92.31795937,2,0,0
Buffalo,Wisconsin,44.37835084,-91.75332578,2,0,0
Bullock,Alabama,32.10030533,-85.71265535,2,0,0
Burke,North Dakota,48.79094471,-102.5182117,2,0,0
Burleson,Texas,30.49273808,-96.62158484,2,0,0
Butler,Missouri,36.71462476,-90.40421163,2,0,0
Campbell,Virginia,37.20553386,-79.09678609,2,0,0
Carroll,Kentucky,38.66599534,-85.12601074,2,0,0
Cass,Nebraska,40.90899107,-96.13971217,2,0,0
Charles Mix,South Dakota,43.20660134,-98.58856175,2,0,0
Chattahoochee,Georgia,32.34341231,-84.78809239,2,0,0
Cherokee,South Carolina,35.05122251,-81.61828622,2,0,0
Chicot,Arkansas,33.26458973,-91.29539209,2,0,0
Choctaw,Oklahoma,34.02807439,-95.54771129,2,0,0
Claiborne,Tennessee,36.48319149,-83.65947309,2,0,0
Clark,Illinois,39.33425789,-87.78705622,2,0,0
Clarke,Virginia,39.11271747,-77.99199425,2,0,0
Clay,Iowa,43.08247182,-95.15096481,2,0,0
Clearwater,Minnesota,47.57992111,-95.37790562,2,0,0
Clinch,Georgia,30.91395822,-82.70432472,2,0,0
Colorado,Texas,29.622098,-96.5273805,2,0,0
Colusa,California,39.17881957,-122.2331726,2,0,0
Comanche,Texas,31.94854689,-98.55876441,2,0,0
Conecuh,Alabama,31.43401703,-86.99320044,2,0,0
Cooper,Missouri,38.844478,-92.80896081,2,0,0
Crane,Texas,31.43052248,-102.5143314,2,0,0
Crawford,Illinois,39.0032229,-87.75954624,2,0,0
Crawford,Missouri,37.97663738,-91.30528104,2,0,0
Crenshaw,Alabama,31.72941803,-86.31593104,2,0,0
Cumberland,Virginia,37.51328851,-78.24398086,2,0,0
Currituck,North Carolina,36.36123664,-75.95876401,2,0,0
Custer,Colorado,38.10883162,-105.3683478,2,0,0
Custer,Idaho,44.24186819,-114.2855494,2,0,0
Dale,Alabama,31.43037123,-85.61095742,2,0,0
Del Norte,California,41.74228275,-123.8974063,2,0,0
Desha,Arkansas,33.83011025,-91.25500948,2,0,0
Door,Wisconsin,44.95856458,-87.30002707,2,0,0
Emporia,Virginia,36.69455571,-77.53406129,2,0,0
Escambia,Alabama,31.1256789,-87.15918694,2,0,0
Fannin,Texas,33.59564294,-96.10751083,2,0,0
Fayette,Illinois,39.00072038,-89.02452658,2,0,0
Fayette,Ohio,39.56021306,-83.4562016,2,0,0
Forest,Pennsylvania,41.51095103,-79.23229292,2,0,0
Fountain,Indiana,40.12361933,-87.24217689,2,1,0
Fremont,Colorado,38.47362326,-105.4399667,2,0,0
Fulton,Indiana,41.0469907,-86.26252745,2,0,0
Gage,Nebraska,40.26186809,-96.68946704,2,1,0
Gasconade,Missouri,38.43947277,-91.50847147,2,0,0
Gillespie,Texas,30.31824095,-98.94676915,2,0,0
Glenn,California,39.59875897,-122.3938452,2,0,0
Goshen,Wyoming,42.08798185,-104.3534743,2,0,0
Grant,Kentucky,38.64962758,-84.62415957,2,1,0
Grant,Wisconsin,42.8671731,-90.7063218,2,0,0
Graves,Kentucky,36.72292505,-88.65143315,2,0,0
Grayson,Kentucky,37.46231118,-86.34248968,2,0,0
Greene,Virginia,38.29545894,-78.46525378,2,0,0
Habersham,Georgia,34.63331566,-83.53094677,2,0,0
Hamilton,New York,43.66146647,-74.49721957,2,0,0
Hancock,Maine,44.59816444,-68.38401854,2,0,0
Hardin,Tennessee,35.19732531,-88.18593755,2,0,0
Hardy,West Virginia,39.00683177,-78.85855301,2,0,0
Harrison,Missouri,40.35570088,-93.99222144,2,0,0
Harvey,Kansas,38.04293782,-97.42747573,2,0,0
Haywood,North Carolina,35.55269063,-82.98196486,2,0,0
Haywood,Tennessee,35.58332824,-89.28536625,2,0,0
Heard,Georgia,33.29686567,-85.12886832,2,1,0
Henry,Alabama,31.51148016,-85.24267944,2,0,0
Henry,Kentucky,38.44942688,-85.11587507,2,0,0
Houghton,Michigan,46.89988536,-88.68495385,2,0,0
Houston,Tennessee,36.28872054,-87.71878828,2,0,0
Hutchinson,South Dakota,43.33449012,-97.75536441,2,0,0
Hutchinson,Texas,35.84006574,-101.3546643,2,0,0
Idaho,Idaho,45.84721541,-115.4634436,2,0,0
Iosco,Michigan,44.35486835,-83.63484895,2,1,0
Itasca,Minnesota,47.51009045,-93.63092229,2,0,0
Jackson,North Carolina,35.28814273,-83.14093385,2,0,0
Jackson,Wisconsin,44.31864893,-90.80566792,2,0,0
Jasper,Georgia,33.31535543,-83.68844964,2,0,0
Jasper,Illinois,39.01054275,-88.15437049,2,0,0
Jay,Indiana,40.43781032,-85.00576229,2,0,0
Jefferson,Georgia,33.05867328,-82.41609057,2,0,0
Jefferson,Kansas,39.2347941,-95.38289232,2,0,0
Jefferson,Mississippi,31.73397872,-91.03764977,2,0,0
Jefferson,Montana,46.14907081,-112.094396,2,0,0
Jenkins,Georgia,32.79248718,-81.96040187,2,0,0
Jim Wells,Texas,27.73103938,-98.0904705,2,0,0
Johnson,Tennessee,36.4552395,-81.84886538,2,0,0
Kandiyohi,Minnesota,45.1526059,-95.00586446,2,0,0
Karnes,Texas,28.90705334,-97.85960149,2,0,0
Keokuk,Iowa,41.33649833,-92.1785067,2,0,0
Kerr,Texas,30.06040006,-99.34930144,2,0,0
Kleberg,Texas,27.42435506,-97.69894948,2,0,0
Knox,Nebraska,42.63758421,-97.89178836,2,0,0
La Paz,Arizona,33.72854224,-113.9810029,2,0,0
Lamar,Alabama,33.77995024,-88.09668032,2,0,0
Lauderdale,Tennessee,35.75893438,-89.6301591,2,0,0
Laurel,Kentucky,37.10975748,-84.11321779,2,0,0
Lavaca,Texas,29.38508402,-96.93186692,2,0,0
Lea,New Mexico,32.79215361,-103.4123733,2,0,0
Lee,Illinois,41.74583951,-89.29977132,2,0,0
Lee,Texas,30.31120597,-96.97045773,2,0,0
Lee,Virginia,36.70586667,-83.12606515,2,0,0
Leon,Texas,31.29872538,-95.9936328,2,0,0
Levy,Florida,29.31829741,-82.74007147,2,0,0
Lewis,Kentucky,38.53184419,-83.37735618,2,0,0
Lewis,New York,43.7844157,-75.44903992,2,0,0
Lewis,Tennessee,35.52853208,-87.49022694,2,0,0
Love,Oklahoma,33.95273467,-97.23906784,2,0,0
Lyon,Iowa,43.38107862,-96.20926845,2,0,0
Mackinac,Michigan,46.07028979,-85.04980537,2,0,0
Madison,Virginia,38.41531222,-78.28220331,2,0,0
Malheur,Oregon,43.1937027,-117.6227395,2,0,0
Manassas Park,Virginia,38.77058531,-77.44399307,2,0,0
Maries,Missouri,38.16193985,-91.92249662,2,0,0
Marinette,Wisconsin,45.38553432,-88.033246,2,0,0
Marion,Georgia,32.3483402,-84.52733571,2,0,0
Marion,Kansas,38.35855394,-97.0985251,2,0,0
Marion,South Carolina,34.07859748,-79.36400756,2,1,0
Marquette,Wisconsin,43.81911946,-89.40073763,2,0,0
Marshall,Kentucky,36.8800707,-88.32803576,2,0,0
Mason,Kentucky,38.59471935,-83.82151043,2,0,0
Mathews,Virginia,37.44164146,-76.34098896,2,0,0
McCook,South Dakota,43.6742571,-97.36863144,2,0,0
McDonald,Missouri,36.62869595,-94.34867205,2,0,0
McIntosh,Georgia,,,2,0,0
McKenzie,North Dakota,47.7413337,-103.395905,2,0,0
McLean,North Dakota,47.60766714,-101.3182418,2,0,0
Meade,Kentucky,37.96163597,-86.21028219,2,0,0
Meigs,Tennessee,35.51558739,-84.81482914,2,0,0
Merrick,Nebraska,41.16624273,-98.0374887,2,0,0
Miami,Kansas,38.56383358,-94.83832189,2,0,0
Milam,Texas,30.7858183,-96.97718698,2,0,0
Mineral,Colorado,37.66954283,-106.9281698,2,0,0
Mineral,West Virginia,39.41561583,-78.94104895,2,0,0
Mitchell,Iowa,43.35638371,-92.78887719,2,0,0
Mitchell,Kansas,39.39331582,-98.20906732,2,0,0
Mitchell,North Carolina,36.01059309,-82.1582442,2,0,0
Moniteau,Missouri,38.63571781,-92.57976951,2,0,0
Montgomery,Illinois,39.23198845,-89.47809254,2,0,0
Morgan,Georgia,33.59232073,-83.49129491,2,0,0
Morris,Kansas,38.68827511,-96.65128437,2,0,0
Morrow,Oregon,45.41846568,-119.584546,2,0,0
Nelson,Virginia,37.78790447,-78.88498513,2,0,0
Newaygo,Michigan,43.554374,-85.80070107,2,0,0
Northampton,Virginia,37.34062933,-75.87751591,2,0,0
Obion,Tennessee,36.35732446,-89.14921589,2,1,0
Ogemaw,Michigan,44.33481032,-84.12725175,2,0,0
Oldham,Texas,35.40425596,-102.6027606,2,1,0
Osage,Missouri,38.46036182,-91.8613635,2,0,0
Osborne,Kansas,39.3503437,-98.76753828,2,0,0
Oscoda,Michigan,44.68192279,-84.12939244,2,0,0
Otero,New Mexico,32.61348406,-105.7417604,2,0,0
Ottawa,Kansas,39.13237408,-97.65020313,2,0,0
Out of HI,Hawaii,,,2,0,0
Out of OK,Oklahoma,,,2,0,0
Overton,Tennessee,36.34117832,-85.28989535,2,0,0
Owyhee,Idaho,42.58016894,-116.1693871,2,0,0
Page,Virginia,38.61807452,-78.48797204,2,0,0
Parke,Indiana,39.77202286,-87.20375833,2,0,0
Pettis,Missouri,38.72798918,-93.28471706,2,0,0
Phillips,Colorado,40.59414277,-102.3577703,2,0,0
Pierce,North Dakota,48.24977025,-99.96407787,2,0,0
Pike,Missouri,39.34310674,-91.16980779,2,0,0
Pittsylvania,Virginia,36.81980341,-79.39731264,2,0,0
Plumas,California,40.00355989,-120.8395236,2,0,0
Pottawatomie,Kansas,39.37925655,-96.34564657,2,0,0
Putnam,Georgia,33.32056115,-83.37552891,2,0,0
Rabun,Georgia,34.88389445,-83.40304637,2,0,0
Ravalli,Montana,46.08520862,-114.1189164,2,0,0
Red River,Louisiana,32.09530039,-93.34213308,2,0,0
Renville,Minnesota,44.72836381,-94.94553734,2,0,0
Reynolds,Missouri,37.36085952,-90.97009925,2,0,0
Richland,Wisconsin,43.3762778,-90.43012729,2,0,0
Ripley,Missouri,36.65460667,-90.85990261,2,0,0
Roane,West Virginia,38.71622686,-81.35243568,2,0,0
Robertson,Texas,31.02539637,-96.51272246,2,0,0
Roscommon,Michigan,44.33473082,-84.61067651,2,0,0
Saline,Missouri,39.13734288,-93.20259964,2,0,0
Sampson,North Carolina,34.98820368,-78.36914061,2,0,0
Scotland,North Carolina,34.8386299,-79.4757978,2,0,0
Screven,Georgia,32.74976524,-81.60779441,2,0,0
Searcy,Arkansas,35.9109364,-92.69936482,2,0,0
Seminole,Oklahoma,35.16478725,-96.61686741,2,0,0
Sequatchie,Tennessee,35.36979721,-85.41022136,2,0,0
Sharkey,Mississippi,32.88149103,-90.8159538,2,0,0
Smyth,Virginia,36.84455636,-81.53344948,2,0,0
Spencer,Kentucky,38.03223971,-85.32749335,2,0,0
Spink,South Dakota,44.93837606,-98.34626602,2,0,0
Starke,Indiana,41.27890281,-86.64686895,2,0,0
Stone,Missouri,36.75000327,-93.45256475,2,0,0
Sumner,Kansas,37.23682549,-97.47721621,2,0,0
Tallahatchie,Mississippi,33.95339918,-90.1729398,2,0,0
Taylor,Georgia,32.55792548,-84.25077141,2,0,0
Taylor,Kentucky,37.3677562,-85.3329931,2,0,0
Tazewell,Virginia,37.12191123,-81.56685568,2,0,0
Traverse,Minnesota,45.77298854,-96.47062949,2,0,0
Trinity,Texas,31.0879489,-95.1367187,2,0,0
Tuolumne,California,38.02644018,-119.9525093,2,0,0
Twiggs,Georgia,32.67435595,-83.43078662,2,0,0
Tyler,Texas,30.77031716,-94.37690895,2,0,0
Uinta,Wyoming,41.2878183,-110.5475782,2,0,0
Union,Indiana,39.62550777,-84.92497066,2,0,0
Union,Kentucky,37.66166713,-87.94300009,2,0,0
Van Wert,Ohio,40.8554138,-84.591117,2,0,0
Vermillion,Indiana,39.8523352,-87.46160542,2,0,0
Warren,Indiana,40.34728141,-87.35602659,2,1,0
Washakie,Wyoming,43.90451606,-107.680187,2,0,0
Washington,Kentucky,37.75599461,-85.17407732,2,0,0
Waupaca,Wisconsin,44.47068056,-88.96534501,2,1,0
Wayne,Mississippi,31.64135687,-88.69573913,2,0,0
Wayne,Tennessee,35.23868267,-87.78644456,2,0,0
Waynesboro,Virginia,38.06451466,-78.90293905,2,0,0
Wells,Indiana,40.72934187,-85.22132966,2,0,0
Westmoreland,Virginia,38.11021557,-76.80213247,2,0,0
Wetzel,West Virginia,39.6065771,-80.6401654,2,0,0
White,Tennessee,35.92929884,-85.45591799,2,0,0
Wilcox,Georgia,31.97496928,-83.43438555,2,0,0
Wilkin,Minnesota,46.35721532,-96.4684375,2,0,0
Wilkinson,Georgia,32.80291082,-83.17140684,2,0,0
Winn,Louisiana,31.94449367,-92.63789413,2,0,0
Wood,Wisconsin,44.45537896,-90.04158336,2,0,0
Wythe,Virginia,36.91582035,-81.07834059,2,0,0
Yuma,Colorado,40.00346839,-102.4258673,2,0,0
Adair,Kentucky,37.10459774,-85.28129668,3,0,0
Adams,Illinois,39.98815591,-91.18786813,3,0,0
Allegany,Maryland,39.62357628,-78.69280486,3,0,0
Amador,California,38.44583082,-120.65696,3,0,0
Anderson,Kentucky,38.00671029,-84.99171713,3,1,0
Anson,North Carolina,34.97403241,-80.09953279,3,0,0
Arenac,Michigan,44.0636262,-83.89277559,3,0,0
Ashland,Ohio,40.84772277,-82.27280781,3,0,0
Athens,Ohio,39.33425634,-82.04278644,3,1,0
Banks,Georgia,34.35607081,-83.49644388,3,0,0
Barton,Kansas,38.47889676,-98.75636726,3,0,0
Bates,Missouri,38.25271289,-94.34113157,3,0,0
Bayfield,Wisconsin,46.52868768,-91.19716729,3,0,0
Benton,Missouri,38.29503305,-93.28756116,3,0,0
Berrien,Georgia,31.27590016,-83.2252992,3,0,0
Bond,Illinois,38.88829622,-89.43534887,3,0,0
Bourbon,Kansas,37.85508555,-94.84865997,3,0,0
Brookings,South Dakota,44.36974375,-96.79079945,3,0,0
Brown,Minnesota,44.24205652,-94.72562874,3,0,0
Brown,Ohio,38.93416837,-83.86788395,3,1,0
Bryan,Oklahoma,33.96472458,-96.25903472,3,0,0
Buchanan,Iowa,42.4709188,-91.83510825,3,0,0
Bureau,Illinois,41.40385234,-89.5283051,3,0,0
Caldwell,Kentucky,37.14749129,-87.86948214,3,0,0
Caldwell,Louisiana,32.0902519,-92.11752148,3,0,0
Caldwell,Texas,29.83668859,-97.61814775,3,0,0
Calhoun,Florida,30.40666734,-85.19394153,3,0,0
Calumet,Wisconsin,44.0816316,-88.21780273,3,0,0
Carroll,Indiana,40.5807832,-86.56198812,3,0,0
Carter,Missouri,36.94160441,-90.96051322,3,0,0
Carter,Tennessee,36.28969086,-82.12588974,3,0,0
Chattooga,Georgia,34.47197698,-85.34535662,3,0,0
Chautauqua,Kansas,37.14994405,-96.2454192,3,0,0
Clay,Indiana,39.39561833,-87.11723506,3,0,0
Clay,North Carolina,35.05704275,-83.74353633,3,0,0
Clay,South Dakota,42.91296147,-96.97656917,3,0,0
Clayton,Iowa,42.84443388,-91.34133693,3,0,0
Clinton,Indiana,40.30319754,-86.47277257,3,0,0
Converse,Wyoming,42.97272268,-105.5081848,3,0,0
Costilla,Colorado,37.27732493,-105.4276548,3,0,0
Craig,Oklahoma,36.76268118,-95.20916602,3,0,0
Davison,South Dakota,43.67490933,-98.14458906,3,0,0
DeKalb,Indiana,41.39804622,-84.99906934,3,0,0
Deaf Smith,Texas,34.96522957,-102.6054267,3,0,0
Deer Lodge,Montana,46.05953325,-113.073353,3,0,0
Eastland,Texas,32.32743996,-98.83243566,3,0,0
Faribault,Minnesota,43.67381499,-93.94787458,3,0,0
Fayette,Iowa,42.86271799,-91.8441231,3,0,0
Garrett,Maryland,39.52786077,-79.27355126,3,0,0
Gila,Arizona,33.80190085,-110.8132779,3,0,0
Giles,Tennessee,35.20222469,-87.03992678,3,0,0
Gladwin,Michigan,43.98901072,-84.38774817,3,0,0
Gogebic,Michigan,46.40862701,-89.69377193,3,1,0
Grady,Georgia,30.87454847,-84.23418364,3,0,0
Graham,Arizona,32.93166885,-109.8882178,3,0,0
Grainger,Tennessee,36.27469206,-83.51254721,3,0,0
Grant,Arkansas,34.29017991,-92.42320562,3,0,0
Grays Harbor,Washington,47.14003705,-123.7820567,3,0,0
Greenbrier,West Virginia,37.9463652,-80.45335881,3,0,0
Grimes,Texas,30.54579585,-95.98902499,3,0,0
Hale,Alabama,32.76039258,-87.63284988,3,0,0
Hancock,Iowa,43.08178477,-93.73454884,3,0,0
Hart,Georgia,34.34626973,-82.96567682,3,0,0
Henry,Virginia,36.68542395,-79.87634026,3,0,0
Hood River,Oregon,45.51872811,-121.6552036,3,0,0
Hopkins,Texas,33.14875072,-95.56351139,3,0,0
Hughes,South Dakota,44.39091534,-99.99661148,3,0,0
Humphreys,Tennessee,36.03958805,-87.77992872,3,0,0
Independence,Arkansas,35.74242707,-91.57001641,3,0,0
Iowa,Wisconsin,43.00050278,-90.13469017,3,0,0
Isanti,Minnesota,45.56181234,-93.29487636,3,0,0
Itawamba,Mississippi,34.27993475,-88.3606733,3,0,0
Jackson,Iowa,42.17178824,-90.57354837,3,0,0
Jackson,Tennessee,36.36380466,-85.67239905,3,0,0
Jackson,Texas,28.95472367,-96.57749563,3,0,0
Jasper,Mississippi,32.01922104,-89.11786866,3,0,0
Jasper,Texas,30.74685667,-94.02667579,3,0,0
Jefferson,Idaho,43.82078483,-112.3131749,3,0,0
Jefferson,Iowa,41.03192394,-91.94849466,3,0,0
Kingfisher,Oklahoma,35.94530008,-97.94193268,3,0,0
Lake,Colorado,39.20278823,-106.3555697,3,0,0
Larue,Kentucky,37.54567114,-85.70138352,3,0,0
Lawrence,Tennessee,35.21675201,-87.39787695,3,0,0
Lee,North Carolina,35.47623147,-79.17569362,3,0,0
Lexington,Virginia,37.78258621,-79.44262866,3,0,0
Limestone,Texas,31.5454767,-96.58095444,3,1,0
Live Oak,Texas,28.35101362,-98.1246786,3,0,0
Llano,Texas,30.70645047,-98.68475262,3,0,0
Logan,Ohio,40.38996525,-83.76784341,3,0,0
Lowndes,Alabama,32.1597283,-86.65158371,3,0,0
Lynn,Texas,33.17657705,-101.8162849,3,0,0
Lyon,Minnesota,44.41327865,-95.83806103,3,0,0
Lyon,Nevada,39.01777974,-119.1870479,3,0,0
Macon,Missouri,39.83049768,-92.56453089,3,0,0
Mahaska,Iowa,41.33521503,-92.64083907,3,0,0
Marion,Illinois,38.64963204,-88.91899208,3,0,0
Marion,Kentucky,37.55218078,-85.26898542,3,0,0
Marlboro,South Carolina,34.59905577,-79.67561152,3,0,0
Martin,North Carolina,35.84326734,-77.10860251,3,0,0
McMinn,Tennessee,35.42812616,-84.61520715,3,0,0
McNairy,Tennessee,35.17468549,-88.5647812,3,0,0
Medina,Texas,29.3557301,-99.11030298,3,0,0
Menifee,Kentucky,37.94090733,-83.59985712,3,0,0
Mercer,Kentucky,37.81474237,-84.87488475,3,0,0
Mercer,West Virginia,37.40481169,-81.11023142,3,0,0
Moffat,Colorado,40.61810999,-108.2070876,3,0,0
Monroe,Wisconsin,43.94641218,-90.618819,3,0,0
Montezuma,Colorado,37.33859579,-108.5958857,3,1,0
Morrow,Ohio,40.5236356,-82.7892599,3,0,0
Northumberland,Virginia,37.89202088,-76.41949732,3,0,0
O'Brien,Iowa,43.08310673,-95.62474482,3,0,0
Oceana,Michigan,43.64124435,-86.26726673,3,0,0
Okeechobee,Florida,27.3863362,-80.88944347,3,0,0
Oneida,Wisconsin,45.70677897,-89.51944105,3,0,0
Osage,Kansas,38.65235984,-95.72707998,3,0,0
Otero,Colorado,37.9014485,-103.7173385,3,0,0
Page,Iowa,40.7393172,-95.1497813,3,0,0
Pamlico,North Carolina,35.15253315,-76.66559823,3,0,0
Pemiscot,Missouri,36.2130572,-89.78742322,3,0,0
Perry,Kentucky,37.25023553,-83.22922731,3,0,0
Perry,Ohio,39.73508655,-82.23804971,3,0,0
Perry,Tennessee,35.63708728,-87.86139634,3,0,0
Pittsburg,Oklahoma,34.92065823,-95.7513432,3,0,0
Plymouth,Iowa,42.737633,-96.21366621,3,0,0
Polk,Tennessee,35.12245443,-84.52075859,3,0,0
Poquoson,Virginia,37.14259351,-76.35798148,3,0,0
Portage,Wisconsin,44.47558711,-89.50152965,3,0,0
Potter,Pennsylvania,41.74471626,-77.89559864,3,0,0
Prince Edward,Virginia,37.22554789,-78.43597949,3,0,0
Ramsey,North Dakota,48.26886249,-98.72223879,3,0,0
Randolph,West Virginia,38.769899,-79.87919615,3,0,0
Ray,Missouri,39.3537468,-93.98905745,3,0,0
Rockbridge,Virginia,37.81204314,-79.44605905,3,0,0
Saguache,Colorado,38.08054629,-106.282466,3,0,0
Scott,Tennessee,36.42325673,-84.50360494,3,0,0
Scotts Bluff,Nebraska,41.85070896,-103.7080986,3,0,0
Siskiyou,California,41.59198861,-122.5407434,3,0,0
Smith,Tennessee,36.25359775,-85.95411046,3,0,0
Somerset,Maine,45.51229767,-69.95995554,3,0,0
Somerset,Pennsylvania,39.97172723,-79.02699593,3,0,0
Stephenson,Illinois,42.35129217,-89.662598,3,0,0
Sullivan,Indiana,39.08952258,-87.41414469,3,0,0
Surry,North Carolina,36.41689489,-80.69102283,3,0,0
Surry,Virginia,37.11781893,-76.88450012,3,0,0
Sussex,Virginia,36.92432914,-77.25791182,3,0,0
Talbot,Georgia,32.69642758,-84.53351366,3,0,0
Tattnall,Georgia,32.04785085,-82.05539188,3,0,0
Telfair,Georgia,31.92829517,-82.93491155,3,0,0
Teton,Idaho,43.75303583,-111.2056773,3,0,0
Tillamook,Oregon,45.46248721,-123.712066,3,0,0
Tioga,Pennsylvania,41.77255149,-77.25433032,3,0,0
Torrance,New Mexico,34.64048375,-105.8508949,3,0,0
Tucker,West Virginia,39.11240885,-79.57053576,3,0,0
Turner,South Dakota,43.3109081,-97.14865776,3,0,0
Union,Oregon,45.30915495,-118.0068979,3,0,0
Union,South Dakota,42.83112163,-96.6557828,3,0,0
Upshur,Texas,32.73706798,-94.93999853,3,0,0
Valley,Idaho,44.76728382,-115.5676773,3,0,0
Venango,Pennsylvania,41.40323442,-79.75845449,3,0,0
Vilas,Wisconsin,46.05467334,-89.51719204,3,0,0
Waldo,Maine,44.4858305,-69.12061935,3,0,0
Walker,Georgia,34.73376362,-85.30165174,3,0,0
Warren,Mississippi,32.35810271,-90.83352619,3,0,0
Waseca,Minnesota,44.02211116,-93.58720034,3,0,0
Washington,North Carolina,35.83810081,-76.57299037,3,0,0
Washington,Virginia,36.72341572,-81.95666289,3,0,0
Washington County,Utah,37.3225,-113.4776,3,0,0
Watonwan,Minnesota,43.97823903,-94.61413846,3,0,0
Webster,Kentucky,37.52168356,-87.67989953,3,0,0
Webster,Missouri,37.2813734,-92.876329,3,0,0
White,Georgia,34.64624278,-83.74905525,3,0,0
White,Indiana,40.74911165,-86.86492015,3,0,0
Wilkes,Georgia,33.78290391,-82.74286107,3,0,0
Williamson,Illinois,37.73033511,-88.92994027,3,0,0
Winston,Alabama,34.15030532,-87.37325922,3,0,0
Wise,Texas,33.21570665,-97.65460265,3,0,0
Woodson,Kansas,37.8865336,-95.74006277,3,0,0
Young,Texas,33.17659707,-98.68790885,3,0,0
Alamosa,Colorado,37.57250606,-105.7885451,4,0,0
Albany,Wyoming,41.65498705,-105.7235415,4,0,0
Antrim,Michigan,44.99690221,-85.15503082,4,0,0
Austin,Texas,29.88548725,-96.27736949,4,0,0
Baker,Georgia,31.32669878,-84.44218806,4,1,0
Bedford,Pennsylvania,40.00522157,-78.48998442,4,0,0
Bedford,Virginia,37.3080028,-79.5281964,4,0,0
Ben Hill,Georgia,31.76095874,-83.22145359,4,0,0
Benton,Tennessee,36.07110411,-88.06849355,4,0,0
Bibb,Alabama,32.99642064,-87.1251146,4,0,0
Bourbon,Kentucky,38.2054607,-84.21827874,4,1,0
Bradley,Arkansas,33.46755808,-92.15980837,4,0,0
Broadwater,Montana,46.33277565,-111.4955813,4,0,0
Brown,Indiana,39.19605589,-86.22868909,4,0,0
Brown,Texas,31.77430356,-98.99907113,4,0,0
Buckingham,Virginia,37.57242268,-78.52518834,4,0,0
Burnet,Texas,30.78801353,-98.181887,4,0,0
Caddo,Oklahoma,35.17364557,-98.37534464,4,0,0
Calaveras,California,38.20537103,-120.552913,4,0,0
Calhoun,Mississippi,33.93683395,-89.33686647,4,0,0
Calhoun,South Carolina,33.66926881,-80.77722168,4,1,0
Cannon,Tennessee,35.80990797,-86.05738983,4,0,0
Carbon,Wyoming,41.69357844,-106.9326084,4,0,0
Caroline,Maryland,38.87172293,-75.82904158,4,0,0
Carroll,Illinois,42.06823429,-89.93395545,4,1,0
Cass,Indiana,40.76135835,-86.34830753,4,0,0
Cass,Texas,33.07499881,-94.34646905,4,0,0
Cassia,Idaho,42.28347888,-113.6012409,4,1,0
Chariton,Missouri,39.51499357,-92.9629191,4,0,0
Charles City,Virginia,37.35358063,-77.05634116,4,0,0
Chisago,Minnesota,45.5021011,-92.90861945,4,1,0
Choctaw,Alabama,32.02227341,-88.2656443,4,0,0
Clarion,Pennsylvania,41.19265812,-79.42413524,4,0,0
Clatsop,Oregon,45.99712889,-123.660711,4,0,0
Coffee,Tennessee,35.49090731,-86.07311784,4,0,0
Coryell,Texas,31.39078397,-97.79936155,4,0,0
Cotton,Oklahoma,34.28845626,-98.37053567,4,0,0
Covington,Alabama,31.2477854,-86.45050893,4,0,0
Covington,Mississippi,31.63225413,-89.55389939,4,0,0
Crawford,Iowa,42.03718237,-95.3819718,4,0,0
Crawford,Kansas,37.50675523,-94.85245778,4,1,0
Delta,Colorado,38.86246243,-107.8631342,4,0,0
Dubois,Indiana,38.36597551,-86.8792417,4,0,0
Eddy,New Mexico,32.47167456,-104.3053527,4,1,0
Franklin,Maine,44.97330019,-70.44381045,4,0,0
Franklin,Mississippi,31.47786634,-90.89672989,4,0,0
Franklin City,Virginia,36.6831435,-76.93859681,4,0,0
Gadsden,Florida,30.57796289,-84.61915825,4,0,0
Gallia,Ohio,38.82708533,-82.31647569,4,1,0
George,Mississippi,30.86259065,-88.64436789,4,0,0
Gibson,Indiana,38.30393723,-87.58054938,4,0,0
Glades,Florida,26.95635849,-81.18996211,4,1,0
Grand,Colorado,40.10603347,-106.1178042,4,0,0
Gratiot,Michigan,43.29265605,-84.60505416,4,0,0
Greensville,Virginia,36.67878901,-77.56351439,4,0,0
Grenada,Mississippi,33.77036166,-89.80245083,4,0,0
Hamblen,Tennessee,36.21990035,-83.26586179,4,0,0
Hamilton,Nebraska,40.87349452,-98.02099117,4,0,0
Henry,Tennessee,36.33160906,-88.30121797,4,0,0
Hertford,North Carolina,36.3607755,-76.98104134,4,0,0
Highland,Ohio,39.1839264,-83.60331456,4,0,0
Humphreys,Mississippi,33.12825718,-90.52252707,4,1,0
Huntingdon,Pennsylvania,40.42162652,-77.97673273,4,0,0
Huron,Michigan,43.83353985,-83.04078453,4,0,0
Iroquois,Illinois,40.74717633,-87.82466784,4,0,0
Jackson,Florida,30.7954597,-85.21500423,4,0,0
Jackson,Oklahoma,34.58781741,-99.41138784,4,0,0
Jo Daviess,Illinois,42.36542373,-90.21094405,4,0,0
Juneau,Wisconsin,43.92456975,-90.11120239,4,0,0
Kemper,Mississippi,32.75462946,-88.64105766,4,0,0
Kit Carson,Colorado,39.30497777,-102.6022199,4,0,0
LaGrange,Indiana,41.64232188,-85.42674232,4,0,0
LaSalle,Louisiana,31.67884782,-92.15907765,4,0,0
Labette,Kansas,37.19113093,-95.29849679,4,0,0
Lake,Montana,47.64514965,-114.0898013,4,0,0
Latimer,Oklahoma,34.87844729,-95.25215049,4,1,0
Lawrence,Alabama,34.52041498,-87.31069453,4,0,0
Lawrence,Mississippi,31.55147224,-90.10841127,4,0,0
Lincoln,Oregon,44.64252874,-123.869912,4,0,0
Logan,Kentucky,36.85949479,-86.877635,4,0,0
Lyon,Kentucky,37.02080035,-88.07886257,4,0,0
Macon,Georgia,32.35207048,-84.04234127,4,0,0
Macoupin,Illinois,39.26119767,-89.92424028,4,0,0
Madison,Idaho,43.78141028,-111.6538474,4,0,0
Manistee,Michigan,44.33352407,-86.05626916,4,0,0
Marshall,Indiana,41.32467367,-86.26185087,4,0,0
Marshall,Tennessee,35.45798777,-86.76420988,4,0,0
Marshall,West Virginia,39.86064362,-80.66591062,4,0,0
Mason,West Virginia,38.77071799,-82.02524219,4,0,0
Matanuska-Susitna,Alaska,62.31305045,-149.5741743,4,0,0
Maverick,Texas,28.7429195,-100.3157686,4,0,0
Mecosta,Michigan,43.64064262,-85.32463223,4,1,0
Mendocino,California,39.4381191,-123.3911313,4,0,0
Mifflin,Pennsylvania,40.61116939,-77.61070738,4,0,0
Montgomery,Missouri,38.94022054,-91.47000721,4,0,0
Morgan,Tennessee,36.13248031,-84.64880098,4,0,0
Muskingum,Ohio,39.96575964,-81.94363275,4,0,0
Nelson,Kentucky,37.80335779,-85.4657193,4,0,0
Nicollet,Minnesota,44.35291112,-94.24710352,4,0,0
Ogle,Illinois,42.04165196,-89.32184679,4,0,0
Orange,Vermont,44.00470222,-72.37640104,4,0,0
Osceola,Michigan,43.98992088,-85.32566756,4,0,0
Panola,Texas,32.1639596,-94.30552481,4,1,0
Person,North Carolina,36.38989032,-78.97217358,4,0,0
Pike,Georgia,33.09310242,-84.38790389,4,0,0
Platte,Nebraska,41.57246836,-97.52144359,4,0,0
Powhatan,Virginia,37.55016038,-77.91267882,4,0,0
Preble,Ohio,39.7420247,-84.64787018,4,0,0
Raleigh,West Virginia,37.76936795,-81.2456041,4,0,0
Rice,Minnesota,44.3543376,-93.29658715,4,0,0
Roberts,South Dakota,45.62975048,-96.94672673,4,0,0
Ross,Ohio,39.33705391,-83.06000914,4,0,0
Russell,Alabama,32.28725256,-85.18415324,4,0,0
Sabine,Louisiana,31.56388699,-93.55433981,4,0,0
Saluda,South Carolina,34.00795823,-81.72713237,4,0,0
San Augustine,Texas,31.39457611,-94.17000399,4,1,0
San Patricio,Texas,28.00880118,-97.51763891,4,0,0
Santa Cruz,Arizona,31.52508998,-110.8479088,4,0,0
Saunders,Nebraska,41.2278103,-96.63773905,4,0,0
Schuyler,New York,42.39184015,-76.8773299,4,0,0
Sequoyah,Oklahoma,35.49447108,-94.75463785,4,1,0
Socorro,New Mexico,34.00715494,-106.9298354,4,0,0
Somerset,Maryland,38.1163542,-75.75118623,4,0,0
St. Helena,Louisiana,30.82210324,-90.71013176,4,0,0
Steuben,Indiana,41.64423868,-85.00101094,4,0,0
Sweetwater,Wyoming,41.65943896,-108.8827882,4,0,0
Terry,Texas,33.17402785,-102.3354521,4,0,0
Uvalde,Texas,29.35739637,-99.76229172,4,0,0
Van Zandt,Texas,32.56483801,-95.83766469,4,1,0
Warren,Georgia,33.41146451,-82.67795848,4,0,0
Warren,Virginia,38.90847745,-78.20280433,4,0,0
Wayne,Kentucky,36.80310688,-84.8251971,4,0,0
Wexford,Michigan,44.33853602,-85.57712739,4,0,0
Wilkes,North Carolina,36.2084135,-81.16232895,4,1,0
Winneshiek,Iowa,43.29094334,-91.84422722,4,0,0
Appling,Georgia,31.74847232,-82.28909114,5,0,0
Bamberg,South Carolina,33.21927586,-81.05659969,5,0,0
Bannock,Idaho,42.67002716,-112.2233311,5,0,0
Barry,Michigan,42.59513984,-85.30834519,5,0,0
Beltrami,Minnesota,47.97373527,-94.93732139,5,0,0
Benton,Mississippi,34.81681228,-89.18945516,5,0,0
Blair,Pennsylvania,40.47961444,-78.34917412,5,0,0
Bonneville,Idaho,43.38713372,-111.6161537,5,0,0
Brooks,Georgia,30.83922642,-83.58303423,5,0,0
Bulloch,Georgia,32.39577406,-81.74811421,5,0,0
Cabell,West Virginia,38.42424062,-82.23855912,5,0,0
Caldwell,North Carolina,35.95204977,-81.54799522,5,0,0
Caledonia,Vermont,44.46548598,-72.10314651,5,0,0
Calloway,Kentucky,36.62093411,-88.2731593,5,0,0
Campbell,Tennessee,36.40355516,-84.1510856,5,0,0
Carroll,Mississippi,33.44834567,-89.91994479,5,0,0
Cedar,Missouri,37.72391475,-93.85445441,5,0,0
Champaign,Ohio,40.13923427,-83.76875242,5,0,0
Cherokee,Kansas,37.16928494,-94.8462897,5,0,0
Clarke,Mississippi,32.04158545,-88.6889622,5,0,0
Cleveland,Arkansas,33.89723187,-92.18537045,5,0,0
Colbert,Alabama,34.69847452,-87.80168544,5,0,0
Concordia,Louisiana,31.44817835,-91.63814433,5,1,0
Cottonwood,Minnesota,44.00715262,-95.18138802,5,0,0
Crawford,Indiana,38.28814402,-86.44518825,5,0,0
Crawford,Pennsylvania,41.68447709,-80.10760592,5,0,0
Cross,Arkansas,35.29631396,-90.77185818,5,0,0
Crow Wing,Minnesota,46.48096553,-94.06755609,5,0,0
Custer,Oklahoma,35.63853802,-99.00170785,5,0,0
Dare,North Carolina,35.66520691,-75.71767334,5,0,0
Dawson,Texas,32.74255572,-101.9477242,5,0,0
DeKalb,Tennessee,35.97616272,-85.83689361,5,0,0
Delta,Michigan,45.9048491,-86.9080745,5,0,0
Dodge,Georgia,32.17265114,-83.16948926,5,0,0
Donley,Texas,34.96517499,-100.8140093,5,0,0
Dunn,Wisconsin,44.94562799,-91.8962481,5,0,0
Duplin,North Carolina,34.93449805,-77.93140529,5,0,0
Edgecombe,North Carolina,35.91230639,-77.59436892,5,0,0
Edgefield,South Carolina,33.77221995,-81.96231108,5,0,0
Edmonson,Kentucky,37.21218923,-86.23955613,5,0,0
Fluvanna,Virginia,37.84157909,-78.27715475,5,0,0
Franklin,Georgia,34.37525597,-83.23159927,5,0,0
Fulton,Ohio,41.60213491,-84.12571393,5,0,0
Garfield,Oklahoma,36.3791334,-97.78265517,5,0,0
Gray,Texas,35.40081878,-100.8129222,5,0,0
Greene,Alabama,32.85504247,-87.95684022,5,0,0
Greene,North Carolina,35.48544173,-77.67578087,5,0,0
Harrison,Texas,32.54935988,-94.36934071,5,1,0
Hill,Texas,31.99045053,-97.13423143,5,0,0
Hot Spring,Arkansas,34.31709259,-92.95396325,5,0,0
Huntington,Indiana,40.82907273,-85.48822092,5,1,0
Jefferson,Indiana,38.78576239,-85.43633383,5,0,0
Jones,Iowa,42.12118609,-91.13139641,5,0,0
Kent,Maryland,39.24976208,-76.04741541,5,0,0
Kimball,Nebraska,41.19774275,-103.7148131,5,0,0
Kings,California,36.07409056,-119.8159973,5,0,0
Knox,Indiana,38.68861576,-87.4194665,5,0,0
Lamar,Texas,33.66981763,-95.57404777,5,0,0
Liberty,Texas,30.15152688,-94.81205615,5,0,0
Lincoln,Georgia,33.79201475,-82.45024131,5,0,0
Lincoln,Tennessee,35.13738622,-86.58910106,5,0,0
Linn,Kansas,38.21267844,-94.84254089,5,0,0
Logan,West Virginia,37.8299889,-81.93528571,5,0,0
Macon,Alabama,32.38759944,-85.69267724,5,0,0
Macon,Illinois,39.86064913,-88.96342505,5,0,0
Madison,Nebraska,41.91676024,-97.6005481,5,0,0
McDuffie,Georgia,33.47851918,-82.48252774,5,1,0
Monroe,Alabama,31.56729412,-87.36995001,5,0,0
Montgomery,Kentucky,38.03253032,-83.9145241,5,0,0
Navarro,Texas,32.04620681,-96.47428766,5,1,0
Noble,Oklahoma,36.38953329,-97.22928674,5,0,0
Noxubee,Mississippi,33.11009499,-88.56949061,5,0,0
Orange,Indiana,38.5411892,-86.49523093,5,1,0
Orange,Virginia,38.24530219,-78.015604,5,0,0
Ottawa,Ohio,41.53781826,-83.0940185,5,0,0
Park,Colorado,39.120926,-105.7182065,5,0,0
Payette,Idaho,44.00545243,-116.7647695,5,0,0
Perry,Pennsylvania,40.40206612,-77.26297447,5,1,0
Poinsett,Arkansas,35.57433534,-90.66268713,5,0,0
Polk,Arkansas,34.48254879,-94.22728802,5,0,0
Posey,Indiana,38.02097333,-87.86480429,5,0,0
Preston,West Virginia,39.46770987,-79.66712803,5,0,0
Putnam,West Virginia,38.50782345,-81.9082131,5,0,0
Quitman,Mississippi,34.25157572,-90.28908,5,0,0
Randolph,Indiana,40.15734772,-85.01139319,5,1,0
Rio Arriba,New Mexico,36.51072137,-106.6931674,5,0,0
Rio Grande,Colorado,37.5836865,-106.3847838,5,0,0
Roane,Tennessee,35.84923189,-84.52458689,5,0,0
Roanoke,Virginia,37.26865804,-80.06396753,5,0,0
Robeson,North Carolina,34.64244496,-79.1025053,5,0,0
Rockingham,North Carolina,36.39593137,-79.77504841,5,1,0
Saline,Kansas,38.78369175,-97.65185177,5,0,0
Sandusky,Ohio,41.35624126,-83.137872,5,0,0
Seneca,Ohio,41.12351311,-83.12783209,5,1,0
Shelby,Iowa,41.6850066,-95.31015553,5,0,0
Simpson,Mississippi,31.91282117,-89.91716179,5,0,0
Southampton,Virginia,36.72231125,-77.10642712,5,0,0
Starr,Texas,26.56150059,-98.73892358,5,0,0
Stephens,Georgia,34.55151201,-83.29405315,5,0,0
Stevens,Washington,48.40035475,-117.8542701,5,0,0
Stokes,North Carolina,36.4017975,-80.23893369,5,0,0
Stone,Arkansas,35.86251946,-92.15684085,5,0,0
Story,Iowa,42.03621213,-93.46499005,5,0,0
Sullivan,New Hampshire,43.36094111,-72.22203125,5,0,0
Susquehanna,Pennsylvania,41.82147784,-75.80071959,5,0,0
Taney,Missouri,36.65465345,-93.04075153,5,0,0
Toombs,Georgia,32.12059861,-82.32957247,5,1,0
Transylvania,North Carolina,35.20383864,-82.79638423,5,0,0
Umatilla,Oregon,45.59073056,-118.7353826,5,0,0
Union,Pennsylvania,40.96188846,-77.05996014,5,0,0
Val Verde,Texas,29.89149232,-101.1525205,5,0,0
Valencia,New Mexico,34.71669834,-106.8103733,5,0,0
Vermilion,Illinois,40.18417171,-87.73384359,5,0,0
Wakulla,Florida,30.16548905,-84.39895211,5,0,0
Washington,Alabama,31.4092794,-88.20689944,5,1,0
Washington,Georgia,32.96711864,-82.79357039,5,0,0
Whitley,Indiana,41.13863784,-85.50791236,5,0,0
Willacy,Texas,26.47411727,-97.61535848,5,0,0
Williams,North Dakota,48.34522353,-103.4793387,5,0,0
Wyandot,Ohio,40.84339621,-83.30734173,5,0,0
Wyoming,Pennsylvania,41.51955538,-76.01074915,5,0,0
Abbeville,South Carolina,34.22333378,-82.46170658,6,0,0
Alcorn,Mississippi,34.88084463,-88.57996173,6,0,0
Amelia,Virginia,37.34081025,-77.98584649,6,0,0
Amherst,Virginia,37.60308293,-79.14548696,6,0,0
Amite,Mississippi,31.17467303,-90.80501621,6,1,0
Auglaize,Ohio,40.55998859,-84.2242143,6,0,0
Bacon,Georgia,31.55456473,-82.45936528,6,0,0
Bradford,Florida,29.95079741,-82.16611613,6,0,0
Cambria,Pennsylvania,40.49527404,-78.71377428,6,0,0
Camden,Georgia,30.92951916,-81.66601818,6,0,0
Carroll,Tennessee,35.97366108,-88.45189331,6,0,0
Cass,Michigan,41.91522292,-85.99405727,6,1,0
Catoosa,Georgia,34.89872298,-85.13757014,6,0,0
Cherokee,Alabama,34.17805983,-85.60638968,6,0,0
Cherokee,Texas,31.837258,-95.16559897,6,0,0
Chester,Tennessee,35.42527478,-88.6095842,6,0,0
Clark,Wisconsin,44.73483377,-90.61207486,6,0,0
Clarke,Alabama,31.68099859,-87.83548597,6,0,0
Clear Creek,Colorado,39.68864463,-105.6463118,6,0,0
Columbus,North Carolina,34.26744084,-78.65801424,6,0,0
Coosa,Alabama,32.93690146,-86.24847739,6,0,0
Curry,New Mexico,34.57421077,-103.3468876,6,0,0
DeWitt,Texas,29.08101855,-97.3568117,6,0,0
Dodge,Nebraska,41.58071748,-96.65598179,6,0,0
Elbert,Colorado,39.28656773,-104.1358721,6,0,0
Erie,Ohio,41.36796058,-82.62904521,6,1,0
Franklin,Alabama,34.44235334,-87.84289505,6,0,0
Grady,Oklahoma,35.0167709,-97.88339847,6,0,0
Greer,Oklahoma,34.93535801,-99.5605612,6,1,0
Hale,Texas,34.07044901,-101.8268114,6,0,0
Hancock,West Virginia,40.51943859,-80.57461608,6,0,0
Hardeman,Tennessee,35.20772017,-88.99161161,6,0,0
Harris,Georgia,32.73709786,-84.90538572,6,0,0
Henderson,Kentucky,37.79344553,-87.57392021,6,0,0
Hendry,Florida,26.55386945,-81.16469006,6,0,0
Henry,Iowa,40.98767962,-91.54436349,6,0,0
Huron,Ohio,41.14651175,-82.59867951,6,1,0
Ionia,Michigan,42.94502238,-85.07413319,6,0,0
Iowa,Iowa,41.68630265,-92.0643373,6,0,0
Irwin,Georgia,31.60213036,-83.27501387,6,0,0
Jefferson,Tennessee,36.04818632,-83.45148924,6,0,0
Jones,Georgia,33.02512137,-83.56019163,6,0,0
Knox,Ohio,40.39830217,-82.42027563,6,1,0
Lamar,Georgia,33.07841647,-84.14263877,6,0,0
Laurens,South Carolina,34.48244419,-82.00490796,6,0,0
Lincoln,Arkansas,33.95317155,-91.74002806,6,0,0
Lincoln,Montana,48.54265777,-115.4046155,6,1,0
Livingston,Illinois,40.89188292,-88.55784752,6,0,0
Logan,Oklahoma,35.91899576,-97.44352845,6,0,0
Madison,Florida,30.44396917,-83.47398594,6,0,0
Madison,Montana,45.30080065,-111.9173017,6,1,0
Marion,Mississippi,31.23132643,-89.8209217,6,0,0
Mercer,Ohio,40.54043046,-84.62912742,6,1,0
Monona,Iowa,42.05220391,-95.95743843,6,0,0
Monroe,Tennessee,35.44550387,-84.24902965,6,0,0
Montgomery,Kansas,37.19236568,-95.74329258,6,0,0
Montgomery,Virginia,37.17746986,-80.37868691,6,0,0
Moore,Texas,35.83769242,-101.8930281,6,0,0
Morgan,Illinois,39.71654544,-90.20255104,6,1,0
Neshoba,Mississippi,32.75339664,-89.11726492,6,0,0
Newton,Mississippi,32.40021118,-89.11843336,6,0,0
Newton,Missouri,36.90519407,-94.3394104,6,0,0
Okanogan,Washington,48.54855019,-119.7387224,6,0,0
Oldham,Kentucky,38.39791089,-85.448222,6,0,0
Park,Montana,45.48965095,-110.5264394,6,0,0
Parker,Texas,32.77757172,-97.80500621,6,0,0
Pennington,South Dakota,44.0025835,-102.8240777,6,1,0
Polk,North Carolina,35.27820615,-82.16812354,6,0,0
Poweshiek,Iowa,41.68625425,-92.53155731,6,1,0
San Juan,Washington,48.60182783,-122.96745,6,0,0
Schley,Georgia,32.2654021,-84.31258912,6,0,0
Seneca,New York,42.78081007,-76.82497064,6,0,0
Smith,Mississippi,32.01744532,-89.50644846,6,0,0
Snyder,Pennsylvania,40.77129231,-77.06840691,6,1,0
Ste. Genevieve,Missouri,37.89090059,-90.1949941,6,0,0
Stearns,Minnesota,45.55192576,-94.61078221,6,0,0
Sumter,Alabama,32.59117397,-88.19916205,6,0,0
Talbot,Maryland,38.76618159,-76.10882561,6,0,0
Tipton,Indiana,40.31123252,-86.05234925,6,0,0
Union,Mississippi,34.49162015,-89.00776006,6,0,0
Van Buren,Iowa,40.75326764,-91.95017958,6,0,0
Wabasha,Minnesota,44.28424356,-92.23121312,6,0,0
Washington,Ohio,39.45690571,-81.49121382,6,0,0
Wayne,Indiana,39.8633444,-85.01044989,6,0,0
Wilson,Texas,29.1732598,-98.08693082,6,0,0
Woodford,Illinois,40.78579374,-89.20973757,6,0,0
Wright,Missouri,37.27029221,-92.46914488,6,0,0
Yadkin,North Carolina,36.16222629,-80.66239436,6,0,0
Augusta,Virginia,38.16404586,-79.12461614,7,0,0
Benton,Iowa,42.08011739,-92.06463573,7,0,0
Bertie,North Carolina,36.0688473,-76.96545943,7,1,0
Boyle,Kentucky,37.62680923,-84.8633779,7,0,0
Campbell,Wyoming,44.24886082,-105.5474404,7,0,0
Cayuga,New York,42.91261714,-76.55731592,7,0,0
Charlevoix,Michigan,45.37790017,-85.19614053,7,1,0
Cheboygan,Michigan,45.44787015,-84.50122149,7,0,0
Clark,Ohio,39.91592258,-83.78498252,7,0,0
Clay,Georgia,31.62221166,-84.97713865,7,0,0
Clay,Mississippi,33.65358105,-88.77784255,7,0,0
Clearfield,Pennsylvania,41.00110782,-78.47592663,7,0,0
Cleburne,Alabama,33.67679204,-85.52005899,7,0,0
Clinton,Missouri,39.6013098,-94.40465394,7,0,0
Clinton,Ohio,39.41485808,-83.80852286,7,0,0
Cochise,Arizona,31.87934684,-109.7516088,7,0,0
Coffee,Alabama,31.39932826,-85.98901039,7,0,0
Crawford,Ohio,40.85065156,-82.91989099,7,0,0
Dallas,Alabama,32.32688101,-87.1086671,7,0,0
Defiance,Ohio,41.32398837,-84.49076944,7,0,0
Douglas,Nevada,38.912862,-119.6171333,7,0,0
Douglas,Wisconsin,46.43222285,-91.91595768,7,0,0
Dunklin,Missouri,36.27167174,-90.09122243,7,0,0
Dyer,Tennessee,36.05931946,-89.41542855,7,0,0
Effingham,Georgia,32.36616021,-81.34280942,7,0,0
Emmet,Michigan,45.52625509,-84.89083249,7,2,0
Essex,New York,44.11630765,-73.77297842,7,0,0
Franklin,Kentucky,38.2379395,-84.87962551,7,0,0
Fredericksburg,Virginia,38.2977863,-77.4922454,7,0,0
Gem,Idaho,44.06482372,-116.398376,7,0,0
Henry,Illinois,41.3533994,-90.13296166,7,0,0
Hockley,Texas,33.60771256,-102.3431676,7,1,0
Johnson,Arkansas,35.56759135,-93.46036368,7,0,0
Juniata,Pennsylvania,40.53358749,-77.3997513,7,0,0
LaSalle,Illinois,41.3442613,-88.88633881,7,1,0
Lawrence,Ohio,38.59743452,-82.53466552,7,0,0
Lenoir,North Carolina,35.2403259,-77.64245615,7,0,0
Lincoln,Idaho,43.0012336,-114.1358773,7,0,0
Lincoln,Oklahoma,35.70270942,-96.8812462,7,0,0
Logan,Colorado,40.7249637,-103.110817,7,0,0
Lumpkin,Georgia,34.57286511,-84.00425681,7,0,0
Macon,Tennessee,36.53157855,-86.00778595,7,0,0
Madison,Georgia,34.12920917,-83.21218732,7,1,0
Mayes,Oklahoma,36.30179091,-95.23175116,7,1,0
Monroe,Georgia,33.014289,-83.92097166,7,0,0
Morgan,Colorado,40.2627981,-103.8093302,7,0,0
Nye,Nevada,38.04264256,-116.4722702,7,0,0
Orange,Texas,30.11879481,-93.89412775,7,0,0
Pepin,Wisconsin,44.58307413,-91.99949611,7,0,0
Pierce,Wisconsin,44.71850291,-92.4224416,7,0,0
Polk,Texas,30.79472531,-94.8276624,7,0,0
Pontotoc,Oklahoma,34.72959848,-96.68337199,7,0,0
Pulaski,Georgia,32.23334561,-83.4754996,7,0,0
Randolph,Missouri,39.44007257,-92.4971374,7,0,0
Scott,Indiana,38.68672078,-85.74627859,7,1,0
Scott,Missouri,37.05588075,-89.56474493,7,0,0
Shelby,Kentucky,38.21476019,-85.194223,7,0,0
Sioux,Iowa,43.08221074,-96.1767568,7,0,0
St. Croix,Wisconsin,45.03437474,-92.45000068,7,0,0
Stanly,North Carolina,35.31647813,-80.25093221,7,0,0
Stoddard,Missouri,36.85571651,-89.9444155,7,0,0
Switzerland,Indiana,38.82767338,-85.03022429,7,0,0
Trousdale,Tennessee,36.39026213,-86.16087954,7,1,0
Union,Ohio,40.30016061,-83.37239023,7,0,0
Warren,Missouri,38.76529479,-91.16124662,7,0,0
Wasco,Oregon,45.16292781,-121.1670954,7,0,0
Wood,West Virginia,39.20967886,-81.5162836,7,0,0
Worcester,Maryland,38.21274277,-75.33200012,7,0,0
Accomack,Virginia,37.76707161,-75.63234615,8,0,0
Adams,Nebraska,40.5244942,-98.50117804,8,0,0
Bedford,Tennessee,35.51123746,-86.45549096,8,0,0
Buchanan,Missouri,39.65816401,-94.80138942,8,0,0
Burke,Georgia,33.05917989,-81.99928721,8,0,0
Butler,Kansas,37.78134351,-96.83878537,8,0,0
Calhoun,Texas,28.47048236,-96.61633945,8,0,0
Carlton,Minnesota,46.59180601,-92.67601019,8,0,0
Carroll,Ohio,40.5789686,-81.09178213,8,0,0
Choctaw,Mississippi,33.34598242,-89.24809382,8,0,0
Clallam,Washington,48.04754642,-123.9226319,8,0,0
Clay,Alabama,33.26984193,-85.85836077,8,0,0
Coshocton,Ohio,40.30096166,-81.91729018,8,0,0
Culpeper,Virginia,38.48199985,-77.9563087,8,0,0
Elko,Nevada,41.14531606,-115.3577619,8,1,0
Fannin,Georgia,34.86430205,-84.316964,8,0,0
Gibson,Tennessee,35.99438059,-88.93358327,8,0,0
Goodhue,Minnesota,44.40849741,-92.7234195,8,0,0
Green,Wisconsin,42.6794956,-89.60243287,8,0,0
Henry,Indiana,39.93029017,-85.39625719,8,0,0
Hunt,Texas,33.12351514,-96.08551032,8,0,0
Jasper,Iowa,41.68576082,-93.05567785,8,0,0
Johnson,Wyoming,44.04057166,-106.5845174,8,0,0
Kalkaska,Michigan,44.68512729,-85.09085699,8,1,0
King George,Virginia,38.26818502,-77.15852768,8,0,0
Leake,Mississippi,32.7536828,-89.52402044,8,0,0
Lincoln,Maine,44.05996956,-69.54227124,8,0,0
Marengo,Alabama,32.24767634,-87.78796182,8,0,0
McPherson,Kansas,38.39184858,-97.64769869,8,0,0
Mecklenburg,Virginia,36.67882005,-78.36131056,8,0,0
Miami,Indiana,40.76940965,-86.04525048,8,0,0
Miller,Arkansas,33.31403423,-93.89285258,8,0,0
New Kent,Virginia,37.50694406,-76.99828634,8,0,0
Newberry,South Carolina,34.28629098,-81.59935761,8,0,0
Nowata,Oklahoma,36.79843529,-95.61902331,8,0,0
Oconee,South Carolina,34.75225169,-83.06742317,8,0,0
Orleans,Vermont,44.82964024,-72.24562697,8,0,0
Pasquotank,North Carolina,36.26723798,-76.25134778,8,0,0
Pope,Arkansas,35.44871474,-93.03212219,8,0,0
Pottawattamie,Iowa,41.33640314,-95.53907776,8,0,0
Sebastian,Arkansas,35.19605503,-94.27162713,8,0,0
Seminole,Georgia,30.93464824,-84.86823924,8,0,0
Steele,Minnesota,44.02240351,-93.22627088,8,0,0
Tioga,New York,42.16852837,-76.30835812,8,0,0
Walker,Texas,30.73872995,-95.57440968,8,0,0
Walla Walla,Washington,46.23040051,-118.4775539,8,0,0
Waller,Texas,30.01058447,-95.99011759,8,0,0
Watauga,North Carolina,36.23103603,-81.70033724,8,0,0
Wicomico,Maryland,38.37301947,-75.62705831,8,1,0
Woodbury,Iowa,42.38979414,-96.0459439,8,0,0
Woodford,Kentucky,38.04178222,-84.7417556,8,0,0
Wright,Minnesota,45.17297924,-93.96234781,8,0,0
Baca,Colorado,37.31940883,-102.5603223,9,0,0
Beaufort,North Carolina,35.48531943,-76.84325809,9,0,0
Brown,South Dakota,45.58994323,-98.35165355,9,0,0
Catahoula,Louisiana,31.66778967,-91.84526385,9,1,0
Cattaraugus,New York,42.24778241,-78.67923096,9,0,0
Cheshire,New Hampshire,42.92015988,-72.25311043,9,0,0
Codington,South Dakota,44.97788119,-97.18827677,9,0,0
Colleton,South Carolina,32.87582989,-80.67641292,9,0,0
Douglas,Illinois,39.76768052,-88.21854195,9,0,0
Douglas,Oregon,43.27941273,-123.167291,9,0,0
Douglas,Washington,47.7361335,-119.692937,9,0,0
Erath,Texas,32.23602653,-98.21773417,9,1,0
Fillmore,Minnesota,43.67394126,-92.08980382,9,0,0
Finney,Kansas,38.04340344,-100.7381938,9,0,0
Franklin,Kansas,38.56443815,-95.28644341,9,0,0
Fulton,New York,43.11363907,-74.41798804,9,0,0
Gloucester,Virginia,37.40809042,-76.53524337,9,0,0
Grant,Louisiana,31.59882456,-92.56124347,9,0,0
Greene,Indiana,39.03630547,-86.96223202,9,0,0
Grundy,Illinois,41.28569601,-88.41905692,9,0,0
Hancock,Ohio,41.00250487,-83.66838948,9,0,0
Hardin,Kentucky,37.6976111,-85.96319251,9,0,0
Hawkins,Tennessee,36.44355426,-82.94885298,9,1,0
Hood,Texas,32.42990927,-97.83242024,9,1,0
Hopewell,Virginia,37.29186313,-77.29754684,9,0,0
Humboldt,Nevada,41.40692186,-118.1109427,9,0,0
Indiana,Pennsylvania,40.65241041,-79.08963285,9,0,0
Jasper,South Carolina,32.43171982,-81.02487495,9,0,0
Jefferson Davis,Louisiana,30.26896765,-92.81210004,9,0,0
Jones,Mississippi,31.62257767,-89.168969,9,0,0
Kendall,Texas,29.94414155,-98.7113588,9,0,0
Klickitat,Washington,45.87325839,-120.7913598,9,1,0
Knox,Maine,44.11486325,-69.10529169,9,0,0
Lawrence,South Dakota,44.35919441,-103.7929428,9,0,0
Liberty,Georgia,31.82588896,-81.49251135,9,0,0
Lincoln,North Carolina,35.48508185,-81.21740317,9,0,0
Marathon,Wisconsin,44.89792533,-89.75863384,9,0,0
McDowell,North Carolina,35.67736232,-82.0482425,9,0,0
Monroe,Illinois,38.27594376,-90.17761038,9,0,0
Morehouse,Louisiana,32.81686191,-91.80421614,9,0,0
Murray,Georgia,34.78897608,-84.74993177,9,0,0
Noble,Indiana,41.39672484,-85.41966713,9,0,0
Northumberland,Pennsylvania,40.84785433,-76.70798222,9,0,0
Pickens,Georgia,34.46589159,-84.46406611,9,1,0
Prentiss,Mississippi,34.61810501,-88.51986294,9,0,0
Reno,Kansas,37.95230263,-98.08607292,9,0,0
Richland,Louisiana,32.41391005,-91.76634876,9,0,0
San Miguel,Colorado,38.00450883,-108.4020725,9,0,0
Sherburne,Minnesota,45.44447208,-93.77617511,9,0,0
St. Joseph,Michigan,41.91441767,-85.52797979,9,0,0
Stephens,Oklahoma,34.48556989,-97.85141892,9,1,0
Union,South Carolina,34.68835752,-81.61730349,9,0,0
Warren,Iowa,41.33559454,-93.56007641,9,0,0
Wharton,Texas,29.27765923,-96.22319248,9,0,0
Williamsburg,South Carolina,33.62190129,-79.72767442,9,0,0
Yalobusha,Mississippi,34.02824175,-89.7076205,9,0,0
Yuba,California,39.26255932,-121.3535644,9,0,0
Adair,Missouri,40.19058551,-92.60078167,10,0,0
Allegan,Michigan,42.59147037,-85.89102866,10,0,0
Anderson,Tennessee,36.12684348,-84.19965764,10,0,0
Angelina,Texas,31.25457347,-94.60901487,10,0,0
Bastrop,Texas,30.10370699,-97.31206354,10,0,0
Bienville,Louisiana,32.34569994,-93.05398492,10,1,0
Black Hawk,Iowa,42.4704581,-92.30524729,10,0,0
Blount,Alabama,33.98210918,-86.56790593,10,0,0
Box Elder,Utah,41.52106798,-113.0832816,10,0,0
Bradford,Pennsylvania,41.78869215,-76.51570822,10,0,0
Branch,Michigan,41.91600556,-85.05929476,10,0,0
Butts,Georgia,33.2830945,-83.9543504,10,0,0
Carson City,Nevada,39.15509045,-119.7480219,10,0,0
Carver,Minnesota,44.82017001,-93.8009918,10,0,0
Cerro Gordo,Iowa,43.08177563,-93.2612239,10,0,0
Chautauqua,New York,42.2276921,-79.36691763,10,1,0
Cherokee,Oklahoma,35.90692775,-94.99980896,10,0,0
Clinton,Illinois,38.60704876,-89.42385254,10,0,0
Columbia,Florida,30.22509788,-82.62160164,10,0,0
Dodge,Minnesota,44.02238415,-92.86244324,10,0,0
Elmore,Idaho,43.3507101,-115.4701578,10,0,0
Fauquier,Virginia,38.73564842,-77.80647472,10,0,0
Fayette,Texas,29.87788372,-96.92076062,10,0,0
Franklin,New York,44.59040891,-74.29926032,10,0,0
Franklin,Virginia,36.99536167,-79.88023649,10,0,0
Freeborn,Minnesota,43.67385583,-93.34884422,10,0,0
Goochland,Virginia,37.71714806,-77.90381514,10,0,0
Grand Forks,North Dakota,47.92093639,-97.45450447,10,0,0
Greenwood,South Carolina,34.15272415,-82.12715789,10,0,0
Halifax,North Carolina,36.25669272,-77.6556109,10,0,0
Haralson,Georgia,33.79602175,-85.21005667,10,0,0
Harrison,Iowa,41.68330137,-95.81558439,10,0,0
Hoke,North Carolina,35.01888303,-79.23651674,10,0,0
Inyo,California,36.51112084,-117.4111978,10,0,0
Isabella,Michigan,43.64060976,-84.84664923,10,2,0
Jackson,Illinois,37.78595185,-89.38232563,10,1,0
Kaufman,Texas,32.5991417,-96.28734728,10,0,0
Kittitas,Washington,47.12521214,-120.679439,10,0,0
Lycoming,Pennsylvania,41.34310539,-77.06629984,10,0,0
Lynchburg,Virginia,37.40021399,-79.19888138,10,0,0
Marshall,Iowa,42.03586837,-92.9990819,10,0,0
McCracken,Kentucky,37.05350953,-88.70445755,10,0,0
Meriwether,Georgia,33.04163534,-84.68859732,10,0,0
Miller,Georgia,31.16568912,-84.73151117,10,0,0
Montgomery,Mississippi,33.49419589,-89.61729103,10,1,0
Montgomery,North Carolina,35.33155144,-79.90416657,10,1,0
Orleans,New York,43.2516977,-78.2320066,10,0,0
Ottawa,Oklahoma,36.83532655,-94.81011909,10,0,0
Panola,Mississippi,34.36398677,-89.95064249,10,1,0
Peach,Georgia,32.56934316,-83.82937,10,1,0
Petersburg,Virginia,37.20530399,-77.39368102,10,0,0
Pike,Alabama,31.80396383,-85.9408295,10,0,0
Pulaski,Missouri,37.82462075,-92.20783203,10,0,0
Roanoke City,Virginia,37.27791025,-79.96189766,10,0,0
Rush,Indiana,39.62002287,-85.4655599,10,1,0
Shelby,Ohio,40.33163494,-84.20258189,10,0,0
Shenandoah,Virginia,38.85905135,-78.56813762,10,0,0
Tazewell,Illinois,40.50716185,-89.51404662,10,0,0
Union,Arkansas,33.16887091,-92.59746952,10,0,0
Union,Florida,30.04412971,-82.37497443,10,0,0
Upson,Georgia,32.87920671,-84.30024826,10,0,0
Vance,North Carolina,36.36880673,-78.40670845,10,0,0
Vigo,Indiana,39.42944561,-87.39169027,10,2,0
Williamsburg,Virginia,37.28131268,-76.70905141,10,1,0
Winchester,Virginia,39.17054517,-78.17325058,10,0,0
Ashtabula,Ohio,41.70860332,-80.74830218,11,0,0
Baker,Florida,30.33060121,-82.28467476,11,0,0
Baldwin,Georgia,33.06882326,-83.24701748,11,1,0
Boone,Kentucky,38.97065142,-84.72615357,11,1,0
Bullitt,Kentucky,37.97162523,-85.68955617,11,2,0
Butte,California,39.66727762,-121.6005252,11,0,0
Calhoun,Georgia,31.53169785,-84.62725131,11,1,0
Cascade,Montana,47.30797024,-111.3467922,11,0,0
Castro,Texas,34.53016752,-102.2617243,11,1,0
Cedar,Iowa,41.77233777,-91.13246684,11,0,0
Chambers,Texas,29.70972016,-94.67154501,11,0,0
Cherokee,North Carolina,35.1349263,-84.05970864,11,1,0
Cibola,New Mexico,34.91131525,-107.998876,11,0,0
Clark,Kentucky,37.9689263,-84.14615986,11,0,0
DeSoto,Florida,27.18677893,-81.80941373,11,1,0
Delaware,Oklahoma,36.40823634,-94.80325046,11,0,0
Garvin,Oklahoma,34.70418038,-97.30811132,11,0,0
Greene,Ohio,39.69116283,-83.89032084,11,1,0
Harrison,Kentucky,38.44188174,-84.32869741,11,0,0
Jasper,Missouri,37.20351921,-94.34050458,11,0,0
Jerome,Idaho,42.68891267,-114.2655033,11,0,0
Kenai Peninsula,Alaska,60.24429722,-151.5388884,11,0,0
Kosciusko,Indiana,41.24521668,-85.86312322,11,0,0
Madison,Kentucky,37.71659336,-84.27220275,11,0,0
Marquette,Michigan,46.4338914,-87.64043701,11,1,0
McClain,Oklahoma,35.01123903,-97.44572302,11,0,0
Ohio,West Virginia,40.0955451,-80.62203992,11,0,0
Okmulgee,Oklahoma,35.64661916,-95.96432828,11,0,0
Oxford,Maine,44.49952995,-70.75682123,11,0,0
Peoria,Illinois,40.78702156,-89.76078901,11,0,0
Pottawatomie,Oklahoma,35.20614018,-96.94923008,11,0,0
Randolph,Alabama,33.29526734,-85.45708831,11,1,0
Riley,Kansas,39.28935726,-96.73420026,11,0,0
Rockwall,Texas,32.89779518,-96.40771592,11,0,0
Rusk,Texas,32.10773545,-94.76176432,11,0,0
Schoharie,New York,42.58831742,-74.4433903,11,0,0
Shelby,Texas,31.79211404,-94.14550696,11,0,0
Sheridan,Wyoming,44.79048913,-106.8862389,11,0,0
Silver Bow,Montana,45.90018933,-112.6620092,11,0,0
Teller,Colorado,38.88133511,-105.1614893,11,1,0
Vernon,Louisiana,31.10884837,-93.18153838,11,0,0
Webster,Mississippi,33.61300486,-89.28392912,11,1,0
Whitman,Washington,46.90022523,-117.5241763,11,0,0
Wilcox,Alabama,31.98773215,-87.30891118,11,0,0
Winston,Mississippi,33.08747908,-89.03391385,11,0,0
Armstrong,Pennsylvania,40.81665618,-79.46290811,12,0,0
Autauga,Alabama,32.53952745,-86.64408227,12,0,0
Campbell,Kentucky,38.94384345,-84.37875208,12,1,0
Cheatham,Tennessee,36.26136216,-87.08903581,12,0,0
Chester,South Carolina,34.69249168,-81.1583216,12,0,0
Copiah,Mississippi,31.86977774,-90.44565118,12,0,0
Danville,Virginia,36.58022376,-79.40395668,12,0,0
Fairfield,South Carolina,34.39287073,-81.1195624,12,0,0
Franklin,Tennessee,35.15634626,-86.09201039,12,1,0
Grand Traverse,Michigan,44.69565625,-85.55585247,12,3,0
Grayson,Texas,33.62744998,-96.67753461,12,0,0
Greene,Georgia,33.5769205,-83.17139104,12,0,0
Greene,Pennsylvania,39.85746531,-80.22357106,12,0,0
Grundy,Tennessee,35.38433717,-85.72142731,12,0,0
Hanover,Virginia,37.7583355,-77.49464673,12,0,0
Iron,Utah,37.8590362,-113.2897381,12,0,0
Jackson,Alabama,34.78144169,-85.99750489,12,1,0
Josephine,Oregon,42.3665549,-123.5561938,12,0,0
Juneau,Alaska,58.45031811,-134.200436,12,0,0
Marion,Ohio,40.58610662,-83.15736305,12,0,0
Mohave,Arizona,35.70471703,-113.7577902,12,0,0
Monroe,Mississippi,33.89236763,-88.4808438,12,1,0
Moore,North Carolina,35.30885257,-79.48474178,12,0,0
Pickens,Alabama,33.28094866,-88.08818103,12,0,0
Pontotoc,Mississippi,34.226046,-89.03636807,12,1,0
Pulaski,Kentucky,37.10466131,-84.57629079,12,1,0
Rogers,Oklahoma,36.37004357,-95.60406759,12,0,0
Rutherford,North Carolina,35.40114178,-81.92112099,12,0,0
San Juan,Utah,37.62762978,-109.8033714,12,0,0
Scott,Kentucky,38.29622293,-84.5816631,12,0,0
Scott,Minnesota,44.6490231,-93.53340251,12,1,0
Shasta,California,40.76391419,-122.0396884,12,2,0
Toole,Montana,48.65577551,-111.6942414,12,3,0
Turner,Georgia,31.71612656,-83.62069378,12,0,0
Van Buren,Michigan,42.25190229,-86.01939087,12,1,0
Walthall,Mississippi,31.14971548,-90.10446654,12,0,0
Warrick,Indiana,38.08922676,-87.2716085,12,0,0
Wayne,North Carolina,35.36438125,-78.00027268,12,0,0
Boyd,Kentucky,38.36176608,-82.68652187,13,1,0
Burke,North Carolina,35.74989637,-81.70755735,13,1,0
Chaves,New Mexico,33.36406072,-104.4665365,13,0,0
Chesterfield,South Carolina,34.64137396,-80.1564014,13,0,0
Clay,Minnesota,46.89289518,-96.48761922,13,0,0
Dawson,Georgia,34.44244079,-84.16964071,13,0,0
DeKalb,Alabama,34.45946862,-85.80782906,13,0,0
Jackson,Georgia,34.13794553,-83.56814788,13,0,0
Jackson,West Virginia,38.84263974,-81.68148753,13,1,0
Jefferson,Wisconsin,43.02054068,-88.77529134,13,0,0
Klamath,Oregon,42.68762984,-121.6496461,13,0,0
Lamar,Mississippi,31.20572971,-89.5077704,13,0,0
Lewis,Washington,46.57756476,-122.3925769,13,0,0
Lewis and Clark,Montana,47.12610041,-112.394698,13,0,0
Loudon,Tennessee,35.73939663,-84.31145275,13,0,0
Louisa,Virginia,37.97850256,-77.96274807,13,0,0
Lowndes,Mississippi,33.47386518,-88.4419153,13,0,0
Marion,West Virginia,39.50984542,-80.24244659,13,1,0
Mason,Washington,47.35007586,-123.1863685,13,0,0
Montcalm,Michigan,43.31082541,-85.15252824,13,0,0
Montgomery,New York,42.90123494,-74.44011632,13,0,0
Mountrail,North Dakota,48.20197971,-102.3555315,13,0,0
Nez Perce,Idaho,46.32638236,-116.7500975,13,2,0
Owen,Indiana,39.31145587,-86.83900724,13,0,0
Perry,Mississippi,31.17161885,-88.99281835,13,1,0
Queen Anne's,Maryland,39.06198912,-76.03530977,13,0,0
Sagadahoc,Maine,43.95415864,-69.85074999,13,0,0
Sanilac,Michigan,43.42406072,-82.82055898,13,1,0
Sevier,Tennessee,35.78077323,-83.52244332,13,0,0
Simpson,Kentucky,36.74058474,-86.58047435,13,1,0
St. Louis,Minnesota,47.6048407,-92.46879855,13,0,0
Taos,New Mexico,36.58006022,-105.6310198,13,0,0
Winona,Minnesota,43.98772283,-91.78081305,13,1,0
Adair,Oklahoma,35.88494195,-94.65859267,14,0,0
Attala,Mississippi,33.08658803,-89.57838564,14,0,0
Belknap,New Hampshire,43.51637314,-71.41684235,14,0,0
Blue Earth,Minnesota,44.03554215,-94.06699781,14,0,0
Botetourt,Virginia,37.55531756,-79.80982182,14,0,0
Buffalo,Nebraska,40.85486962,-99.07500296,14,1,0
Chippewa,Wisconsin,45.06939744,-91.28068855,14,0,0
Cortland,New York,42.59509207,-76.07048931,14,0,0
Craven,North Carolina,35.11833364,-77.08398081,14,0,0
Davie,North Carolina,35.93099927,-80.54496571,14,2,0
Dodge,Wisconsin,43.41576662,-88.70928178,14,0,0
Fayette,Indiana,39.63684962,-85.17797541,14,3,0
Franklin,North Carolina,36.081519,-78.28708884,14,0,0
Houston,Alabama,31.15197924,-85.29939599,14,1,0
Jefferson,Ohio,40.38614126,-80.76259514,14,0,0
Ketchikan Gateway,Alaska,55.57445008,-130.975561,14,0,0
Lincoln,Mississippi,31.53288662,-90.45391915,14,0,0
Manassas,Virginia,38.7464321,-77.48509905,14,0,0
Mercer,Pennsylvania,41.30248872,-80.25816981,14,0,0
Montgomery,Indiana,40.04034823,-86.89335024,14,0,0
Platte,Missouri,39.38154439,-94.77068479,14,0,0
Putnam,Indiana,39.66437981,-86.84517605,14,1,0
Richland,Ohio,40.77180308,-82.5379961,14,0,0
St. Francois,Missouri,37.81214171,-90.47598685,14,0,0
Tate,Mississippi,34.65133709,-89.94485778,14,0,0
Ward,North Dakota,48.22390169,-101.5436763,14,0,0
Yankton,South Dakota,43.00924485,-97.39467635,14,0,0
Yuma,Arizona,32.76895712,-113.9066674,14,0,0
Allen,Ohio,40.77285242,-84.10802343,15,0,0
Beauregard,Louisiana,30.64836518,-93.34173616,15,0,0
Bryan,Georgia,32.00979311,-81.44002948,15,1,0
Chickasaw,Mississippi,33.91983202,-88.9481545,15,2,0
Chilton,Alabama,32.85044126,-86.7173256,15,0,0
Cleveland,North Carolina,35.33553364,-81.55204486,15,0,0
Clinton,Iowa,41.89981633,-90.53275096,15,0,0
Coffee,Georgia,31.54892966,-82.8549206,15,0,0
Cullman,Alabama,34.13020303,-86.86888037,15,1,0
Dooly,Georgia,32.15630737,-83.79746561,15,1,0
Grant,Indiana,40.51587228,-85.65468702,15,0,0
Hardin,Texas,30.33364686,-94.38931817,15,1,0
Jasper,Indiana,41.02078733,-87.11553319,15,1,0
Jessamine,Kentucky,37.87119786,-84.58252003,15,0,0
Kauai,Hawaii,22.03935037,-159.5966786,15,0,0
Laurens,Georgia,32.46325233,-82.92221316,15,0,0
Lincoln,Nebraska,41.04658298,-100.7475374,15,1,0
Madison,Ohio,39.89381073,-83.40178317,15,2,0
Nacogdoches,Texas,31.62017125,-94.61803994,15,2,0
Natchitoches,Louisiana,31.72321584,-93.09816516,15,0,0
Rockingham,Virginia,38.51006137,-78.87260325,15,0,0
Tunica,Mississippi,34.64967704,-90.37481167,15,1,0
Vermilion,Louisiana,29.83517605,-92.30292538,15,1,0
Walworth,Wisconsin,42.66858202,-88.54163073,15,0,0
Whiteside,Illinois,41.75509713,-89.91556058,15,1,0
Adams,Mississippi,31.47669768,-91.35326037,16,0,0
Alamance,North Carolina,36.0434701,-79.39976137,16,0,0
Allamakee,Iowa,43.28383218,-91.37860922,16,1,0
Allegany,New York,42.25748406,-78.02750466,16,1,0
Cache,Utah,41.72330587,-111.7443667,16,0,0
Cape Girardeau,Missouri,37.38489388,-89.6843587,16,0,0
Carteret,North Carolina,34.8932941,-76.54120135,16,0,0
Christian,Missouri,36.9711783,-93.18537118,16,0,0
Craighead,Arkansas,35.83018283,-90.63235729,16,0,0
Decatur,Georgia,30.87967778,-84.57619536,16,0,0
Dukes and Nantucket,Massachusetts,41.40674725,-70.68763497,16,0,0
Eau Claire,Wisconsin,44.726614,-91.28609183,16,0,0
Greene,Tennessee,36.17470125,-82.84691273,16,1,0
Gregg,Texas,32.47940482,-94.81591935,16,0,0
Lauderdale,Alabama,34.90171875,-87.65624729,16,2,0
Lee,South Carolina,34.16393091,-80.25690731,16,1,0
Lincoln,Missouri,39.05345619,-90.95588181,16,0,0
Lonoke,Arkansas,34.75392199,-91.88742357,16,0,0
Marion,Tennessee,35.12997174,-85.62265895,16,1,0
Merced,California,37.18922369,-120.7209035,16,0,0
Morton,North Dakota,46.71681782,-101.2822377,16,1,0
Onslow,North Carolina,34.72607366,-77.42908179,16,1,0
Pawnee,Oklahoma,36.31743373,-96.7033176,16,1,0
Pierce,Georgia,31.35928155,-82.21598442,16,0,0
Pointe Coupee,Louisiana,30.71409502,-91.60209535,16,0,0
Prince George,Virginia,37.18497668,-77.22922187,16,0,0
Randolph,Georgia,31.76622818,-84.75732369,16,0,0
Sutter,California,39.03417539,-121.6945899,16,1,0
Talladega,Alabama,33.37823223,-86.16886178,16,0,0
Walton,Georgia,33.78017694,-83.73552314,16,0,0
Washington,Indiana,38.60219804,-86.1049363,16,0,0
Washington,New York,43.31153794,-73.43043448,16,0,0
Whitfield,Georgia,34.80987459,-84.96093476,16,1,0
Belmont,Ohio,40.01625942,-80.9924051,17,0,0
Benton,Oregon,44.49167306,-123.4316987,17,1,0
Bowie,Texas,33.44626922,-94.41834132,17,1,0
Carroll,New Hampshire,43.87498583,-71.20430216,17,0,0
Christian,Illinois,39.54581621,-89.27780482,17,2,0
Georgetown,South Carolina,33.43443342,-79.33202141,17,1,0
Holmes,Mississippi,33.12345854,-90.08923538,17,1,0
Jefferson,West Virginia,39.30776166,-77.86014147,17,0,0
Lamoille,Vermont,44.60353043,-72.64356694,17,0,0
Lincoln,Louisiana,32.6003154,-92.6659741,17,0,0
Marion,Alabama,34.13697363,-87.88704173,17,2,0
Marshall,Alabama,34.36975964,-86.30486727,17,0,0
Midland,Michigan,43.64330771,-84.38804374,17,0,0
Mower,Minnesota,43.67142874,-92.75234549,17,0,0
Muskogee,Oklahoma,35.61318461,-95.37802952,17,2,0
Pickens,South Carolina,34.88807695,-82.72791551,17,0,0
Scott,Mississippi,32.4067041,-89.53789439,17,0,0
Suwannee,Florida,30.19746066,-82.9909967,17,0,0
Tooele,Utah,40.44862644,-113.1295715,17,0,0
Washington,Texas,30.21498498,-96.40946246,17,1,0
Callaway,Missouri,38.83674754,-91.92186505,18,0,0
Columbia,Wisconsin,43.46492199,-89.33589004,18,0,0
Cowlitz,Washington,46.19074721,-122.6782231,18,0,0
Fayette,Tennessee,35.19615831,-89.41399032,18,0,0
Herkimer,New York,43.42034246,-74.96145307,18,3,0
Isle of Wight,Virginia,36.90579348,-76.70842863,18,0,0
Lancaster,Nebraska,40.78416049,-96.68777155,18,0,0
Livingston,New York,42.72596275,-77.77966158,18,1,0
Missoula,Montana,47.03728583,-113.9213508,18,1,0
Nash,North Carolina,35.96575634,-77.98422508,18,0,0
Polk,Georgia,34.00267074,-85.18677781,18,0,0
Putnam,Florida,29.60779729,-81.74230285,18,1,0
Sauk,Wisconsin,43.42574087,-89.94966132,18,2,0
Spotsylvania,Virginia,38.18574462,-77.655399,18,0,0
Sullivan,Tennessee,36.51240691,-82.30412917,18,1,0
Sunflower,Mississippi,33.60192578,-90.58882684,18,1,0
Ware,Georgia,31.05449097,-82.42224148,18,3,0
Warren,Kentucky,36.99903045,-86.42672751,18,0,0
West Feliciana,Louisiana,30.87882871,-91.4148538,18,0,0
Wyoming,New York,42.70145109,-78.22199579,18,1,0
Chaffee,Colorado,38.74745778,-106.1926573,19,2,0
Darlington,South Carolina,34.33358335,-79.96027485,19,0,0
DeKalb,Illinois,41.89373302,-88.76958483,19,0,0
Elmore,Alabama,32.59785413,-86.14415284,19,0,0
Erie,Pennsylvania,41.99253829,-80.03301954,19,0,0
Evangeline,Louisiana,30.72985248,-92.39915924,19,0,0
Franklin,Louisiana,32.13675181,-91.67589857,19,0,0
Harrison,West Virginia,39.2853852,-80.37919577,19,0,0
Jefferson,Washington,47.75003077,-123.5609704,19,0,0
La Crosse,Wisconsin,43.90632465,-91.11451093,19,0,0
LaPorte,Indiana,41.54366008,-86.74072188,19,2,0
Lyon,Kansas,38.45576156,-96.15275715,19,0,0
Madison,Tennessee,35.61181957,-88.84076036,19,0,0
Mono,California,37.93899289,-118.8872409,19,1,0
Montour,Pennsylvania,41.03023987,-76.66345939,19,0,0
Outagamie,Wisconsin,44.41578887,-88.46565023,19,0,0
Tuscarawas,Ohio,40.44214695,-81.47226262,19,0,0
Union,Louisiana,32.83121059,-92.3749373,19,0,0
Washington,Nebraska,41.52815707,-96.22019892,19,0,0
Yazoo,Mississippi,32.77890365,-90.39656148,19,1,0
York,Virginia,37.24374789,-76.54412815,19,1,0
Adams,Washington,46.98299757,-118.5601734,20,0,0
Androscoggin,Maine,44.1664747,-70.20380627,20,0,0
Camden,Missouri,38.02199522,-92.76083747,20,1,0
Claiborne,Louisiana,32.82308512,-92.99526883,20,2,0
Clermont,Ohio,39.04847534,-84.15375786,20,1,0
Columbia,Pennsylvania,41.04821986,-76.40565017,20,0,0
Flathead,Montana,48.29575866,-114.0520569,20,0,0
Genesee,New York,43.0022601,-78.19135193,20,1,0
Jefferson,New York,44.04200959,-75.94653457,20,0,0
Le Sueur,Minnesota,44.37136597,-93.72844721,20,0,0
Marshall,Mississippi,34.76216286,-89.50299462,20,1,0
Mesa,Colorado,39.01787888,-108.469799,20,0,0
Napa,California,38.50735751,-122.332839,20,2,0
Payne,Oklahoma,36.07695283,-96.97584944,20,0,0
Pickaway,Ohio,39.64170392,-83.0243386,20,0,0
Polk,Oregon,44.90322804,-123.4128888,20,1,0
Randolph,Illinois,38.05095369,-89.82512254,20,0,0
Rock,Wisconsin,42.67151616,-89.071479,20,1,0
Sheboygan,Wisconsin,43.72099677,-87.94579284,20,1,0
Suffolk,Virginia,36.70155394,-76.63603554,20,0,0
Tallapoosa,Alabama,32.86698258,-85.79833053,20,1,0
Tom Green,Texas,31.40464436,-100.462443,20,0,0
Tuscola,Michigan,43.46606813,-83.41897025,20,2,0
Van Buren,Arkansas,35.58095779,-92.51295036,20,0,0
Warren,New York,43.56173026,-73.8433699,20,0,0
Adams,Pennsylvania,39.87140411,-77.21610347,21,0,0
Beadle,South Dakota,44.41464384,-98.27858469,21,1,0
Bradley,Tennessee,35.15739424,-84.857186,21,0,0
Bristol,Rhode Island,41.71018079,-71.28652315,21,0,0
Calhoun,Alabama,33.77483727,-85.82630386,21,0,0
Charlottesville,Virginia,38.03527919,-78.48569588,21,1,0
Chatham,North Carolina,35.70394416,-79.25541492,21,0,0
Comal,Texas,29.80811278,-98.27647225,21,2,0
Gordon,Georgia,34.50487351,-84.87296253,21,2,0
Johnson,Texas,32.37877812,-97.36615819,21,1,0
Kennebec,Maine,44.40759555,-69.76738544,21,1,0
Lafayette,Mississippi,34.35687874,-89.48490961,21,1,0
Lane,Oregon,43.93727035,-122.847753,21,1,0
Lincoln,South Dakota,43.27841182,-96.7203905,21,0,0
Maury,Tennessee,35.6187413,-87.07462444,21,0,0
Nassau,Florida,30.61037141,-81.80297522,21,0,0
Saline,Arkansas,34.64916145,-92.67583224,21,0,0
Walton,Florida,30.64204028,-86.16935664,21,0,0
Washington,Vermont,44.27343241,-72.61604978,21,0,0
Windsor,Vermont,43.58010937,-72.58595157,21,1,0
Barrow,Georgia,33.99148694,-83.71436292,22,2,0
Cass,Missouri,38.64789422,-94.353399,22,1,0
Catawba,North Carolina,35.66211129,-81.2132617,22,1,0
Dickson,Tennessee,36.14669837,-87.35891709,22,0,0
Dona Ana,New Mexico,32.35275771,-106.8329387,22,0,0
East Feliciana,Louisiana,30.84425359,-91.04976723,22,0,0
Ector,Texas,31.86898877,-102.5429428,22,0,0
El Dorado,California,38.77965956,-120.5233166,22,0,0
Harrisonburg,Virginia,38.43542574,-78.87536254,22,0,0
Hawaii,Hawaii,19.60121157,-155.5210167,22,0,0
Lawrence,Pennsylvania,40.99206278,-80.33393706,22,2,0
Leflore,Mississippi,33.55545125,-90.29900733,22,1,0
Midland,Texas,31.86904128,-102.0315682,22,1,0
Oconee,Georgia,33.83749973,-83.43679568,22,0,0
Otsego,Michigan,45.02085831,-84.59898295,22,1,0
Penobscot,Maine,45.40194593,-68.65020455,22,0,0
Perry,Missouri,37.70660776,-89.82741088,22,0,0
Shiawassee,Michigan,42.953928,-84.14585902,22,0,0
Stark,North Dakota,46.80851182,-102.6576326,22,0,0
Washington,Tennessee,36.29472368,-82.4945472,22,2,0
Washington,Utah,37.28003525,-113.504698,22,1,0
Bay,Florida,30.26548745,-85.62122584,23,1,0
Bennington,Vermont,43.03519828,-73.09048868,23,0,0
Christian,Kentucky,36.89267803,-87.49055367,23,0,0
Coffey,Kansas,38.2365018,-95.73379515,23,1,0
Cumberland,Tennessee,35.95271721,-84.99840585,23,0,0
Fayette,Pennsylvania,39.92041012,-79.64291195,23,1,0
Franklin,Vermont,44.85627605,-72.91249563,23,0,0
Natrona,Wyoming,42.96180148,-106.797885,23,0,0
Pike,Mississippi,31.17507789,-90.40392572,23,0,0
San Benito,California,36.60308176,-121.069975,23,2,0
White,Arkansas,35.25688493,-91.74908296,23,0,0
Wood,Ohio,41.36224827,-83.62285108,23,0,0
Yamhill,Oregon,45.23330449,-123.3086963,23,3,0
Aiken,South Carolina,33.54338026,-81.63645384,24,1,0
Bay,Michigan,43.70639106,-83.98731479,24,0,0
Brown,Wisconsin,44.4526553,-88.00411844,24,0,0
Brunswick,North Carolina,34.070565,-78.22814204,24,1,0
Chelan,Washington,47.87046092,-120.6173956,24,3,0
Dubuque,Iowa,42.46815349,-90.88181925,24,1,0
Franklin,Missouri,38.41127108,-91.07522826,24,0,0
Frederick,Virginia,39.20172582,-78.25974949,24,0,0
Granville,North Carolina,36.30337451,-78.65184241,24,0,0
Greene,New York,42.275797,-74.12384884,24,0,0
Harnett,North Carolina,35.36731853,-78.87243571,24,1,0
Morgan,Alabama,34.45500589,-86.85475946,24,0,0
Oktibbeha,Mississippi,33.42491685,-88.87905132,24,0,0
Potter,Texas,35.40133773,-101.893964,24,0,0
Randall,Texas,34.96585996,-101.8971322,24,0,0
Rutland,Vermont,43.57723578,-73.03741676,24,0,0
Spalding,Georgia,33.26310031,-84.28013991,24,1,0
Winnebago,Wisconsin,44.06886922,-88.64477096,24,0,0
Crisp,Georgia,31.92289565,-83.76811843,25,0,0
Henderson,North Carolina,35.33788927,-82.4766782,25,1,0
La Plata,Colorado,37.28632032,-107.8429014,25,0,0
Osage,Oklahoma,36.62888819,-96.39635704,25,2,0
Salem,New Jersey,39.58719656,-75.3469663,25,2,0
Sangamon,Illinois,39.75836914,-89.65872023,25,2,0
St. Clair,Alabama,33.71902176,-86.31029372,25,0,0
Washington,Arkansas,35.976844,-94.21800746,25,0,0
Wayne,Ohio,40.82925852,-81.88844833,25,0,0
Wilkinson,Mississippi,31.16078225,-91.31018819,25,3,0
Windham,Vermont,42.986982,-72.71268875,25,0,0
Delaware,New York,42.19837623,-74.96709306,26,1,0
Etowah,Alabama,34.04567266,-86.04051873,26,3,0
Guadalupe,Texas,29.58165339,-97.94786822,26,0,0
Lafayette,Missouri,39.06986886,-93.78076396,26,1,0
Montrose,Colorado,38.40214114,-108.2639022,26,1,0
Orangeburg,South Carolina,33.4391073,-80.79886287,26,0,0
Otsego,New York,42.63492579,-75.03151402,26,1,0
Portsmouth,Virginia,36.85914825,-76.35971629,26,0,0
Randolph,North Carolina,35.71015088,-79.80570339,26,1,0
Sarpy,Nebraska,41.11314181,-96.11156432,26,0,0
Thomas,Georgia,30.86392347,-83.91847289,26,0,0
Albemarle,Virginia,38.02080697,-78.55481085,27,0,0
Clark,Arkansas,34.04613432,-93.17484713,27,0,0
Coahoma,Mississippi,34.22772299,-90.60415045,27,1,0
Franklin,Pennsylvania,39.92956518,-77.72157791,27,0,0
Glynn,Georgia,31.23279254,-81.53811412,27,0,0
Howard,Indiana,40.48527731,-86.11351892,27,2,0
Jackson,Oregon,42.43201126,-122.7289309,27,0,0
Lapeer,Michigan,43.09052506,-83.22153148,27,0,0
Lenawee,Michigan,41.89475156,-84.06603727,27,0,0
Muscatine,Iowa,41.48370744,-91.1121697,27,1,0
Shawnee,Kansas,39.04100763,-95.7557264,27,2,0
Taylor,Texas,32.30163422,-99.89007449,27,1,0
Cole,Missouri,38.50455671,-92.27860244,28,0,0
Darke,Ohio,40.13412966,-84.6194517,28,2,0
Harrison,Indiana,38.19467379,-86.10948271,28,1,0
Jackson,Indiana,38.9091582,-86.03851889,28,0,0
Lee,Mississippi,34.2918775,-88.68149954,28,1,0
Madera,California,37.21513971,-119.7665589,28,1,0
Oswego,New York,43.42778894,-76.14635194,28,0,0
Routt,Colorado,40.48596505,-106.9905548,28,0,0
Tippecanoe,Indiana,40.38872739,-86.89413959,28,1,0
Wayne,Pennsylvania,41.64938475,-75.29956506,28,0,0
Wilson,North Carolina,35.70625477,-77.917978,28,1,0
Baldwin,Alabama,30.72774991,-87.72207058,29,1,0
Ellis,Texas,32.34894117,-96.79371841,29,2,0
Flagler,Florida,29.45933576,-81.31508595,29,1,0
Jefferson,Texas,29.8832777,-94.16434171,29,1,0
Johnson,Missouri,38.74719601,-93.80691168,29,0,0
Kay,Oklahoma,36.81799745,-97.14421435,29,1,0
Rock Island,Illinois,41.46613806,-90.57042164,29,0,0
Tama,Iowa,42.07991767,-92.53266945,29,0,0
Washington,Maryland,39.60835778,-77.82002295,29,0,0
Dearborn,Indiana,39.14647946,-84.97333539,30,1,0
Fond du Lac,Wisconsin,43.75354908,-88.48885325,30,2,0
Hancock,Mississippi,30.41830223,-89.48851033,30,1,0
Highlands,Florida,27.34254618,-81.34071957,30,2,0
Wayne,New York,43.15494365,-77.02976528,30,0,0
Buncombe,North Carolina,35.61113393,-82.53305,31,1,0
Clinton,New York,44.74530905,-73.67875352,31,0,0
Elkhart,Indiana,41.59761169,-85.85875695,31,3,0
Limestone,Alabama,34.81185586,-86.98310072,31,0,0
Muskegon,Michigan,43.29123859,-86.15176712,31,2,0
Nevada,California,39.30394768,-120.7627281,31,1,0
Ontario,New York,42.85145728,-77.30874425,31,0,0
Pueblo,Colorado,38.17359144,-104.5127437,31,2,0
Tippah,Mississippi,34.76872156,-88.90988194,31,3,0
Tipton,Tennessee,35.501942,-89.73694895,31,0,0
Washington,Mississippi,33.28392041,-90.94196237,31,0,0
Windham,Connecticut,41.82972709,-71.98182316,31,1,0
Canadian,Oklahoma,35.5426055,-97.98465569,32,1,0
Clay,Missouri,39.31132056,-94.41850862,32,0,0
Douglas,Kansas,38.88503636,-95.2925121,32,0,0
Johnston,North Carolina,35.51745004,-78.36622717,32,3,0
Martin,Minnesota,43.67429718,-94.55099908,32,2,0
Shelby,Indiana,39.52305623,-85.7915857,32,0,0
Troup,Georgia,33.03349196,-85.02812115,32,1,0
Victoria,Texas,28.79780988,-96.96813006,32,0,0
Calvert,Maryland,38.53961642,-76.56820632,33,1,0
Cecil,Maryland,39.56647682,-75.94627411,33,1,0
Columbia,Georgia,33.54534185,-82.263524,33,0,0
Dallas,Iowa,41.68560356,-94.04127625,33,0,0
Delaware,Indiana,40.22787247,-85.39732772,33,1,0
Hopkins,Kentucky,37.30939025,-87.54670406,33,2,0
Kenton,Kentucky,38.93950319,-84.53241199,33,3,0
Leavenworth,Kansas,39.20183497,-95.03620809,33,0,0
Muscogee,Georgia,32.50931999,-84.87142262,33,0,0
Newport,Rhode Island,41.5642026,-71.26569799,33,0,0
Twin Falls,Idaho,42.35440512,-114.6685381,33,1,0
Washington,Oklahoma,36.71380786,-95.90514104,33,1,0
Addison,Vermont,44.03217337,-73.14130877,34,0,0
Blount,Tennessee,35.68938198,-83.92847788,34,0,0
Bolivar,Mississippi,33.79696941,-90.87372121,34,1,0
Burleigh,North Dakota,46.97847375,-100.4645214,34,0,0
Calhoun,Michigan,42.24633834,-85.00493569,34,1,0
Citrus,Florida,28.84804315,-82.47614748,34,2,0
Forrest,Mississippi,31.18961454,-89.25832496,34,0,0
St. Mary's,Maryland,38.30058422,-76.6062928,34,0,0
Tift,Georgia,31.45743864,-83.5236119,34,0,0
Washington,Rhode Island,41.45961631,-71.61435303,34,0,0
Florence,South Carolina,34.02361754,-79.70189312,35,5,0
Jennings,Indiana,38.99588883,-85.62710784,35,0,0
Lowndes,Georgia,30.83568832,-83.27056716,35,1,0
Pitt,North Carolina,35.59535426,-77.37353178,35,0,0
Vanderburgh,Indiana,38.02658833,-87.58763124,35,0,0
Warren,Ohio,39.42581994,-84.16557457,35,0,0
Worth,Georgia,31.55162306,-83.85090513,35,1,0
Anoka,Minnesota,45.27476015,-93.24604565,36,0,0
Avoyelles,Louisiana,31.07796211,-92.00079449,36,1,0
Bibb,Georgia,32.80904227,-83.70489165,36,1,0
Broomfield,Colorado,39.95998787,-105.0566324,36,2,0
Chemung,New York,42.13891056,-76.7638805,36,0,0
Columbiana,Ohio,40.76932373,-80.78094576,36,5,0
Deschutes,Oregon,43.91570171,-121.2289121,36,0,0
Fairfield,Ohio,39.75107189,-82.63088163,36,0,0
Fremont,Wyoming,43.04183996,-108.6296893,36,0,0
Lawrence,Indiana,38.84112637,-86.48361629,36,5,0
Matagorda,Texas,28.81955746,-96.01230294,36,2,0
Merrimack,New Hampshire,43.29662971,-71.6811573,36,0,0
Strafford,New Hampshire,43.291833,-71.02336013,36,0,0
Teton,Wyoming,43.93522482,-110.5890801,36,0,0
Winnebago,Illinois,42.33641854,-89.16085327,36,1,0
Comanche,Oklahoma,34.65973764,-98.47195055,37,0,0
Hillsdale,Michigan,41.88753639,-84.59312019,37,2,0
Kootenai,Idaho,47.67282258,-116.7020872,37,0,0
Linn,Oregon,44.48899494,-122.5373154,37,2,0
Yolo,California,38.68278902,-121.9018288,37,1,0
Geauga,Ohio,41.49952319,-81.17935342,38,0,0
Grafton,New Hampshire,43.93779815,-71.82057197,38,0,0
Maui,Hawaii,20.86399628,-156.5689097,38,0,0
Northampton,North Carolina,36.41736238,-77.39769443,38,1,0
Pitkin,Colorado,39.21720112,-106.9310027,38,2,0
Scott,Iowa,41.63935978,-90.61959493,38,0,0
Stafford,Virginia,38.41758738,-77.45917053,38,0,0
Yellowstone,Montana,45.93955949,-108.2691486,38,0,0
Allen,Louisiana,30.65385745,-92.82442028,39,3,0
Centre,Pennsylvania,40.92058903,-77.82200624,39,0,0
Chenango,New York,42.49430041,-75.60887553,39,0,0
Hampton,Virginia,37.03513786,-76.35879121,39,1,0
Lancaster,South Carolina,34.68270843,-80.70513032,39,0,0
Ottawa,Michigan,42.95996803,-85.9969107,39,0,0
Cumberland,New Jersey,39.37199394,-75.10712559,40,2,0
Faulkner,Arkansas,35.14719007,-92.33717519,40,1,0
Garland,Arkansas,34.57692074,-93.14921604,40,0,0
Hall,Nebraska,40.87257079,-98.50218293,40,1,0
Hernando,Florida,28.55364461,-82.42700204,40,0,0
McLean,Illinois,40.48996987,-88.84621113,40,2,0
Monongalia,West Virginia,39.63218457,-80.04766838,40,0,0
Wagoner,Oklahoma,35.96024096,-95.51911308,40,2,0
West Baton Rouge,Louisiana,30.46058217,-91.30989571,40,4,0
Floyd,Indiana,38.32117957,-85.90385377,41,0,0
Racine,Wisconsin,42.74753117,-88.05941254,41,0,0
Apache,Arizona,35.39465006,-109.4892383,42,0,0
Benton,Arkansas,36.33644656,-94.25680817,42,0,0
Cumberland,North Carolina,35.04762133,-78.82623165,42,0,0
Iredell,North Carolina,35.80950511,-80.8743128,42,0,0
Laramie,Wyoming,41.3070252,-104.6887497,42,0,0
Leon,Florida,30.45955727,-84.27491114,42,0,0
Marion,Florida,29.21227113,-82.05803627,42,0,0
Monroe,Florida,25.20904673,-81.07812416,42,2,0
New Hanover,North Carolina,34.25758282,-77.87075626,42,0,0
Webster,Louisiana,32.70847669,-93.33121835,42,2,0
Creek,Oklahoma,35.90230551,-96.37086028,43,1,0
Crittenden,Arkansas,35.21247318,-90.30839406,43,0,0
Gaston,North Carolina,35.29373559,-81.17477045,43,1,0
Newton,Georgia,33.55514538,-83.8454714,43,1,0
Pearl River,Mississippi,30.77090935,-89.58677275,43,1,0
Tuscaloosa,Alabama,33.28726072,-87.52556818,43,0,0
Yavapai,Arizona,34.59933926,-112.5538588,43,0,0
Harford,Maryland,39.55010644,-76.3077594,44,0,0
Humboldt,California,40.69923009,-123.876044,44,0,0
Rowan,North Carolina,35.64003916,-80.52446628,44,1,0
Bartholomew,Indiana,39.20744865,-85.89558181,45,0,0
Berkeley,South Carolina,33.20222596,-79.94654523,45,0,0
Clarendon,South Carolina,33.66610974,-80.21647898,45,1,0
Dorchester,South Carolina,33.0794369,-80.40502652,45,0,0
Garfield,Colorado,39.59921777,-107.902708,45,1,0
Kalamazoo,Michigan,42.24542231,-85.53038622,45,3,0
Monroe,Indiana,39.16130004,-86.52414358,45,0,0
St. Landry,Louisiana,30.59724262,-92.00135806,45,2,0
Carbon,Pennsylvania,40.91545395,-75.7068525,46,1,0
Charlotte,Florida,26.90131002,-81.92949121,46,1,0
Colquitt,Georgia,31.18810588,-83.7677946,46,3,0
Fairbanks North Star,Alaska,64.80726247,-146.5692662,46,0,0
Franklin,Washington,46.53351425,-118.9018212,46,1,0
McKinley,New Mexico,35.5800772,-108.262245,46,0,0
Montgomery,Tennessee,36.49609412,-87.38550661,46,1,0
Washington,Pennsylvania,40.19208869,-80.24582867,46,0,0
Wichita,Texas,33.98842886,-98.7041034,46,0,0
Kendall,Illinois,41.59081014,-88.42869583,47,2,0
Madison,Illinois,38.83042506,-89.90422563,47,0,0
Nueces,Texas,27.736286,-97.5433285,47,0,0
Washington,Iowa,41.33577126,-91.71725711,47,2,0
Cass,North Dakota,46.93201724,-97.2444719,48,1,0
Kanawha,West Virginia,38.33860077,-81.52857054,48,0,0
Newport News,Virginia,37.08166899,-76.51754109,48,1,0
Paulding,Georgia,33.91969522,-84.86848792,48,0,0
Berkeley,West Virginia,39.46704621,-78.02414609,49,0,0
Walker,Alabama,33.80270512,-87.30027177,49,0,0
Boone,Indiana,40.0509304,-86.46841646,50,0,0
Cape May,New Jersey,39.15008829,-74.80170244,50,0,0
Franklin,Indiana,39.4142482,-85.06062647,50,6,0
Hays,Texas,30.05669873,-98.02944344,50,0,0
Indian River,Florida,27.69308961,-80.60556721,50,0,0
Licking,Ohio,40.09136236,-82.48185785,50,1,0
McLennan,Texas,31.55255453,-97.20217694,50,1,0
Ozaukee,Wisconsin,43.38352225,-87.94625009,50,5,0
Santa Rosa,Florida,30.6934145,-87.02458128,50,2,0
Summit,Colorado,39.63803232,-106.1150762,50,0,0
Porter,Indiana,41.45986947,-87.06848888,51,0,0
Richmond,Georgia,33.35777107,-82.07026432,51,1,0
Ripley,Indiana,39.10235626,-85.26212744,51,2,0
Robertson,Tennessee,36.52454807,-86.87346725,51,0,0
Mitchell,Georgia,31.22483255,-84.19381821,52,1,0
Orange,North Carolina,36.06092947,-79.12167935,52,0,0
Putnam,Tennessee,36.14005459,-85.50646123,52,0,0
Santa Fe,New Mexico,35.50708973,-105.9774716,52,0,0
St. Lawrence,New York,44.4976179,-75.06550039,52,0,0
Terrell,Georgia,31.77527543,-84.44069698,52,2,0
Washington,Wisconsin,43.36863664,-88.22974712,52,1,0
Davidson,North Carolina,35.79115496,-80.21256572,53,0,0
Eaton,Michigan,42.59599185,-84.83740035,53,2,0
Jefferson,Arkansas,34.26767081,-91.92619839,53,0,0
Martin,Florida,27.0772071,-80.43109784,53,0,0
Clinton,Michigan,42.94400871,-84.60145248,54,1,0
Cumberland,Pennsylvania,40.1625372,-77.26130755,54,2,0
Washington,Minnesota,45.03864533,-92.88429635,54,0,0
Champaign,Illinois,40.13919438,-88.20046615,55,0,0
Daviess,Kentucky,37.73028906,-87.0901948,55,1,0
Imperial,California,33.0393082,-115.3669042,55,1,0
Norfolk,Virginia,36.89934014,-76.26420872,55,0,0
Assumption,Louisiana,29.89946234,-91.06461642,56,0,0
Berrien,Michigan,41.95447397,-86.4131308,56,1,0
Dakota,Minnesota,44.67172617,-93.06299363,56,1,0
Columbia,New York,42.24819348,-73.63089095,57,2,0
Hancock,Indiana,39.82304555,-85.77566351,57,2,0
Monterey,California,36.21862405,-121.2413397,57,2,0
New London,Connecticut,41.48896435,-72.10430976,57,3,0
Smith,Texas,32.37474036,-95.2717568,57,1,0
Bell,Texas,31.03736027,-97.4785025,58,1,0
Coweta,Georgia,33.35334302,-84.76129976,58,2,0
Houston,Georgia,32.45802497,-83.66879087,58,5,0
Stanislaus,California,37.55862499,-120.9970722,58,0,0
Allen,Indiana,41.09194313,-85.06800636,59,2,0
Butler,Ohio,39.44012838,-84.57388716,59,1,0
Kent,Rhode Island,41.67106337,-71.57641596,59,0,0
Okaloosa,Florida,30.69143028,-86.59267105,59,1,0
Santa Cruz,California,37.05580291,-122.0066524,59,1,0
Clarke,Georgia,33.95436462,-83.37124007,60,8,0
Morgan,Indiana,39.47899078,-86.44573375,60,1,0
Steuben,New York,42.2689144,-77.3829924,60,0,0
Clark,Indiana,38.48015445,-85.70510334,61,3,0
Lauderdale,Mississippi,32.40419769,-88.66229662,61,1,0
Cameron,Texas,26.14524221,-97.48140372,62,0,0
Early,Georgia,31.32155345,-84.90255207,62,1,0
Fayette,Georgia,33.41357794,-84.49089434,62,4,0
Montgomery,Alabama,32.2206831,-86.20969272,62,1,0
Forsyth,Georgia,34.22604035,-84.1231513,63,1,0
Horry,South Carolina,33.9212828,-78.99555293,63,4,0
Weber,Utah,41.27116049,-111.9145117,63,1,0
Chatham,Georgia,32.00043026,-81.12489526,64,3,0
Greene,Missouri,37.2575872,-93.34230916,64,7,0
Livingston,Louisiana,30.44143993,-90.73061664,64,1,0
St. Martin,Louisiana,30.13112107,-91.61403569,64,5,0
Thurston,Washington,46.9291895,-122.8290656,64,1,0
Acadia,Louisiana,30.2950649,-92.41419698,65,2,0
Broome,New York,42.15903158,-75.81326086,65,4,0
Cabarrus,North Carolina,35.3877799,-80.55267168,65,1,0
Chesapeake,Virginia,36.67670048,-76.30545744,65,0,0
Cleburne,Arkansas,35.53864922,-92.02640019,65,2,0
St. Mary,Louisiana,29.69262097,-91.44702164,65,0,0
Clackamas,Oregon,45.18787398,-122.2179634,66,3,0
Rankin,Mississippi,32.26469147,-89.94537876,66,1,0
Sandoval,New Mexico,35.68862401,-106.8687803,66,2,0
Madison,Mississippi,32.63389156,-90.03513564,67,0,0
Rensselaer,New York,42.71348136,-73.51089874,67,0,0
Union,North Carolina,34.98960527,-80.52955873,67,0,0
Alexandria,Virginia,38.814003,-77.08183073,68,0,0
Anderson,South Carolina,34.51828081,-82.63959517,68,3,0
Iberia,Louisiana,29.86803617,-91.75871777,68,3,0
Kankakee,Illinois,41.13746989,-87.86205334,68,3,0
Kent,Delaware,39.08646628,-75.56884914,68,2,0
Beaver,Pennsylvania,40.6825484,-80.34921611,69,6,0
Delaware,Ohio,40.27942393,-83.00457058,69,1,0
Jefferson,Missouri,38.25926778,-90.53870896,69,0,0
Miami,Ohio,40.0543329,-84.22871271,69,9,0
Montgomery,Ohio,39.75394919,-84.29050975,69,2,0
Harrison,Mississippi,30.51359752,-89.12467576,70,3,0
Rockdale,Georgia,33.65145002,-84.02202167,70,2,0
Wasatch,Utah,40.33110236,-111.1691419,70,0,0
