County,State,Lat,Long_,Confirmed,Deaths
New York City,New York,40.7672726,-73.97152637,81803,4571
Nassau,New York,40.74066522,-73.58941873,18548,500
Suffolk,New York,40.88320119,-72.8012172,17008,323
Westchester,New York,41.16278376,-73.75741653,15887,283
Cook,Illinois,41.84144849,-87.81658794,10520,310
Wayne,Michigan,42.278056,-83.378611,9626,446
Bergen,New Jersey,40.96010917,-74.07164325,7874,314
Los Angeles,California,34.30828379,-118.2282411,7559,198
Rockland,New York,41.15027894,-74.02560498,6413,154
Essex,New Jersey,40.78681335,-74.24657979,5598,276
Hudson,New Jersey,40.73766234,-74.07515667,5437,122
Miami-Dade,Florida,25.6112362,-80.55170587,5354,49
Orleans,Louisiana,30.06971951,-89.92660315,5070,208
Union,New Jersey,40.65835409,-74.30680092,4831,125
Philadelphia,Pennsylvania,40.00338507,-75.1379271,4777,87
Passaic,New Jersey,41.03238628,-74.29954144,4372,71
Middlesex,New Jersey,40.43629879,-74.41426991,4156,139
Fairfield,Connecticut,41.26809896,-73.3881171,4136,132
Jefferson,Louisiana,29.74075478,-90.11115756,4092,149
Orange,New York,41.40337468,-74.30240757,4075,107
Oakland,Michigan,42.66090111,-83.38595416,4007,234
King,Washington,47.49137892,-121.8346131,3688,244
Suffolk,Massachusetts,42.3279514,-71.07850442,3600,48
Middlesex,Massachusetts,42.48607732,-71.39049229,3545,80
Monmouth,New Jersey,40.26549699,-74.22240686,3038,86
Ocean,New Jersey,39.8895449,-74.28089251,2856,101
Macomb,Michigan,42.69158356,-82.92752801,2626,141
Morris,New Jersey,40.86095313,-74.5455371,2468,102
Broward,Florida,26.15184651,-80.48725556,2358,58
Harris,Texas,29.86,-95.39,2341,31
Marion,Indiana,39.78163624,-86.13826325,2290,58
Essex,Massachusetts,42.6687626,-70.94687179,2103,50
Clark,Nevada,36.21458855,-115.0130241,1878,65
Norfolk,Massachusetts,42.16073095,-71.20530408,1778,41
Snohomish,Washington,48.04615983,-121.7170703,1695,63
New Haven,Connecticut,41.4080325,-72.93620426,1664,60
Maricopa,Arizona,33.34835867,-112.4918154,1559,37
Montgomery,Pennsylvania,40.21053671,-75.36652296,1521,37
San Diego,California,33.03484597,-116.7365326,1454,31
Washington,D.C.,38.90417773,-77.01655992,1440,27
Milwaukee,Wisconsin,43.00486062,-87.96733172,1416,56
Dutchess,New York,41.7648606,-73.74356679,1395,10
Santa Clara,California,37.23104908,-121.6970462,1380,46
Erie,New York,42.76249024,-78.73063652,1335,45
Plymouth,Massachusetts,41.94070556,-70.80802823,1327,33
Dallas,Texas,32.76670599,-96.7779605,1324,20
Lehigh,Pennsylvania,40.6154815,-75.59435245,1319,12
Prince George's,Maryland,38.83070039,-76.8496441,1310,32
Worcester,Massachusetts,42.35026951,-71.90493363,1296,29
Fulton,Georgia,33.79216944,-84.46319413,1240,41
Palm Beach,Florida,26.64676272,-80.46536002,1206,69
St. Louis,Missouri,38.6377004,-90.4458375,1203,24
Riverside,California,33.74314981,-115.9933578,1179,32
Somerset,New Jersey,40.56465737,-74.61683016,1160,46
Luzerne,Pennsylvania,41.17823008,-75.98447579,1134,11
Montgomery,Maryland,39.13676329,-77.20358245,1088,26
Hampden,Massachusetts,42.13440424,-72.63235561,1081,62
Hartford,Connecticut,41.80283011,-72.73103891,1045,48
Lake,Illinois,42.3224907,-88.00367925,1041,23
Delaware,Pennsylvania,39.91680171,-75.40243663,1034,23
Orange,California,33.70147516,-117.7645998,1016,17
Mercer,New Jersey,40.28047017,-74.70479631,992,28
Dougherty,Georgia,31.53328528,-84.21722377,986,61
Cuyahoga,Ohio,41.424119,-81.65918339,960,23
Davidson,Tennessee,36.17007426,-86.78646056,946,13
East Baton Rouge,Louisiana,30.53842039,-91.09777565,935,33
Denver,Colorado,39.76018276,-104.8725695,927,33
Will,Illinois,41.44619267,-87.97862712,914,37
Shelby,Tennessee,35.1864775,-89.89692423,912,17
DuPage,Illinois,41.85116968,-88.08642662,875,30
Baltimore,Maryland,39.45784712,-76.62911955,866,13
Salt Lake,Utah,40.66616532,-111.9216011,858,7
Northampton,Pennsylvania,40.75182733,-75.30471829,857,17
Mecklenburg,North Carolina,35.24469268,-80.8317671,848,10
Camden,New Jersey,39.80343818,-74.96388753,838,22
Bristol,Massachusetts,41.79228404,-71.10872211,835,23
Providence,Rhode Island,41.87064746,-71.57753536,832,3
Bucks,Pennsylvania,40.33682119,-75.10836643,816,24
Caddo,Louisiana,32.57991587,-93.88375652,803,25
Orange,Florida,28.51367621,-81.31799498,803,10
Burlington,New Jersey,39.87681124,-74.66927768,801,17
Pierce,Washington,47.03892768,-122.1405958,795,16
Arapahoe,Colorado,39.64977461,-104.3353617,764,19
Franklin,Ohio,39.96995815,-83.01115755,761,12
St. Tammany,Louisiana,30.40942847,-89.95642711,733,18
Allegheny,Pennsylvania,40.46809875,-79.98167747,720,10
Genesee,Michigan,43.02244215,-83.70589709,713,39
DeKalb,Georgia,33.76944049,-84.22396017,706,11
San Francisco,California,37.75215114,-122.4385672,676,10
Alameda,California,37.64629437,-121.8929271,674,16
Monroe,Pennsylvania,41.05934058,-75.34031025,671,17
Monroe,New York,43.14638895,-77.69322942,651,34
New Castle,Delaware,39.57992638,-75.64054974,636,9
Hillsborough,Florida,27.9276559,-82.32013172,626,7
San Mateo,California,37.4228808,-122.3275546,617,21
Jefferson,Colorado,39.58635604,-105.2517692,610,23
Washtenaw,Michigan,42.253105,-83.83853204,610,13
Cobb,Georgia,33.94243204,-84.5761255,588,29
Tarrant,Texas,32.77143818,-97.29101614,588,19
Sacramento,California,38.45106826,-121.3425374,580,22
Weld,Colorado,40.55499405,-104.3929621,573,30
Baltimore City,Maryland,39.30211911,-76.61151012,571,10
Fairfax,Virginia,38.83677558,-77.27565836,570,9
Gwinnett,Georgia,33.96044201,-84.02137802,565,15
Lancaster,Pennsylvania,40.03904563,-76.24770128,561,14
Travis,Texas,30.33432034,-97.7853562,554,7
Duval,Florida,30.33225875,-81.66976468,549,10
San Bernardino,California,34.84060306,-116.1774685,547,17
Bexar,Texas,29.44928723,-98.52019748,503,18
Jefferson,Alabama,33.55554728,-86.895063,479,13
St. Louis City,Missouri,38.63555736,-90.24349225,476,12
El Paso,Colorado,38.83240149,-104.5251411,472,30
Anne Arundel,Maryland,39.00670238,-76.60329337,466,12
Pima,Arizona,32.0971334,-111.7890033,464,16
Contra Costa,California,37.91923498,-121.9289527,462,7
Lee,Florida,26.58410348,-81.88399313,462,14
Ulster,New York,41.89027881,-74.26252104,462,7
Lake,Indiana,41.41874274,-87.38277575,461,12
Ada,Idaho,43.4526575,-116.2415516,438,3
Hamilton,Ohio,39.19673558,-84.54502924,437,13
St. John the Baptist,Louisiana,30.12597499,-90.4753503,432,35
Blaine,Idaho,43.4085812,-113.9752658,428,4
Putnam,New York,41.42630093,-73.74965532,427,7
Barnstable,Massachusetts,41.72980578,-70.28854339,423,11
Onondaga,New York,43.00491923,-76.19971155,422,6
Adams,Colorado,39.87432092,-104.3362578,417,14
Fort Bend,Texas,29.52704478,-95.77219463,417,6
Berks,Pennsylvania,40.41570541,-75.92457766,416,12
Navajo,Arizona,35.402,-110.1403,404,1
Yakima,Washington,46.45738486,-120.7380126,400,17
Pinellas,Florida,27.93130349,-82.72239666,394,9
Hamilton,Indiana,40.07306535,-86.05244729,392,15
Sumner,Tennessee,36.46824103,-86.45917204,376,18
Eagle,Colorado,39.62754308,-106.6933637,374,5
Chester,Pennsylvania,39.97291773,-75.74768357,373,6
Lucas,Ohio,41.62101218,-83.65468618,371,16
Ascension,Louisiana,30.20406249,-90.9132841,366,15
Denton,Texas,33.20521901,-97.11691153,366,7
Wake,North Carolina,35.78879266,-78.65249174,365,0
Sussex,New Jersey,41.13891592,-74.69118243,357,21
Lafourche,Louisiana,29.52470226,-90.40976986,355,11
Hennepin,Minnesota,45.00761521,-93.47694895,344,18
Collin,Texas,33.18820114,-96.57264368,343,5
Albany,New York,42.60060306,-73.97723916,342,9
Gloucester,New Jersey,39.71581067,-75.13995546,340,7
Richland,South Carolina,34.01791263,-80.90267209,340,7
St. Charles,Louisiana,29.90709658,-90.35555967,328,19
Washoe,Nevada,40.66562265,-119.6631594,326,6
Jefferson,Kentucky,38.18664655,-85.65931031,319,22
Oklahoma,Oklahoma,35.55140095,-97.40716948,317,15
Honolulu,Hawaii,21.45803166,-157.9712182,312,4
Chittenden,Vermont,44.46322849,-73.08359212,308,4
Bernalillo,New Mexico,35.05163625,-106.6703554,307,8
Charleston,South Carolina,32.82487866,-79.96512315,305,1
Mahoning,Ohio,41.01631101,-80.77287029,305,28
St. Bernard,Louisiana,29.87761636,-89.51887093,304,10
Dane,Wisconsin,43.06601594,-89.41733797,303,11
Kane,Illinois,41.93842729,-88.42861412,296,19
Sullivan,New York,41.71579493,-74.76394559,296,7
Clayton,Georgia,33.54187245,-84.35594188,293,11
Tulsa,Oklahoma,36.11939621,-95.94013939,293,16
Henrico,Virginia,37.53460572,-77.39326555,291,2
Warren,New Jersey,40.85951833,-74.99556527,289,9
Coconino,Arizona,35.6648,-111.4753,288,14
Hillsborough,New Hampshire,42.91537785,-71.7200253,288,2
Williamson,Tennessee,35.89099229,-86.89281867,287,3
Lafayette,Louisiana,30.2049055,-92.06959876,285,10
Out of TN,Tennessee,,,282,0
Washington,Oregon,45.55972701,-123.0955257,282,6
Berkshire,Massachusetts,42.37428441,-73.20524838,281,18
Sussex,Delaware,38.66143781,-75.39031349,279,3
Collier,Florida,26.11091986,-81.34687065,277,3
Ouachita,Louisiana,32.47645559,-92.15704172,275,3
Howard,Maryland,39.25305293,-76.93126208,274,3
Summit,Utah,40.86688146,-110.9535882,273,0
Galveston,Texas,29.40167322,-94.90469073,272,5
Osceola,Florida,28.06312234,-81.14882926,272,4
Kern,California,35.34329425,-118.7277796,271,2
St. Charles,Missouri,38.77875681,-90.66662425,271,9
Tangipahoa,Louisiana,30.62888673,-90.40664996,269,4
Utah,Utah,40.1166722,-111.6657662,267,2
Lackawanna,Pennsylvania,41.43564672,-75.60379201,266,12
Prince William,Virginia,38.70916224,-77.48713689,263,1
Ventura,California,34.44465746,-119.0910613,263,7
Cumberland,Maine,43.8370751,-70.37226999,262,10
Multnomah,Oregon,45.54747959,-122.4169351,258,7
Hunterdon,New Jersey,40.56335249,-74.91284156,255,2
Litchfield,Connecticut,41.7937534,-73.2451475,255,9
Rockingham,New Hampshire,42.98499744,-71.12883377,255,1
Arlington,Virginia,38.8767675,-77.10139853,254,2
Mobile,Alabama,30.78472347,-88.20842409,249,8
Wyandotte,Kansas,39.11727348,-94.76378225,245,12
Douglas,Colorado,39.33133796,-104.930001,244,8
Johnson,Kansas,38.88548175,-94.82250877,244,11
Hendricks,Indiana,39.76719009,-86.51037283,243,6
Spokane,Washington,47.62113146,-117.4046494,239,13
Loudoun,Virginia,39.08990083,-77.63481877,238,1
Whatcom,Washington,48.82227976,-121.7490018,238,19
Durham,North Carolina,36.03638492,-78.87608331,236,1
Kansas City,Missouri,39.0997,-94.5786,234,7
York,Pennsylvania,39.9210089,-76.73040131,233,2
Johnson,Indiana,39.48994426,-86.10149107,230,8
Hall,Georgia,34.32207823,-83.81896936,228,0
Minnehaha,South Dakota,43.67441641,-96.7910885,228,2
San Joaquin,California,37.93433732,-121.2730061,223,13
Santa Barbara,California,34.65329488,-120.0188492,218,2
Seminole,Florida,28.7158582,-81.24060348,216,1
Henry,Georgia,33.4533428,-84.1481466,215,3
Marion,Oregon,44.90287942,-122.5815117,215,9
Greenville,South Carolina,34.89502264,-82.37295012,214,3
Cleveland,Oklahoma,35.20413532,-97.32519562,212,14
Summit,Ohio,41.12464734,-81.53123079,211,12
Montgomery,Texas,30.30079133,-95.50572772,210,4
Terrebonne,Louisiana,29.37343766,-90.82626855,209,14
Lee,Georgia,31.7793306,-84.14324253,208,15
Boulder,Colorado,40.09313619,-105.3546767,207,3
Kent,Michigan,43.03197711,-85.54934642,207,8
Virginia Beach,Virginia,36.73285734,-76.04566934,207,1
Polk,Florida,27.95027105,-81.69732947,206,5
Ingham,Michigan,42.59716886,-84.37472069,205,2
Kent,Delaware,39.08646628,-75.56884914,201,4
Frederick,Maryland,39.47296601,-77.39999394,199,4
Linn,Iowa,42.07923082,-91.59809485,197,8
Rutherford,Tennessee,35.84591405,-86.4107263,193,3
Bartow,Georgia,34.23732119,-84.83887523,192,12
Calcasieu,Louisiana,30.22931235,-93.35400434,191,4
Lubbock,Texas,33.61008596,-101.8204789,191,6
Clark,Washington,45.77568046,-122.4829204,190,13
Carroll,Maryland,39.56453592,-77.02373735,186,18
Saginaw,Michigan,43.33433923,-84.0513121,186,6
Carroll,Georgia,33.58138199,-85.07976677,183,4
Westmoreland,Pennsylvania,40.3137798,-79.46615476,183,0
Douglas,Nebraska,41.29518299,-96.15085305,181,5
St. James,Louisiana,30.02531716,-90.80212061,181,7
Escambia,Florida,30.67652764,-87.37284571,180,2
McHenry,Illinois,42.32451172,-88.45248227,180,5
Sarasota,Florida,27.18546175,-82.33174248,180,7
Benton,Washington,46.23946995,-119.5120834,179,19
Pulaski,Arkansas,34.77054088,-92.31355101,179,2
Hinds,Mississippi,32.2656285,-90.44435448,178,1
Livingston,Michigan,42.60302282,-83.91297209,174,2
Brazoria,Texas,29.18757369,-95.44563172,173,1
San Juan,New Mexico,36.3882,-108.2378,173,0
Iberville,Louisiana,30.25734305,-91.3499598,171,9
Manatee,Florida,27.47196942,-82.31831044,171,7
Beaufort,South Carolina,32.39226291,-80.72619758,169,4
Lebanon,Pennsylvania,40.36680311,-76.45651841,169,0
Skagit,Washington,48.48171488,-121.766131,169,5
Atlantic,New Jersey,39.47538693,-74.65848483,168,4
Dauphin,Pennsylvania,40.41377078,-76.77993242,168,2
Sumter,Georgia,32.03650571,-84.19821492,168,5
Larimer,Colorado,40.66671597,-105.4625784,167,8
Waukesha,Wisconsin,43.01833055,-88.30431188,166,5
Charles,Maryland,38.51092331,-76.98580666,164,2
Hampshire,Massachusetts,42.33997957,-72.65898478,164,3
Davis,Utah,40.99001837,-112.1139997,163,2
Volusia,Florida,29.05858895,-81.18263252,163,3
Jackson,Missouri,39.01002188,-94.34724536,162,4
Saratoga,New York,43.10904162,-73.86653895,162,4
Bossier,Louisiana,32.67932307,-93.60460152,159,6
Kershaw,South Carolina,34.33988254,-80.58763164,159,2
Shelby,Alabama,33.26879845,-86.66232561,159,5
Tulare,California,36.22026558,-118.8020203,157,7
Niagara,New York,43.19898042,-78.74777412,155,1
Sedgwick,Kansas,37.6842718,-97.4608198,154,1
St. Johns,Florida,29.90096506,-81.43589967,154,2
El Paso,Texas,31.76980765,-106.2363275,153,0
Madison,Alabama,34.76327133,-86.55069633,153,2
Monroe,Michigan,41.92734151,-83.53749864,152,0
Cherokee,Georgia,34.24393976,-84.47431861,151,6
Middlesex,Connecticut,41.45949668,-72.53714864,150,7
Schenectady,New York,42.81668777,-74.05278291,149,7
Knox,Tennessee,35.99508821,-83.94635435,148,4
Lee,Alabama,32.60154883,-85.35132246,148,5
Marin,California,38.07122463,-122.7210631,148,10
Pike,Pennsylvania,41.33155042,-75.03208106,148,6
Johnson,Iowa,41.67169354,-91.58754744,147,1
Montgomery,Ohio,39.75394919,-84.29050975,147,2
Fresno,California,36.75733899,-119.6466953,146,3
Chesterfield,Virginia,37.37373208,-77.5868014,145,0
Island,Washington,48.14713305,-122.5216407,145,6
Kankakee,Illinois,41.13746989,-87.86205334,145,5
Alachua,Florida,29.67866525,-82.35928158,144,0
DeSoto,Mississippi,34.87625235,-89.99091418,144,1
Alexandria,Virginia,38.814003,-77.08183073,143,1
Madison,Indiana,40.16143691,-85.71964711,143,11
St. Joseph,Indiana,41.61756781,-86.29040834,142,1
St. Clair,Michigan,42.92655373,-82.67937954,140,3
Kent,Rhode Island,41.67106337,-71.57641596,137,0
Lake,Florida,28.76202069,-81.7125123,136,2
Lorain,Ohio,41.29553751,-82.15083537,136,4
Schuylkill,Pennsylvania,40.70497338,-76.2150785,136,0
Rapides,Louisiana,31.19778499,-92.52997303,135,4
Webb,Texas,27.7610369,-99.33237355,135,6
Polk,Iowa,41.68679484,-93.57767461,134,4
Lexington,South Carolina,33.89665987,-81.27146426,130,5
St. Lucie,Florida,27.37763908,-80.47106649,130,6
Beaver,Pennsylvania,40.6825484,-80.34921611,128,13
Hidalgo,Texas,26.39418217,-98.18299696,128,1
Sandoval,New Mexico,35.68862401,-106.8687803,128,2
Kenosha,Wisconsin,42.57639354,-88.04051686,127,1
St. Clair,Illinois,38.46996033,-89.93063427,127,3
Jackson,Michigan,42.24807035,-84.42258681,126,4
Out of MI,Michigan,,,126,1
Trumbull,Ohio,41.31735028,-80.76109643,126,8
Chatham,Georgia,32.00043026,-81.12489526,125,4
Oneida,New York,43.24375382,-75.43710392,125,2
Pasco,Florida,28.30810945,-82.40227529,125,2
Pinal,Arizona,32.90525627,-111.3449483,124,0
Fayette,Kentucky,38.0368225,-84.45576892,123,8
Plaquemines,Louisiana,29.42245447,-89.60322085,123,7
Douglas,Georgia,33.70291126,-84.77026156,122,5
Guilford,North Carolina,36.07959451,-79.78824948,122,8
James City,Virginia,37.31156958,-76.76950618,122,2
York,Maine,43.47808377,-70.71052375,121,2
Gallatin,Montana,45.54486106,-111.1692571,120,0
Sonoma,California,38.52746429,-122.8862506,120,1
Spartanburg,South Carolina,34.92960077,-81.99225984,120,1
Washington,Rhode Island,41.45961631,-71.61435303,120,0
Kitsap,Washington,47.63479026,-122.6436061,119,1
Richmond City,Virginia,37.53255773,-77.47966921,119,0
Franklin,Massachusetts,42.58119713,-72.58602547,117,21
Placer,California,39.06167234,-120.7240569,117,4
Wilson,Tennessee,36.15496772,-86.29775884,117,0
Canyon,Idaho,43.61970148,-116.7095499,114,3
Stark,Ohio,40.81482476,-81.36437305,114,7
Butler,Pennsylvania,40.91152759,-79.91351055,113,2
Ramsey,Minnesota,45.01625271,-93.09872295,112,3
St. Martin,Louisiana,30.13112107,-91.61403569,112,4
Jackson,Mississippi,30.54020656,-88.64184064,111,5
Tolland,Connecticut,41.85853803,-72.3308481,111,13
Chambers,Alabama,32.91360079,-85.39072749,109,8
Brazos,Texas,30.6636448,-96.30205577,108,8
Cameron,Texas,26.14524221,-97.48140372,108,1
Forsyth,North Carolina,36.12859861,-80.25459052,108,2
Mitchell,Georgia,31.22483255,-84.19381821,108,11
Olmsted,Minnesota,44.00374114,-92.40209944,108,2
Portage,Ohio,41.16793482,-81.19735782,108,8
York,South Carolina,34.97281497,-81.18085944,108,2
Miami,Ohio,40.0543329,-84.22871271,107,14
Washington,Louisiana,30.85288548,-90.03866652,106,5
Sumter,South Carolina,33.91826534,-80.37942316,105,3
Tompkins,New York,42.44945765,-76.47229843,105,0
Anchorage,Alaska,61.14998174,-149.1426986,103,4
Brevard,Florida,28.29409504,-80.73091022,102,2
Butler,Ohio,39.44012838,-84.57388716,102,2
Martin,Florida,27.0772071,-80.43109784,101,0
Cape May,New Jersey,39.15008829,-74.80170244,100,3
Chesapeake,Virginia,36.67670048,-76.30545744,99,0
Decatur,Indiana,39.30712658,-85.50087166,99,6
Forsyth,Georgia,34.22604035,-84.1231513,99,2
Hancock,Indiana,39.82304555,-85.77566351,99,2
Lake,Ohio,41.69710807,-81.23676539,99,4
Livingston,Louisiana,30.44143993,-90.73061664,99,1
San Luis Obispo,California,35.38822029,-120.4039028,99,1
Solano,California,38.26827353,-121.9357113,99,2
Early,Georgia,31.32155345,-84.90255207,98,5
Gunnison,Colorado,38.66611652,-107.0320729,98,1
Clackamas,Oregon,45.18787398,-122.2179634,97,3
Clay,Florida,29.98319144,-81.85609986,97,7
Iberia,Louisiana,29.86803617,-91.75871777,97,4
Allen,Indiana,41.09194313,-85.06800636,95,7
Hamilton,Tennessee,35.17670231,-85.16652245,95,9
Grant,Washington,47.20753737,-119.4500749,94,2
Medina,Ohio,41.11770589,-81.8998621,94,4
Broome,New York,42.15903158,-75.81326086,93,6
Floyd,Georgia,34.26268279,-85.21577392,93,3
Jefferson,Missouri,38.25926778,-90.53870896,93,2
Terrell,Georgia,31.77527543,-84.44069698,93,9
Houston,Georgia,32.45802497,-83.66879087,92,7
Madison,New York,42.91653905,-75.67266639,92,3
De Soto,Louisiana,32.05457447,-93.74130302,91,7
Horry,South Carolina,33.9212828,-78.99555293,91,6
Stanislaus,California,37.55862499,-120.9970722,90,0
Sumter,Florida,28.70181754,-82.0794267,90,7
Assumption,Louisiana,29.89946234,-91.06461642,89,0
Cabarrus,North Carolina,35.3877799,-80.55267168,88,1
Harrison,Mississippi,30.51359752,-89.12467576,88,3
Rensselaer,New York,42.71348136,-73.51089874,88,3
McKinley,New Mexico,35.7152,-108.2378,87,2
Steuben,New York,42.2689144,-77.3829924,87,6
Union,North Carolina,34.98960527,-80.52955873,87,0
Williamson,Texas,30.64655664,-97.6004854,87,4
Acadia,Louisiana,30.2950649,-92.41419698,86,2
Clark,Indiana,38.48015445,-85.70510334,86,7
Harford,Maryland,39.55010644,-76.3077594,86,0
Rockdale,Georgia,33.65145002,-84.02202167,86,2
St. Landry,Louisiana,30.59724262,-92.00135806,86,4
Fayette,Georgia,33.41357794,-84.49089434,85,4
New London,Connecticut,41.48896435,-72.10430976,85,4
Porter,Indiana,41.45986947,-87.06848888,85,0
Cumberland,Pennsylvania,40.1625372,-77.26130755,84,2
Lauderdale,Mississippi,32.40419769,-88.66229662,84,5
Granville,North Carolina,36.30337451,-78.65184241,83,0
Madison,Mississippi,32.63389156,-90.03513564,83,2
Tuscaloosa,Alabama,33.28726072,-87.52556818,83,0
Clinton,Michigan,42.94400871,-84.60145248,82,1
Madison,Illinois,38.83042506,-89.90422563,82,2
Morgan,Indiana,39.47899078,-86.44573375,82,1
Randolph,Georgia,31.76622818,-84.75732369,82,3
Wasatch,Utah,40.33110236,-111.1691419,82,0
Clarke,Georgia,33.95436462,-83.37124007,81,9
Orange,North Carolina,36.06092947,-79.12167935,81,0
Putnam,Tennessee,36.14005459,-85.50646123,81,0
St. Mary,Louisiana,29.69262097,-91.44702164,81,0
Cumberland,New Jersey,39.37199394,-75.10712559,80,2
Coweta,Georgia,33.35334302,-84.76129976,79,2
Delaware,Ohio,40.27942393,-83.00457058,79,1
Kendall,Illinois,41.59081014,-88.42869583,79,2
Rankin,Mississippi,32.26469147,-89.94537876,79,2
Smith,Texas,32.37474036,-95.2717568,79,2
Apache,Arizona,35.5313,-109.3783,78,0
Jefferson,Arkansas,34.26767081,-91.92619839,78,0
Jefferson,Texas,29.8832777,-94.16434171,78,2
Okaloosa,Florida,30.69143028,-86.59267105,78,1
St. Lawrence,New York,44.4976179,-75.06550039,78,0
Boone,Missouri,38.99186229,-92.30723575,77,1
Cass,North Dakota,46.93201724,-97.2444719,77,1
Floyd,Indiana,38.32117957,-85.90385377,77,3
Montgomery,Alabama,32.2206831,-86.20969272,77,2
Norfolk,Virginia,36.89934014,-76.26420872,77,0
Scott,Iowa,41.63935978,-90.61959493,77,1
Weber,Utah,41.27116049,-111.9145117,77,1
Boone,Indiana,40.0509304,-86.46841646,76,2
Carbon,Pennsylvania,40.91545395,-75.7068525,76,1
Charlotte,Florida,26.90131002,-81.92949121,76,1
Columbia,New York,42.24819348,-73.63089095,76,4
Richmond,Georgia,33.35777107,-82.07026432,76,3
Ripley,Indiana,39.10235626,-85.26212744,76,3
Santa Cruz,California,37.05580291,-122.0066524,76,1
Anderson,South Carolina,34.51828081,-82.63959517,75,4
Dakota,Minnesota,44.67172617,-93.06299363,75,3
Franklin,Washington,46.53351425,-118.9018212,75,2
Hays,Texas,30.05669873,-98.02944344,75,0
Bell,Texas,31.03736027,-97.4785025,74,2
Thurston,Washington,46.9291895,-122.8290656,74,1
Davidson,North Carolina,35.79115496,-80.21256572,73,1
Imperial,California,33.0393082,-115.3669042,73,3
Berrien,Michigan,41.95447397,-86.4131308,72,2
Greene,Missouri,37.2575872,-93.34230916,72,7
Montgomery,Tennessee,36.49609412,-87.38550661,72,2
Columbiana,Ohio,40.76932373,-80.78094576,71,6
Fairbanks North Star,Alaska,64.80726247,-146.5692662,71,1
Leon,Florida,30.45955727,-84.27491114,71,0
Ozaukee,Wisconsin,43.38352225,-87.94625009,70,7
Washington,Minnesota,45.03864533,-92.88429635,70,2
Champaign,Illinois,40.13919438,-88.20046615,69,1
Hall,Nebraska,40.87257079,-98.50218293,69,2
Kanawha,West Virginia,38.33860077,-81.52857054,69,0
Santa Rosa,Florida,30.6934145,-87.02458128,69,2
Clarendon,South Carolina,33.66610974,-80.21647898,68,2
Colquitt,Georgia,31.18810588,-83.7677946,68,5
Monongalia,West Virginia,39.63218457,-80.04766838,68,1
Cleburne,Arkansas,35.53864922,-92.02640019,67,2
Eaton,Michigan,42.59599185,-84.83740035,67,3
Kalamazoo,Michigan,42.24542231,-85.53038622,67,6
Newton,Georgia,33.55514538,-83.8454714,67,3
Robertson,Tennessee,36.52454807,-86.87346725,67,0
Rock Island,Illinois,41.46613806,-90.57042164,67,0
Bartholomew,Indiana,39.20744865,-85.89558181,66,4
Berkeley,West Virginia,39.46704621,-78.02414609,66,0
Cumberland,North Carolina,35.04762133,-78.82623165,66,1
Paulding,Georgia,33.91969522,-84.86848792,66,1
Racine,Wisconsin,42.74753117,-88.05941254,66,2
Santa Fe,New Mexico,35.50708973,-105.9774716,66,0
Allen,Louisiana,30.65385745,-92.82442028,65,5
Fairfield,Ohio,39.75107189,-82.63088163,65,0
Marion,Florida,29.21227113,-82.05803627,65,2
McLean,Illinois,40.48996987,-88.84621113,65,2
Nueces,Texas,27.736286,-97.5433285,65,0
Walker,Alabama,33.80270512,-87.30027177,65,0
Lapeer,Michigan,43.09052506,-83.22153148,64,5
Licking,Ohio,40.09136236,-82.48185785,64,3
Monterey,California,36.21862405,-121.2413397,64,2
Rowan,North Carolina,35.64003916,-80.52446628,64,2
Worth,Georgia,31.55162306,-83.85090513,64,3
Indian River,Florida,27.69308961,-80.60556721,63,0
Washington,Wisconsin,43.36863664,-88.22974712,63,3
Winnebago,Illinois,42.33641854,-89.16085327,63,3
Gaston,North Carolina,35.29373559,-81.17477045,62,3
Hillsdale,Michigan,41.88753639,-84.59312019,62,4
McLennan,Texas,31.55255453,-97.20217694,62,1
St. Mary's,Maryland,38.30058422,-76.6062928,62,0
Washington,Iowa,41.33577126,-91.71725711,62,3
Crittenden,Arkansas,35.21247318,-90.30839406,61,0
Franklin,Indiana,39.4142482,-85.06062647,61,7
Muscatine,Iowa,41.48370744,-91.1121697,61,1
Monroe,Indiana,39.16130004,-86.52414358,60,0
Newport News,Virginia,37.08166899,-76.51754109,60,1
Pearl River,Mississippi,30.77090935,-89.58677275,60,3
Forrest,Mississippi,31.18961454,-89.25832496,59,1
Leavenworth,Kansas,39.20183497,-95.03620809,59,1
Victoria,Texas,28.79780988,-96.96813006,59,0
Washington,Pennsylvania,40.19208869,-80.24582867,59,0
Daviess,Kentucky,37.73028906,-87.0901948,58,1
Yavapai,Arizona,34.59933926,-112.5538588,58,0
Centre,Pennsylvania,40.92058903,-77.82200624,57,0
Iredell,North Carolina,35.80950511,-80.8743128,57,1
Muscogee,Georgia,32.50931999,-84.87142262,57,1
Wagoner,Oklahoma,35.96024096,-95.51911308,57,4
Washington,Maryland,39.60835778,-77.82002295,57,0
Calvert,Maryland,38.53961642,-76.56820632,56,1
Hernando,Florida,28.55364461,-82.42700204,56,1
Merrimack,New Hampshire,43.29662971,-71.6811573,56,0
Newport,Rhode Island,41.5642026,-71.26569799,56,0
Shelby,Indiana,39.52305623,-85.7915857,56,1
Spalding,Georgia,33.26310031,-84.28013991,56,4
Summit,Colorado,39.63803232,-106.1150762,56,0
Yolo,California,38.68278902,-121.9018288,56,2
Berkeley,South Carolina,33.20222596,-79.94654523,55,0
Chemung,New York,42.13891056,-76.7638805,55,1
Faulkner,Arkansas,35.14719007,-92.33717519,55,1
Lawrence,Indiana,38.84112637,-86.48361629,55,7
Ottawa,Michigan,42.95996803,-85.9969107,55,0
Bolivar,Mississippi,33.79696941,-90.87372121,54,2
Citrus,Florida,28.84804315,-82.47614748,54,2
Columbia,Pennsylvania,41.04821986,-76.40565017,54,1
Northampton,North Carolina,36.41736238,-77.39769443,54,1
West Baton Rouge,Louisiana,30.46058217,-91.30989571,54,9
Chenango,New York,42.49430041,-75.60887553,53,0
Hampton,Virginia,37.03513786,-76.35879121,53,1
New Hanover,North Carolina,34.25758282,-77.87075626,53,0
Twin Falls,Idaho,42.35440512,-114.6685381,53,1
Broomfield,Colorado,39.95998787,-105.0566324,52,2
Calhoun,Michigan,42.24633834,-85.00493569,51,1
Dorchester,South Carolina,33.0794369,-80.40502652,51,0
Garland,Arkansas,34.57692074,-93.14921604,51,0
Henderson,North Carolina,35.33788927,-82.4766782,51,3
Johnston,North Carolina,35.51745004,-78.36622717,51,4
Monroe,Florida,25.20904673,-81.07812416,51,3
Pitt,North Carolina,35.59535426,-77.37353178,51,1
Webster,Louisiana,32.70847669,-93.33121835,51,2
Bibb,Georgia,32.80904227,-83.70489165,50,1
Humboldt,California,40.69923009,-123.876044,50,0
Shawnee,Kansas,39.04100763,-95.7557264,50,3
Calhoun,Alabama,33.77483727,-85.82630386,49,0
Cecil,Maryland,39.56647682,-75.94627411,49,1
Garfield,Colorado,39.59921777,-107.902708,49,1
Lowndes,Georgia,30.83568832,-83.27056716,49,1
Avoyelles,Louisiana,31.07796211,-92.00079449,48,1
Columbia,Georgia,33.54534185,-82.263524,48,1
Crisp,Georgia,31.92289565,-83.76811843,48,0
Harrison,Indiana,38.19467379,-86.10948271,48,1
Laramie,Wyoming,41.3070252,-104.6887497,48,0
Maui,Hawaii,20.86399628,-156.5689097,48,1
Stafford,Virginia,38.41758738,-77.45917053,48,0
Troup,Georgia,33.03349196,-85.02812115,48,3
Wichita,Texas,33.98842886,-98.7041034,48,0
Yellowstone,Montana,45.93955949,-108.2691486,48,0
Addison,Vermont,44.03217337,-73.14130877,47,0
Creek,Oklahoma,35.90230551,-96.37086028,47,2
Dearborn,Indiana,39.14647946,-84.97333539,47,2
Genesee,New York,43.0022601,-78.19135193,47,1
Potter,Texas,35.40133773,-101.893964,47,1
Tift,Georgia,31.45743864,-83.5236119,47,1
Wayne,Pennsylvania,41.64938475,-75.29956506,47,1
Anoka,Minnesota,45.27476015,-93.24604565,46,0
Delaware,Indiana,40.22787247,-85.39732772,46,1
Elkhart,Indiana,41.59761169,-85.85875695,46,3
Frederick,Virginia,39.20172582,-78.25974949,46,0
Jackson,Indiana,38.9091582,-86.03851889,46,0
Lancaster,South Carolina,34.68270843,-80.70513032,46,0
Strafford,New Hampshire,43.291833,-71.02336013,46,0
Suwannee,Florida,30.19746066,-82.9909967,46,0
Tama,Iowa,42.07991767,-92.53266945,46,2
Warren,Ohio,39.42581994,-84.16557457,46,0
Benton,Arkansas,36.33644656,-94.25680817,45,0
Florence,South Carolina,34.02361754,-79.70189312,45,5
Guadalupe,Texas,29.58165339,-97.94786822,45,0
Linn,Oregon,44.48899494,-122.5373154,45,2
Pueblo,Colorado,38.17359144,-104.5127437,45,2
Washington,Oklahoma,36.71380786,-95.90514104,45,2
Baldwin,Alabama,30.72774991,-87.72207058,44,1
Coffee,Georgia,31.54892966,-82.8549206,44,2
Comanche,Oklahoma,34.65973764,-98.47195055,44,0
Deschutes,Oregon,43.91570171,-121.2289121,44,0
Fond du Lac,Wisconsin,43.75354908,-88.48885325,44,2
Geauga,Ohio,41.49952319,-81.17935342,44,1
Howard,Indiana,40.48527731,-86.11351892,44,4
Teton,Wyoming,43.93522482,-110.5890801,44,0
Etowah,Alabama,34.04567266,-86.04051873,43,4
Franklin,Pennsylvania,39.92956518,-77.72157791,43,0
Madison,Tennessee,35.61181957,-88.84076036,43,0
Thomas,Georgia,30.86392347,-83.91847289,43,2
Windham,Connecticut,41.82972709,-71.98182316,43,1
Barrow,Georgia,33.99148694,-83.71436292,42,3
Blount,Tennessee,35.68938198,-83.92847788,42,2
Burleigh,North Dakota,46.97847375,-100.4645214,42,0
Jennings,Indiana,38.99588883,-85.62710784,42,0
Kootenai,Idaho,47.67282258,-116.7020872,42,0
Marshall,Alabama,34.36975964,-86.30486727,42,1
Matagorda,Texas,28.81955746,-96.01230294,42,3
Muskegon,Michigan,43.29123859,-86.15176712,42,4
Ware,Georgia,31.05449097,-82.42224148,42,3
Albemarle,Virginia,38.02080697,-78.55481085,41,0
Brown,Wisconsin,44.4526553,-88.00411844,41,0
Ellis,Texas,32.34894117,-96.79371841,41,2
Grafton,New Hampshire,43.93779815,-71.82057197,41,0
Hardin,Texas,30.33364686,-94.38931817,41,1
Highlands,Florida,27.34254618,-81.34071957,41,3
Portsmouth,Virginia,36.85914825,-76.35971629,41,0
Vanderburgh,Indiana,38.02658833,-87.58763124,41,1
Washington,Mississippi,33.28392041,-90.94196237,41,2
Wood,Ohio,41.36224827,-83.62285108,41,2
Canadian,Oklahoma,35.5426055,-97.98465569,40,1
Jefferson,New York,44.04200959,-75.94653457,40,0
Lee,Mississippi,34.2918775,-88.68149954,40,2
Randall,Texas,34.96585996,-101.8971322,40,1
Bay,Michigan,43.70639106,-83.98731479,39,0
Clinton,New York,44.74530905,-73.67875352,39,0
East Feliciana,Louisiana,30.84425359,-91.04976723,39,1
Jackson,Oregon,42.43201126,-122.7289309,39,0
Lancaster,Nebraska,40.78416049,-96.68777155,39,0
Ontario,New York,42.85145728,-77.30874425,39,0
Pitkin,Colorado,39.21720112,-106.9310027,39,2
Wayne,New York,43.15494365,-77.02976528,39,0
Darke,Ohio,40.13412966,-84.6194517,38,7
Douglas,Kansas,38.88503636,-95.2925121,38,0
Fremont,Wyoming,43.04183996,-108.6296893,38,0
Jefferson,West Virginia,39.30776166,-77.86014147,38,0
Otsego,New York,42.63492579,-75.03151402,38,1
Taylor,Texas,32.30163422,-99.89007449,38,1
Tippecanoe,Indiana,40.38872739,-86.89413959,38,1
Tipton,Tennessee,35.501942,-89.73694895,38,0
Wilson,North Carolina,35.70625477,-77.917978,38,2
Windham,Vermont,42.986982,-72.71268875,38,0
Yazoo,Mississippi,32.77890365,-90.39656148,38,1
Buncombe,North Carolina,35.61113393,-82.53305,37,1
Clay,Missouri,39.31132056,-94.41850862,37,1
Delaware,New York,42.19837623,-74.96709306,37,1
Montour,Pennsylvania,41.03023987,-76.66345939,37,0
Moore,North Carolina,35.30885257,-79.48474178,37,2
Randolph,North Carolina,35.71015088,-79.80570339,37,2
Rock,Wisconsin,42.67151616,-89.071479,37,2
Sarpy,Nebraska,41.11314181,-96.11156432,37,0
Tippah,Mississippi,34.76872156,-88.90988194,37,4
Harrisonburg,Virginia,38.43542574,-78.87536254,36,0
Hopkins,Kentucky,37.30939025,-87.54670406,36,4
Kenton,Kentucky,38.93950319,-84.53241199,36,8
Lenawee,Michigan,41.89475156,-84.06603727,36,0
Pierce,Georgia,31.35928155,-82.21598442,36,1
Salem,New Jersey,39.58719656,-75.3469663,36,3
Coffey,Kansas,38.2365018,-95.73379515,35,1
Dallas,Iowa,41.68560356,-94.04127625,35,0
Dona Ana,New Mexico,32.35275771,-106.8329387,35,0
Fayette,Pennsylvania,39.92041012,-79.64291195,35,1
Flagler,Florida,29.45933576,-81.31508595,35,1
Franklin,Missouri,38.41127108,-91.07522826,35,3
Montrose,Colorado,38.40214114,-108.2639022,35,3
Pickaway,Ohio,39.64170392,-83.0243386,35,0
Tallapoosa,Alabama,32.86698258,-85.79833053,35,1
Union,Louisiana,32.83121059,-92.3749373,35,3
Burke,North Carolina,35.74989637,-81.70755735,34,2
Chelan,Washington,47.87046092,-120.6173956,34,3
Harnett,North Carolina,35.36731853,-78.87243571,34,2
La Plata,Colorado,37.28632032,-107.8429014,34,0
Martin,Minnesota,43.67429718,-94.55099908,34,4
Merced,California,37.18922369,-120.7209035,34,3
Nevada,California,39.30394768,-120.7627281,34,1
Oswego,New York,43.42778894,-76.14635194,34,2
Scott,Mississippi,32.4067041,-89.53789439,34,0
Wayne,North Carolina,35.36438125,-78.00027268,34,0
Adams,Pennsylvania,39.87140411,-77.21610347,33,0
Claiborne,Louisiana,32.82308512,-92.99526883,33,2
Cumberland,Tennessee,35.95271721,-84.99840585,33,0
Franklin,Vermont,44.85627605,-72.91249563,33,0
Johnson,Missouri,38.74719601,-93.80691168,33,0
Kay,Oklahoma,36.81799745,-97.14421435,33,3
Oconee,Georgia,33.83749973,-83.43679568,33,1
Osage,Oklahoma,36.62888819,-96.39635704,33,5
Pike,Mississippi,31.17507789,-90.40392572,33,1
Saline,Arkansas,34.64916145,-92.67583224,33,0
San Benito,California,36.60308176,-121.069975,33,2
Sangamon,Illinois,39.75836914,-89.65872023,33,2
Warren,New York,43.56173026,-73.8433699,33,0
Wilkinson,Mississippi,31.16078225,-91.31018819,33,3
Christian,Kentucky,36.89267803,-87.49055367,32,0
Coahoma,Mississippi,34.22772299,-90.60415045,32,1
Cole,Missouri,38.50455671,-92.27860244,32,1
DeKalb,Illinois,41.89373302,-88.76958483,32,1
Greer,Oklahoma,34.93535801,-99.5605612,32,4
Gregg,Texas,32.47940482,-94.81591935,32,0
Hancock,Mississippi,30.41830223,-89.48851033,32,2
Lawrence,Pennsylvania,40.99206278,-80.33393706,32,2
Limestone,Alabama,34.81185586,-86.98310072,32,0
Marion,Ohio,40.58610662,-83.15736305,32,0
Mesa,Colorado,39.01787888,-108.469799,32,0
Routt,Colorado,40.48596505,-106.9905548,32,0
Sheboygan,Wisconsin,43.72099677,-87.94579284,32,2
Vigo,Indiana,39.42944561,-87.39169027,32,2
West Feliciana,Louisiana,30.87882871,-91.4148538,32,0
Bristol,Rhode Island,41.71018079,-71.28652315,31,0
Flathead,Montana,48.29575866,-114.0520569,31,0
Lincoln,South Dakota,43.27841182,-96.7203905,31,0
Morgan,Alabama,34.45500589,-86.85475946,31,0
Penobscot,Maine,45.40194593,-68.65020455,31,0
Perry,Missouri,37.70660776,-89.82741088,31,0
Randolph,Illinois,38.05095369,-89.82512254,31,0
Rutland,Vermont,43.57723578,-73.03741676,31,0
Spotsylvania,Virginia,38.18574462,-77.655399,31,0
Suffolk,Virginia,36.70155394,-76.63603554,31,0
Washington,Utah,37.3225,-113.4776,31,1
Alamance,North Carolina,36.0434701,-79.39976137,30,0
Belmont,Ohio,40.01625942,-80.9924051,30,1
Calhoun,Georgia,31.53169785,-84.62725131,30,1
Decatur,Georgia,30.87967778,-84.57619536,30,0
Ector,Texas,31.86898877,-102.5429428,30,1
Franklin,Louisiana,32.13675181,-91.67589857,30,0
Glynn,Georgia,31.23279254,-81.53811412,30,0
Lane,Oregon,43.93727035,-122.847753,30,1
Louisa,Iowa,41.21842119,-91.26102611,30,0
Marion,West Virginia,39.50984542,-80.24244659,30,1
Midland,Texas,31.86904128,-102.0315682,30,1
Oktibbeha,Mississippi,33.42491685,-88.87905132,30,1
Orangeburg,South Carolina,33.4391073,-80.79886287,30,0
St. Clair,Alabama,33.71902176,-86.31029372,30,0
Washington,Arkansas,35.976844,-94.21800746,30,0
Washington,Ohio,39.45690571,-81.49121382,30,0
Washington,Tennessee,36.29472368,-82.4945472,30,0
Wayne,Ohio,40.82925852,-81.88844833,30,0
Adams,Washington,46.98299757,-118.5601734,29,0
Comal,Texas,29.80811278,-98.27647225,29,3
Darlington,South Carolina,34.33358335,-79.96027485,29,0
Erie,Pennsylvania,41.99253829,-80.03301954,29,0
Harrison,West Virginia,39.2853852,-80.37919577,29,1
Herkimer,New York,43.42034246,-74.96145307,29,3
Livingston,New York,42.72596275,-77.77966158,29,2
Maury,Tennessee,35.6187413,-87.07462444,29,0
Nassau,Florida,30.61037141,-81.80297522,29,0
Orange,Texas,30.11879481,-93.89412775,29,0
Otsego,Michigan,45.02085831,-84.59898295,29,2
St. Francis,Arkansas,35.02201976,-90.74828138,29,0
Upson,Georgia,32.87920671,-84.30024826,29,0
Aiken,South Carolina,33.54338026,-81.63645384,28,1
Bay,Florida,30.26548745,-85.62122584,28,1
Bradley,Tennessee,35.15739424,-84.857186,28,0
Buffalo,Nebraska,40.85486962,-99.07500296,28,1
Cache,Utah,41.72330587,-111.7443667,28,0
Catawba,North Carolina,35.66211129,-81.2132617,28,1
Dubuque,Iowa,42.46815349,-90.88181925,28,1
El Dorado,California,38.77965956,-120.5233166,28,0
Jefferson Davis,Louisiana,30.26896765,-92.81210004,28,1
LaPorte,Indiana,41.54366008,-86.74072188,28,3
Lafayette,Missouri,39.06986886,-93.78076396,28,1
Leflore,Mississippi,33.55545125,-90.29900733,28,4
Madera,California,37.21513971,-119.7665589,28,2
Polk,Oregon,44.90322804,-123.4128888,28,1
St. Louis,Minnesota,47.6048407,-92.46879855,28,0
Stark,North Dakota,46.80851182,-102.6576326,28,0
Adams,Nebraska,40.5244942,-98.50117804,27,0
Baldwin,Georgia,33.06882326,-83.24701748,27,1
Bennington,Vermont,43.03519828,-73.09048868,27,0
Clark,Arkansas,34.04613432,-93.17484713,27,0
Clermont,Ohio,39.04847534,-84.15375786,27,1
Dooly,Georgia,32.15630737,-83.79746561,27,1
Holmes,Mississippi,33.12345854,-90.08923538,27,3
Jefferson,Washington,47.75003077,-123.5609704,27,0
Mercer,Pennsylvania,41.30248872,-80.25816981,27,0
Muhlenberg,Kentucky,37.21425819,-87.14632053,27,0
Pointe Coupee,Louisiana,30.71409502,-91.60209535,27,0
Putnam,Indiana,39.66437981,-86.84517605,27,1
Shiawassee,Michigan,42.953928,-84.14585902,27,0
Sullivan,Tennessee,36.51240691,-82.30412917,27,1
Sunflower,Mississippi,33.60192578,-90.58882684,27,1
Tuscola,Michigan,43.46606813,-83.41897025,27,2
White,Arkansas,35.25688493,-91.74908296,27,0
Wyoming,New York,42.70145109,-78.22199579,27,1
Brunswick,North Carolina,34.070565,-78.22814204,26,1
Bryan,Georgia,32.00979311,-81.44002948,26,2
Cleveland,North Carolina,35.33553364,-81.55204486,26,0
Dickson,Tennessee,36.14669837,-87.35891709,26,0
Gordon,Georgia,34.50487351,-84.87296253,26,3
Kennebec,Maine,44.40759555,-69.76738544,26,1
Lafayette,Mississippi,34.35687874,-89.48490961,26,1
Lincoln,Mississippi,31.53288662,-90.45391915,26,1
Lyon,Kansas,38.45576156,-96.15275715,26,0
Natrona,Wyoming,42.96180148,-106.797885,26,0
Tuscarawas,Ohio,40.44214695,-81.47226262,26,0
Walton,Florida,30.64204028,-86.16935664,26,0
Warrick,Indiana,38.08922676,-87.2716085,26,0
Adair,Oklahoma,35.88494195,-94.65859267,25,2
Adams,Mississippi,31.47669768,-91.35326037,25,0
Cass,Missouri,38.64789422,-94.353399,25,1
Evangeline,Louisiana,30.72985248,-92.39915924,25,0
Greene,New York,42.275797,-74.12384884,25,0
Houston,Alabama,31.15197924,-85.29939599,25,1
Johnson,Texas,32.37877812,-97.36615819,25,1
Laurens,Georgia,32.46325233,-82.92221316,25,0
Missoula,Montana,47.03728583,-113.9213508,25,1
Nacogdoches,Texas,31.62017125,-94.61803994,25,2
Napa,California,38.50735751,-122.332839,25,2
Nash,North Carolina,35.96575634,-77.98422508,25,1
Natchitoches,Louisiana,31.72321584,-93.09816516,25,0
Outagamie,Wisconsin,44.41578887,-88.46565023,25,1
Richland,Ohio,40.77180308,-82.5379961,25,0
Rutherford,North Carolina,35.40114178,-81.92112099,25,0
Tom Green,Texas,31.40464436,-100.462443,25,0
Walton,Georgia,33.78017694,-83.73552314,25,2
Yamhill,Oregon,45.23330449,-123.3086963,25,3
York,Virginia,37.24374789,-76.54412815,25,1
Camden,Missouri,38.02199522,-92.76083747,24,1
Chatham,North Carolina,35.70394416,-79.25541492,24,0
Goochland,Virginia,37.71714806,-77.90381514,24,0
Lincoln,Louisiana,32.6003154,-92.6659741,24,0
Lincoln,Missouri,39.05345619,-90.95588181,24,1
Marshall,Mississippi,34.76216286,-89.50299462,24,1
Midland,Michigan,43.64330771,-84.38804374,24,1
Onslow,North Carolina,34.72607366,-77.42908179,24,1
Payne,Oklahoma,36.07695283,-96.97584944,24,0
Prince George,Virginia,37.18497668,-77.22922187,24,0
Washington,Texas,30.21498498,-96.40946246,24,1
Washington,Vermont,44.27343241,-72.61604978,24,0
Windsor,Vermont,43.58010937,-72.58595157,24,1
Winnebago,Wisconsin,44.06886922,-88.64477096,24,1
Allen,Ohio,40.77285242,-84.10802343,23,1
Androscoggin,Maine,44.1664747,-70.20380627,23,0
Beauregard,Louisiana,30.64836518,-93.34173616,23,1
Chaffee,Colorado,38.74745778,-106.1926573,23,2
Charlottesville,Virginia,38.03527919,-78.48569588,23,1
Christian,Illinois,39.54581621,-89.27780482,23,3
Cibola,New Mexico,34.91131525,-107.998876,23,0
Columbia,Wisconsin,43.46492199,-89.33589004,23,1
Craighead,Arkansas,35.83018283,-90.63235729,23,0
Franklin,North Carolina,36.081519,-78.28708884,23,1
Gage,Nebraska,40.26186809,-96.68946704,23,1
Hawaii,Hawaii,19.60121157,-155.5210167,23,0
Isle of Wight,Virginia,36.90579348,-76.70842863,23,0
Jackson,Georgia,34.13794553,-83.56814788,23,0
Lonoke,Arkansas,34.75392199,-91.88742357,23,0
Marion,Alabama,34.13697363,-87.88704173,23,3
Mohave,Arizona,35.70471703,-113.7577902,23,0
Morehouse,Louisiana,32.81686191,-91.80421614,23,0
Morgan,Colorado,40.2627981,-103.8093302,23,0
Pawnee,Oklahoma,36.31743373,-96.7033176,23,1
Shasta,California,40.76391419,-122.0396884,23,3
Tooele,Utah,40.44862644,-113.1295715,23,0
Cullman,Alabama,34.13020303,-86.86888037,22,1
Dawson,Georgia,34.44244079,-84.16964071,22,1
Elmore,Alabama,32.59785413,-86.14415284,22,0
Fayette,Tennessee,35.19615831,-89.41399032,22,0
Georgetown,South Carolina,33.43443342,-79.33202141,22,1
Grant,Indiana,40.51587228,-85.65468702,22,2
Greene,Georgia,33.5769205,-83.17139104,22,1
Hanover,Virginia,37.7583355,-77.49464673,22,0
Isabella,Michigan,43.64060976,-84.84664923,22,2
Jackson,Illinois,37.78595185,-89.38232563,22,1
La Crosse,Wisconsin,43.90632465,-91.11451093,22,0
Northumberland,Pennsylvania,40.84785433,-76.70798222,22,0
Polk,Georgia,34.00267074,-85.18677781,22,0
Sanilac,Michigan,43.42406072,-82.82055898,22,2
Talladega,Alabama,33.37823223,-86.16886178,22,0
Van Buren,Arkansas,35.58095779,-92.51295036,22,0
Vermilion,Louisiana,29.83517605,-92.30292538,22,1
Allegany,New York,42.25748406,-78.02750466,21,1
Beadle,South Dakota,44.41464384,-98.27858469,21,2
Belknap,New Hampshire,43.51637314,-71.41684235,21,0
Benton,Oregon,44.49167306,-123.4316987,21,1
Blue Earth,Minnesota,44.03554215,-94.06699781,21,0
Boone,Kentucky,38.97065142,-84.72615357,21,1
Cowlitz,Washington,46.19074721,-122.6782231,21,0
Eau Claire,Wisconsin,44.726614,-91.28609183,21,0
Greene,Ohio,39.69116283,-83.89032084,21,1
Indiana,Pennsylvania,40.65241041,-79.08963285,21,0
Marion,Tennessee,35.12997174,-85.62265895,21,1
Muskogee,Oklahoma,35.61318461,-95.37802952,21,2
Pickens,South Carolina,34.88807695,-82.72791551,21,0
Putnam,Florida,29.60779729,-81.74230285,21,1
Walworth,Wisconsin,42.66858202,-88.54163073,21,0
Warren,Kentucky,36.99903045,-86.42672751,21,0
Washington,Indiana,38.60219804,-86.1049363,21,0
Whiteside,Illinois,41.75509713,-89.91556058,21,1
Whitfield,Georgia,34.80987459,-84.96093476,21,3
Ashtabula,Ohio,41.70860332,-80.74830218,20,0
Bowie,Texas,33.44626922,-94.41834132,20,1
Butts,Georgia,33.2830945,-83.9543504,20,0
Cape Girardeau,Missouri,37.38489388,-89.6843587,20,1
Chilton,Alabama,32.85044126,-86.7173256,20,0
Clay,Minnesota,46.89289518,-96.48761922,20,0
Davie,North Carolina,35.93099927,-80.54496571,20,2
Greene,Tennessee,36.17470125,-82.84691273,20,1
Le Sueur,Minnesota,44.37136597,-93.72844721,20,0
Lynchburg,Virginia,37.40021399,-79.19888138,20,0
Madison,Ohio,39.89381073,-83.40178317,20,2
Manassas,Virginia,38.7464321,-77.48509905,20,0
Monroe,Illinois,38.27594376,-90.17761038,20,1
Mountrail,North Dakota,48.20197971,-102.3555315,20,0
Pope,Arkansas,35.44871474,-93.03212219,20,0
Pottawatomie,Oklahoma,35.20614018,-96.94923008,20,1
Rockingham,Virginia,38.51006137,-78.87260325,20,0
Sauk,Wisconsin,43.42574087,-89.94966132,20,2
Turner,Georgia,31.71612656,-83.62069378,20,0
Washington,Nebraska,41.52815707,-96.22019892,20,0
Washington,New York,43.31153794,-73.43043448,20,1
Wicomico,Maryland,38.37301947,-75.62705831,20,1
Allamakee,Iowa,43.28383218,-91.37860922,19,1
Armstrong,Pennsylvania,40.81665618,-79.46290811,19,0
Black Hawk,Iowa,42.4704581,-92.30524729,19,0
Callaway,Missouri,38.83674754,-91.92186505,19,1
Carroll,New Hampshire,43.87498583,-71.20430216,19,0
Carteret,North Carolina,34.8932941,-76.54120135,19,1
Chambers,Texas,29.70972016,-94.67154501,19,0
Clinton,Iowa,41.89981633,-90.53275096,19,0
Copiah,Mississippi,31.86977774,-90.44565118,19,0
Craven,North Carolina,35.11833364,-77.08398081,19,0
Henry,Indiana,39.93029017,-85.39625719,19,0
Jackson,Alabama,34.78144169,-85.99750489,19,1
Jackson,West Virginia,38.84263974,-81.68148753,19,1
Klamath,Oregon,42.68762984,-121.6496461,19,0
Lamar,Mississippi,31.20572971,-89.5077704,19,1
Lamoille,Vermont,44.60353043,-72.64356694,19,0
Lee,South Carolina,34.16393091,-80.25690731,19,2
Mono,California,37.93899289,-118.8872409,19,1
Monroe,Mississippi,33.89236763,-88.4808438,19,1
Panola,Mississippi,34.36398677,-89.95064249,19,1
Peach,Georgia,32.56934316,-83.82937,19,2
Riley,Kansas,39.28935726,-96.73420026,19,0
Rogers,Oklahoma,36.37004357,-95.60406759,19,0
Sevier,Tennessee,35.78077323,-83.52244332,19,0
Shelby,Ohio,40.33163494,-84.20258189,19,0
St. Francois,Missouri,37.81214171,-90.47598685,19,1
Sutter,California,39.03417539,-121.6945899,19,2
Winona,Minnesota,43.98772283,-91.78081305,19,4
Allegan,Michigan,42.59147037,-85.89102866,18,0
Botetourt,Virginia,37.55531756,-79.80982182,18,0
Branch,Michigan,41.91600556,-85.05929476,18,1
Cedar,Iowa,41.77233777,-91.13246684,18,0
Chautauqua,New York,42.2276921,-79.36691763,18,2
DeSoto,Florida,27.18677893,-81.80941373,18,3
Effingham,Georgia,32.36616021,-81.34280942,18,1
Fayette,Indiana,39.63684962,-85.17797541,18,3
Hawkins,Tennessee,36.44355426,-82.94885298,18,1
Jefferson,Ohio,40.38614126,-80.76259514,18,0
Jerome,Idaho,42.68891267,-114.2655033,18,0
Juniata,Pennsylvania,40.53358749,-77.3997513,18,0
Kauai,Hawaii,22.03935037,-159.5966786,18,0
Lauderdale,Alabama,34.90171875,-87.65624729,18,2
Marquette,Michigan,46.4338914,-87.64043701,18,2
Meriwether,Georgia,33.04163534,-84.68859732,18,0
Montcalm,Michigan,43.31082541,-85.15252824,18,1
Montgomery,New York,42.90123494,-74.44011632,18,1
Morton,North Dakota,46.71681782,-101.2822377,18,1
Mower,Minnesota,43.67142874,-92.75234549,18,0
Ohio,West Virginia,40.0955451,-80.62203992,18,0
Platte,Missouri,39.38154439,-94.77068479,18,0
Tate,Mississippi,34.65133709,-89.94485778,18,0
Van Buren,Michigan,42.25190229,-86.01939087,18,1
Wharton,Texas,29.27765923,-96.22319248,18,0
Bastrop,Texas,30.10370699,-97.31206354,17,1
Bienville,Louisiana,32.34569994,-93.05398492,17,1
Burke,Georgia,33.05917989,-81.99928721,17,0
Camden,Georgia,30.92951916,-81.66601818,17,0
Chickasaw,Mississippi,33.91983202,-88.9481545,17,2
Christian,Missouri,36.9711783,-93.18537118,17,0
Columbia,Florida,30.22509788,-82.62160164,17,0
Dukes and Nantucket,Massachusetts,41.40674725,-70.68763497,17,1
Fairfield,South Carolina,34.39287073,-81.1195624,17,0
Fauquier,Virginia,38.73564842,-77.80647472,17,0
Franklin,Tennessee,35.15634626,-86.09201039,17,1
Freeborn,Minnesota,43.67385583,-93.34884422,17,0
Greene,Pennsylvania,39.85746531,-80.22357106,17,0
Hancock,Ohio,41.00250487,-83.66838948,17,0
Haralson,Georgia,33.79602175,-85.21005667,17,0
LaSalle,Illinois,41.3442613,-88.88633881,17,1
Lincoln,Nebraska,41.04658298,-100.7475374,17,1
Lowndes,Mississippi,33.47386518,-88.4419153,17,0
Mason,Washington,47.35007586,-123.1863685,17,0
Montgomery,Indiana,40.04034823,-86.89335024,17,0
Nez Perce,Idaho,46.32638236,-116.7500975,17,2
Owen,Indiana,39.31145587,-86.83900724,17,0
Scott,Minnesota,44.6490231,-93.53340251,17,1
Shelby,Texas,31.79211404,-94.14550696,17,0
Tazewell,Illinois,40.50716185,-89.51404662,17,2
Toole,Montana,48.65577551,-111.6942414,17,3
Tunica,Mississippi,34.64967704,-90.37481167,17,1
Washington,Georgia,32.96711864,-82.79357039,17,0
Yankton,South Dakota,43.00924485,-97.39467635,17,0
Brooks,Georgia,30.83922642,-83.58303423,16,1
Cherokee,Oklahoma,35.90692775,-94.99980896,16,1
Chesterfield,South Carolina,34.64137396,-80.1564014,16,0
Chippewa,Wisconsin,45.06939744,-91.28068855,16,0
Cortland,New York,42.59509207,-76.07048931,16,0
Gloucester,Virginia,37.40809042,-76.53524337,16,0
Grundy,Tennessee,35.38433717,-85.72142731,16,0
Henry,Illinois,41.3533994,-90.13296166,16,0
Jessamine,Kentucky,37.87119786,-84.58252003,16,0
Josephine,Oregon,42.3665549,-123.5561938,16,0
Kaufman,Texas,32.5991417,-96.28734728,16,0
Kosciusko,Indiana,41.24521668,-85.86312322,16,0
Lewis,Washington,46.57756476,-122.3925769,16,1
Lewis and Clark,Montana,47.12610041,-112.394698,16,0
Louisa,Virginia,37.97850256,-77.96274807,16,0
Macon,Tennessee,36.53157855,-86.00778595,16,1
McDuffie,Georgia,33.47851918,-82.48252774,16,1
Mecklenburg,Virginia,36.67882005,-78.36131056,16,0
Miller,Arkansas,33.31403423,-93.89285258,16,0
Montgomery,Virginia,37.17746986,-80.37868691,16,0
Orleans,New York,43.2516977,-78.2320066,16,0
Peoria,Illinois,40.78702156,-89.76078901,16,1
Pike,Alabama,31.80396383,-85.9408295,16,0
Queen Anne's,Maryland,39.06198912,-76.03530977,16,0
St. Joseph,Michigan,41.91441767,-85.52797979,16,0
Sumter,Alabama,32.59117397,-88.19916205,16,0
Walla Walla,Washington,46.23040051,-118.4775539,16,0
Ward,North Dakota,48.22390169,-101.5436763,16,0
Wayne,Indiana,39.8633444,-85.01044989,16,1
Williamsburg,Virginia,37.28131268,-76.70905141,16,1
Winston,Mississippi,33.08747908,-89.03391385,16,0
Attala,Mississippi,33.08658803,-89.57838564,15,0
Baker,Florida,30.33060121,-82.28467476,15,1
Boyd,Kentucky,38.36176608,-82.68652187,15,2
Bradford,Florida,29.95079741,-82.16611613,15,0
Bradford,Pennsylvania,41.78869215,-76.51570822,15,0
Cass,Indiana,40.76135835,-86.34830753,15,0
Cattaraugus,New York,42.24778241,-78.67923096,15,0
Chaves,New Mexico,33.36406072,-104.4665365,15,0
Chester,South Carolina,34.69249168,-81.1583216,15,0
Danville,Virginia,36.58022376,-79.40395668,15,0
Dodge,Wisconsin,43.41576662,-88.70928178,15,0
Emmet,Michigan,45.52625509,-84.89083249,15,2
Grand Traverse,Michigan,44.69565625,-85.55585247,15,3
Grayson,Texas,33.62744998,-96.67753461,15,0
Harris,Georgia,32.73709786,-84.90538572,15,0
Henry,Iowa,40.98767962,-91.54436349,15,1
Jasper,Missouri,37.20351921,-94.34050458,15,0
Jefferson,Wisconsin,43.02054068,-88.77529134,15,0
Jones,Mississippi,31.62257767,-89.168969,15,0
Leake,Mississippi,32.7536828,-89.52402044,15,0
Liberty,Texas,30.15152688,-94.81205615,15,0
Loudon,Tennessee,35.73939663,-84.31145275,15,0
Lycoming,Pennsylvania,41.34310539,-77.06629984,15,0
Marshall,Iowa,42.03586837,-92.9990819,15,0
McClain,Oklahoma,35.01123903,-97.44572302,15,0
Ottawa,Oklahoma,36.83532655,-94.81011909,15,0
Pickens,Alabama,33.28094866,-88.08818103,15,0
Randolph,Alabama,33.29526734,-85.45708831,15,2
Smith,Mississippi,32.01744532,-89.50644846,15,0
Stephens,Georgia,34.55151201,-83.29405315,15,0
Tioga,New York,42.16852837,-76.30835812,15,0
Union,South Carolina,34.68835752,-81.61730349,15,0
Walker,Texas,30.73872995,-95.57440968,15,0
Walthall,Mississippi,31.14971548,-90.10446654,15,0
Winchester,Virginia,39.17054517,-78.17325058,15,0
Angelina,Texas,31.25457347,-94.60901487,14,0
Buchanan,Missouri,39.65816401,-94.80138942,14,0
Caldwell,Louisiana,32.0902519,-92.11752148,14,0
Carlton,Minnesota,46.59180601,-92.67601019,14,0
Catahoula,Louisiana,31.66778967,-91.84526385,14,1
Cayuga,New York,42.91261714,-76.55731592,14,0
Columbus,North Carolina,34.26744084,-78.65801424,14,1
DeKalb,Alabama,34.45946862,-85.80782906,14,0
Elmore,Idaho,43.3507101,-115.4701578,14,0
Fulton,New York,43.11363907,-74.41798804,14,0
Halifax,North Carolina,36.25669272,-77.6556109,14,0
Humboldt,Nevada,41.40692186,-118.1109427,14,0
Hunt,Texas,33.12351514,-96.08551032,14,0
Jasper,Indiana,41.02078733,-87.11553319,14,1
Juneau,Alaska,58.45031811,-134.200436,14,0
Ketchikan Gateway,Alaska,55.57445008,-130.975561,14,0
Lamar,Georgia,33.07841647,-84.14263877,14,0
Liberty,Georgia,31.82588896,-81.49251135,14,0
Marengo,Alabama,32.24767634,-87.78796182,14,1
Marion,Mississippi,31.23132643,-89.8209217,14,0
Perry,Mississippi,31.17161885,-88.99281835,14,1
Roanoke City,Virginia,37.27791025,-79.96189766,14,0
Rockwall,Texas,32.89779518,-96.40771592,14,0
Rush,Indiana,39.62002287,-85.4655599,14,1
Rusk,Texas,32.10773545,-94.76176432,14,0
Russell,Alabama,32.28725256,-85.18415324,14,0
Scott,Kentucky,38.29622293,-84.5816631,14,0
Susquehanna,Pennsylvania,41.82147784,-75.80071959,14,0
Taos,New Mexico,36.58006022,-105.6310198,14,0
Trousdale,Tennessee,36.39026213,-86.16087954,14,1
Vance,North Carolina,36.36880673,-78.40670845,14,0
Wood,West Virginia,39.20967886,-81.5162836,14,0
Yuma,Arizona,32.76895712,-113.9066674,14,0
Augusta,Virginia,38.16404586,-79.12461614,13,0
Bacon,Georgia,31.55456473,-82.45936528,13,0
Box Elder,Utah,41.52106798,-113.0832816,13,0
Brown,South Dakota,45.58994323,-98.35165355,13,0
Butte,California,39.66727762,-121.6005252,13,0
Calhoun,Mississippi,33.93683395,-89.33686647,13,0
Campbell,Kentucky,38.94384345,-84.37875208,13,3
Carson City,Nevada,39.15509045,-119.7480219,13,0
Cheatham,Tennessee,36.26136216,-87.08903581,13,0
Cheshire,New Hampshire,42.92015988,-72.25311043,13,0
Clark,Ohio,39.91592258,-83.78498252,13,0
Clay,Georgia,31.62221166,-84.97713865,13,1
Clinton,Illinois,38.60704876,-89.42385254,13,0
Delaware,Oklahoma,36.40823634,-94.80325046,13,0
Dodge,Minnesota,44.02238415,-92.86244324,13,0
Donley,Texas,34.96517499,-100.8140093,13,0
Gibson,Tennessee,35.99438059,-88.93358327,13,0
Goodhue,Minnesota,44.40849741,-92.7234195,13,0
Hoke,North Carolina,35.01888303,-79.23651674,13,0
Hopewell,Virginia,37.29186313,-77.29754684,13,0
Iron,Utah,37.8590362,-113.2897381,13,0
Johnson,Georgia,32.70211082,-82.66166794,13,0
Kenai Peninsula,Alaska,60.24429722,-151.5388884,13,0
Kittitas,Washington,47.12521214,-120.679439,13,0
Lawrence,Ohio,38.59743452,-82.53466552,13,0
Logan,Colorado,40.7249637,-103.110817,13,0
Macon,Illinois,39.86064913,-88.96342505,13,1
McCracken,Kentucky,37.05350953,-88.70445755,13,1
McDowell,North Carolina,35.67736232,-82.0482425,13,0
Montgomery,North Carolina,35.33155144,-79.90416657,13,1
Neshoba,Mississippi,32.75339664,-89.11726492,13,0
Perry,Pennsylvania,40.40206612,-77.26297447,13,1
Pontotoc,Mississippi,34.226046,-89.03636807,13,1
Pulaski,Kentucky,37.10466131,-84.57629079,13,1
Richland,Louisiana,32.41391005,-91.76634876,13,0
Sagadahoc,Maine,43.95415864,-69.85074999,13,0
San Juan,Utah,37.62762978,-109.8033714,13,0
Seminole,Georgia,30.93464824,-84.86823924,13,0
Shenandoah,Virginia,38.85905135,-78.56813762,13,0
Simpson,Kentucky,36.74058474,-86.58047435,13,1
Union,Arkansas,33.16887091,-92.59746952,13,0
Warren,Iowa,41.33559454,-93.56007641,13,0
Warren,Missouri,38.76529479,-91.16124662,13,0
Webster,Mississippi,33.61300486,-89.28392912,13,1
Wilcox,Alabama,31.98773215,-87.30891118,13,0
Yuba,California,39.26255932,-121.3535644,13,0
Autauga,Alabama,32.53952745,-86.64408227,12,1
Bedford,Tennessee,35.51123746,-86.45549096,12,0
Bedford,Virginia,37.3080028,-79.5281964,12,0
Benton,Iowa,42.08011739,-92.06463573,12,1
Bulloch,Georgia,32.39577406,-81.74811421,12,0
Cabell,West Virginia,38.42424062,-82.23855912,12,0
Calhoun,Texas,28.47048236,-96.61633945,12,0
Cerro Gordo,Iowa,43.08177563,-93.2612239,12,0
Cherokee,North Carolina,35.1349263,-84.05970864,12,1
Cleburne,Alabama,33.67679204,-85.52005899,12,0
Codington,South Dakota,44.97788119,-97.18827677,12,0
Concordia,Louisiana,31.44817835,-91.63814433,12,1
Coryell,Texas,31.39078397,-97.79936155,12,0
Douglas,Oregon,43.27941273,-123.167291,12,0
Edgecombe,North Carolina,35.91230639,-77.59436892,12,0
Fluvanna,Virginia,37.84157909,-78.27715475,12,0
Franklin,Virginia,36.99536167,-79.88023649,12,0
Greene,Indiana,39.03630547,-86.96223202,12,0
Greenwood,South Carolina,34.15272415,-82.12715789,12,0
Grundy,Illinois,41.28569601,-88.41905692,12,0
Harrison,Kentucky,38.44188174,-84.32869741,12,0
Jasper,South Carolina,32.43171982,-81.02487495,12,0
Jefferson,Tennessee,36.04818632,-83.45148924,12,0
Lincoln,Idaho,43.0012336,-114.1358773,12,0
Madison,Florida,30.44396917,-83.47398594,12,0
Madison,Kentucky,37.71659336,-84.27220275,12,1
Marathon,Wisconsin,44.89792533,-89.75863384,12,0
Mayes,Oklahoma,36.30179091,-95.23175116,12,2
Miami,Indiana,40.76940965,-86.04525048,12,0
Miller,Georgia,31.16568912,-84.73151117,12,0
Monroe,Georgia,33.014289,-83.92097166,12,1
Montgomery,Mississippi,33.49419589,-89.61729103,12,1
Morgan,Georgia,33.59232073,-83.49129491,12,0
Ogle,Illinois,42.04165196,-89.32184679,12,0
Oxford,Maine,44.49952995,-70.75682123,12,0
Pulaski,Missouri,37.82462075,-92.20783203,12,1
Quitman,Mississippi,34.25157572,-90.28908,12,0
San Juan,Washington,48.60182783,-122.96745,12,0
Schoharie,New York,42.58831742,-74.4433903,12,0
Seneca,New York,42.78081007,-76.82497064,12,0
Sheridan,Wyoming,44.79048913,-106.8862389,12,0
Teller,Colorado,38.88133511,-105.1614893,12,1
Washington,Virginia,36.72341572,-81.95666289,12,0
Whitman,Washington,46.90022523,-117.5241763,12,0
Williamsburg,South Carolina,33.62190129,-79.72767442,12,0
Wright,Minnesota,45.17297924,-93.96234781,12,0
Accomack,Virginia,37.76707161,-75.63234615,11,0
Adair,Missouri,40.19058551,-92.60078167,11,0
Anderson,Tennessee,36.12684348,-84.19965764,11,1
Bullitt,Kentucky,37.97162523,-85.68955617,11,2
Caldwell,North Carolina,35.95204977,-81.54799522,11,0
Caroline,Maryland,38.87172293,-75.82904158,11,0
Cascade,Montana,47.30797024,-111.3467922,11,0
Castro,Texas,34.53016752,-102.2617243,11,1
Clark,Kentucky,37.9689263,-84.14615986,11,0
Clay,Indiana,39.39561833,-87.11723506,11,0
Clay,Mississippi,33.65358105,-88.77784255,11,0
Clinton,Ohio,39.41485808,-83.80852286,11,1
Crawford,Indiana,38.28814402,-86.44518825,11,0
Dyer,Tennessee,36.05931946,-89.41542855,11,0
Erath,Texas,32.23602653,-98.21773417,11,1
Finney,Kansas,38.04340344,-100.7381938,11,0
Garvin,Oklahoma,34.70418038,-97.30811132,11,0
Grand Forks,North Dakota,47.92093639,-97.45450447,11,0
Gray,Texas,35.40081878,-100.8129222,11,0
Harrison,Iowa,41.68330137,-95.81558439,11,0
Harrison,Texas,32.54935988,-94.36934071,11,1
Inyo,California,36.51112084,-117.4111978,11,0
Ionia,Michigan,42.94502238,-85.07413319,11,1
Johnson,Arkansas,35.56759135,-93.46036368,11,0
Kemper,Mississippi,32.75462946,-88.64105766,11,0
King George,Virginia,38.26818502,-77.15852768,11,0
Klickitat,Washington,45.87325839,-120.7913598,11,1
Lenoir,North Carolina,35.2403259,-77.64245615,11,0
Lincoln,Arkansas,33.95317155,-91.74002806,11,0
Lincoln,North Carolina,35.48508185,-81.21740317,11,0
Macon,Georgia,32.35207048,-84.04234127,11,0
Marshall,Indiana,41.32467367,-86.26185087,11,0
McPherson,Kansas,38.39184858,-97.64769869,11,0
Mercer,Ohio,40.54043046,-84.62912742,11,1
Montgomery,Kansas,37.19236568,-95.74329258,11,0
Murray,Georgia,34.78897608,-84.74993177,11,0
New Kent,Virginia,37.50694406,-76.99828634,11,0
Noble,Indiana,41.39672484,-85.41966713,11,1
Okmulgee,Oklahoma,35.64661916,-95.96432828,11,0
Orange,Indiana,38.5411892,-86.49523093,11,2
Pottawattamie,Iowa,41.33640314,-95.53907776,11,0
Scott,Indiana,38.68672078,-85.74627859,11,2
Scott,Missouri,37.05588075,-89.56474493,11,0
Silver Bow,Montana,45.90018933,-112.6620092,11,0
Stephens,Oklahoma,34.48556989,-97.85141892,11,1
Switzerland,Indiana,38.82767338,-85.03022429,11,0
Vernon,Louisiana,31.10884837,-93.18153838,11,0
Waller,Texas,30.01058447,-95.99011759,11,0
Woodbury,Iowa,42.38979414,-96.0459439,11,0
Yalobusha,Mississippi,34.02824175,-89.7076205,11,0
Andrews,Texas,32.30468633,-102.6376548,10,0
Beaufort,North Carolina,35.48531943,-76.84325809,10,0
Bertie,North Carolina,36.0688473,-76.96545943,10,1
Blount,Alabama,33.98210918,-86.56790593,10,0
Carver,Minnesota,44.82017001,-93.8009918,10,0
Cheboygan,Michigan,45.44787015,-84.50122149,10,1
Clarke,Alabama,31.68099859,-87.83548597,10,0
Clarke,Mississippi,32.04158545,-88.6889622,10,1
Clay,Alabama,33.26984193,-85.85836077,10,0
Colleton,South Carolina,32.87582989,-80.67641292,10,0
Coshocton,Ohio,40.30096166,-81.91729018,10,0
Crow Wing,Minnesota,46.48096553,-94.06755609,10,0
Culpeper,Virginia,38.48199985,-77.9563087,10,0
Dare,North Carolina,35.66520691,-75.71767334,10,0
Defiance,Ohio,41.32398837,-84.49076944,10,0
Douglas,Illinois,39.76768052,-88.21854195,10,0
Douglas,Washington,47.7361335,-119.692937,10,0
Elbert,Colorado,39.28656773,-104.1358721,10,1
Erie,Ohio,41.36796058,-82.62904521,10,1
Fillmore,Minnesota,43.67394126,-92.08980382,10,0
Franklin,Kansas,38.56443815,-95.28644341,10,0
Franklin,New York,44.59040891,-74.29926032,10,0
Grant,Louisiana,31.59882456,-92.56124347,10,0
Greene,Alabama,32.85504247,-87.95684022,10,0
Greene,North Carolina,35.48544173,-77.67578087,10,0
Hendry,Florida,26.55386945,-81.16469006,10,0
Hockley,Texas,33.60771256,-102.3431676,10,1
Hood,Texas,32.42990927,-97.83242024,10,1
Kalkaska,Michigan,44.68512729,-85.09085699,10,2
Knox,Indiana,38.68861576,-87.4194665,10,0
Lawrence,Tennessee,35.21675201,-87.39787695,10,0
Lincoln,Oklahoma,35.70270942,-96.8812462,10,0
Livingston,Illinois,40.89188292,-88.55784752,10,0
Lowndes,Alabama,32.1597283,-86.65158371,10,0
Macoupin,Illinois,39.26119767,-89.92424028,10,0
Mifflin,Pennsylvania,40.61116939,-77.61070738,10,0
Nowata,Oklahoma,36.79843529,-95.61902331,10,0
Okanogan,Washington,48.54855019,-119.7387224,10,0
Pasquotank,North Carolina,36.26723798,-76.25134778,10,0
Pickens,Georgia,34.46589159,-84.46406611,10,2
Pike,Georgia,33.09310242,-84.38790389,10,0
Prentiss,Mississippi,34.61810501,-88.51986294,10,0
Putnam,West Virginia,38.50782345,-81.9082131,10,0
Reno,Kansas,37.95230263,-98.08607292,10,0
Ross,Ohio,39.33705391,-83.06000914,10,0
San Miguel,Colorado,38.00450883,-108.4020725,10,0
Schley,Georgia,32.2654021,-84.31258912,10,1
Scotts Bluff,Nebraska,41.85070896,-103.7080986,10,0
Sequoyah,Oklahoma,35.49447108,-94.75463785,10,1
Sherburne,Minnesota,45.44447208,-93.77617511,10,0
St. Helena,Louisiana,30.82210324,-90.71013176,10,0
Steuben,Indiana,41.64423868,-85.00101094,10,1
Surry,North Carolina,36.41689489,-80.69102283,10,0
Talbot,Maryland,38.76618159,-76.10882561,10,1
Tioga,Pennsylvania,41.77255149,-77.25433032,10,0
White,Georgia,34.64624278,-83.74905525,10,0
Worcester,Maryland,38.21274277,-75.33200012,10,0
Baca,Colorado,37.31940883,-102.5603223,9,0
Baker,Georgia,31.32669878,-84.44218806,9,2
Bibb,Alabama,32.99642064,-87.1251146,9,0
Brown,Indiana,39.19605589,-86.22868909,9,1
Buckingham,Virginia,37.57242268,-78.52518834,9,0
Cambria,Pennsylvania,40.49527404,-78.71377428,9,1
Campbell,Wyoming,44.24886082,-105.5474404,9,0
Carroll,Ohio,40.5789686,-81.09178213,9,0
Cass,Michigan,41.91522292,-85.99405727,9,1
Choctaw,Mississippi,33.34598242,-89.24809382,9,1
Clallam,Washington,48.04754642,-123.9226319,9,0
Cochise,Arizona,31.87934684,-109.7516088,9,0
Coosa,Alabama,32.93690146,-86.24847739,9,0
Covington,Alabama,31.2477854,-86.45050893,9,0
Crawford,Ohio,40.85065156,-82.91989099,9,0
Dodge,Georgia,32.17265114,-83.16948926,9,0
Dubois,Indiana,38.36597551,-86.8792417,9,0
Dunklin,Missouri,36.27167174,-90.09122243,9,0
Essex,New York,44.11630765,-73.77297842,9,0
Fannin,Georgia,34.86430205,-84.316964,9,0
Fayette,Texas,29.87788372,-96.92076062,9,0
Grady,Oklahoma,35.0167709,-97.88339847,9,0
Green,Wisconsin,42.6794956,-89.60243287,9,0
Hardin,Kentucky,37.6976111,-85.96319251,9,0
Huron,Ohio,41.14651175,-82.59867951,9,1
Irwin,Georgia,31.60213036,-83.27501387,9,0
Kendall,Texas,29.94414155,-98.7113588,9,0
Kent,Maryland,39.24976208,-76.04741541,9,0
Kimball,Nebraska,41.19774275,-103.7148131,9,0
Knox,Maine,44.11486325,-69.10529169,9,0
Labette,Kansas,37.19113093,-95.29849679,9,0
Lawrence,South Dakota,44.35919441,-103.7929428,9,0
Lincoln,Maine,44.05996956,-69.54227124,9,0
Lumpkin,Georgia,34.57286511,-84.00425681,9,0
Madison,Georgia,34.12920917,-83.21218732,9,1
Manistee,Michigan,44.33352407,-86.05626916,9,0
Marshall,Tennessee,35.45798777,-86.76420988,9,0
Moore,Texas,35.83769242,-101.8930281,9,0
Oconee,South Carolina,34.75225169,-83.06742317,9,0
Petersburg,Virginia,37.20530399,-77.39368102,9,0
Pontotoc,Oklahoma,34.72959848,-96.68337199,9,0
Roanoke,Virginia,37.26865804,-80.06396753,9,0
Sebastian,Arkansas,35.19605503,-94.27162713,9,0
Snyder,Pennsylvania,40.77129231,-77.06840691,9,1
Tipton,Indiana,40.31123252,-86.05234925,9,0
Warren,Mississippi,32.35810271,-90.83352619,9,0
Williamson,Illinois,37.73033511,-88.92994027,9,0
Yadkin,North Carolina,36.16222629,-80.66239436,9,0
Amelia,Virginia,37.34081025,-77.98584649,8,0
Amherst,Virginia,37.60308293,-79.14548696,8,0
Auglaize,Ohio,40.55998859,-84.2242143,8,0
Butler,Kansas,37.78134351,-96.83878537,8,0
Caledonia,Vermont,44.46548598,-72.10314651,8,0
Carroll,Tennessee,35.97366108,-88.45189331,8,0
Charlevoix,Michigan,45.37790017,-85.19614053,8,0
Clarion,Pennsylvania,41.19265812,-79.42413524,8,0
Clinton,Indiana,40.30319754,-86.47277257,8,0
Clinton,Missouri,39.6013098,-94.40465394,8,0
Coffee,Alabama,31.39932826,-85.98901039,8,0
Columbia,Oregon,45.94464254,-123.0890898,8,0
Crawford,Pennsylvania,41.68447709,-80.10760592,8,0
Curry,New Mexico,34.57421077,-103.3468876,8,0
Delta,Michigan,45.9048491,-86.9080745,8,0
Douglas,Nevada,38.912862,-119.6171333,8,0
Duplin,North Carolina,34.93449805,-77.93140529,8,0
Elko,Nevada,41.14531606,-115.3577619,8,1
Fredericksburg,Virginia,38.2977863,-77.4922454,8,0
Gadsden,Florida,30.57796289,-84.61915825,8,0
Gem,Idaho,44.06482372,-116.398376,8,0
Grenada,Mississippi,33.77036166,-89.80245083,8,0
Habersham,Georgia,34.63331566,-83.53094677,8,0
Jasper,Iowa,41.68576082,-93.05567785,8,0
Jefferson,Florida,30.43669112,-83.89442308,8,0
Jo Daviess,Illinois,42.36542373,-90.21094405,8,0
Johnson,Wyoming,44.04057166,-106.5845174,8,0
LaSalle,Louisiana,31.67884782,-92.15907765,8,0
Lawrence,Alabama,34.52041498,-87.31069453,8,0
Logan,West Virginia,37.8299889,-81.93528571,8,0
Madison,Montana,45.30080065,-111.9173017,8,1
Marlboro,South Carolina,34.59905577,-79.67561152,8,0
Mecosta,Michigan,43.64064262,-85.32463223,8,1
Montezuma,Colorado,37.33859579,-108.5958857,8,1
Morgan,Illinois,39.71654544,-90.20255104,8,1
Oldham,Kentucky,38.39791089,-85.448222,8,0
Orleans,Vermont,44.82964024,-72.24562697,8,0
Polk,North Carolina,35.27820615,-82.16812354,8,0
Polk,Texas,30.79472531,-94.8276624,8,0
Preble,Ohio,39.7420247,-84.64787018,8,0
Pulaski,Georgia,32.23334561,-83.4754996,8,0
Rockingham,North Carolina,36.39593137,-79.77504841,8,1
Shelby,Kentucky,38.21476019,-85.194223,8,0
Stanly,North Carolina,35.31647813,-80.25093221,8,0
Steele,Minnesota,44.02240351,-93.22627088,8,0
Stoddard,Missouri,36.85571651,-89.9444155,8,0
Stokes,North Carolina,36.4017975,-80.23893369,8,0
Talbot,Georgia,32.69642758,-84.53351366,8,1
Toombs,Georgia,32.12059861,-82.32957247,8,1
Umatilla,Oregon,45.59073056,-118.7353826,8,0
Union,Ohio,40.30016061,-83.37239023,8,0
Union,Pennsylvania,40.96188846,-77.05996014,8,0
Warren,Virginia,38.90847745,-78.20280433,8,0
Washington,North Carolina,35.83810081,-76.57299037,8,0
Watauga,North Carolina,36.23103603,-81.70033724,8,0
Whitley,Indiana,41.13863784,-85.50791236,8,1
Wilson,Texas,29.1732598,-98.08693082,8,0
Woodford,Kentucky,38.04178222,-84.7417556,8,1
Amite,Mississippi,31.17467303,-90.80501621,7,1
Austin,Texas,29.88548725,-96.27736949,7,0
Barry,Michigan,42.59513984,-85.30834519,7,0
Bonneville,Idaho,43.38713372,-111.6161537,7,0
Boone,Illinois,42.32359279,-88.82345779,7,1
Bourbon,Kansas,37.85508555,-94.84865997,7,1
Boyle,Kentucky,37.62680923,-84.8633779,7,0
Brown,Minnesota,44.24205652,-94.72562874,7,0
Cannon,Tennessee,35.80990797,-86.05738983,7,0
Carroll,Mississippi,33.44834567,-89.91994479,7,0
Catoosa,Georgia,34.89872298,-85.13757014,7,0
Cedar,Missouri,37.72391475,-93.85445441,7,0
Cherokee,Alabama,34.17805983,-85.60638968,7,0
Clark,Wisconsin,44.73483377,-90.61207486,7,0
Clear Creek,Colorado,39.68864463,-105.6463118,7,0
Clearfield,Pennsylvania,41.00110782,-78.47592663,7,0
Cleveland,Arkansas,33.89723187,-92.18537045,7,0
Coffee,Tennessee,35.49090731,-86.07311784,7,0
Colbert,Alabama,34.69847452,-87.80168544,7,1
Covington,Mississippi,31.63225413,-89.55389939,7,0
Dallas,Alabama,32.32688101,-87.1086671,7,0
Dawson,Texas,32.74255572,-101.9477242,7,0
DeKalb,Tennessee,35.97616272,-85.83689361,7,0
DeWitt,Texas,29.08101855,-97.3568117,7,0
Deaf Smith,Texas,34.96522957,-102.6054267,7,0
Dodge,Nebraska,41.58071748,-96.65598179,7,0
Door,Wisconsin,44.95856458,-87.30002707,7,0
Douglas,Wisconsin,46.43222285,-91.91595768,7,0
Franklin,Alabama,34.44235334,-87.84289505,7,0
Franklin,Kentucky,38.2379395,-84.87962551,7,0
Grays Harbor,Washington,47.14003705,-123.7820567,7,0
Hale,Alabama,32.76039258,-87.63284988,7,0
Hale,Texas,34.07044901,-101.8268114,7,0
Hamilton,Nebraska,40.87349452,-98.02099117,7,0
Hancock,West Virginia,40.51943859,-80.57461608,7,0
Haywood,Tennessee,35.58332824,-89.28536625,7,0
Hot Spring,Arkansas,34.31709259,-92.95396325,7,0
Iroquois,Illinois,40.74717633,-87.82466784,7,0
Jefferson,Indiana,38.78576239,-85.43633383,7,0
Jenkins,Georgia,32.79248718,-81.96040187,7,1
Jones,Georgia,33.02512137,-83.56019163,7,0
Knox,Ohio,40.39830217,-82.42027563,7,1
Lincoln,Montana,48.54265777,-115.4046155,7,1
Lincoln,Tennessee,35.13738622,-86.58910106,7,0
Maverick,Texas,28.7429195,-100.3157686,7,0
McNairy,Tennessee,35.17468549,-88.5647812,7,0
Medina,Texas,29.3557301,-99.11030298,7,0
Milam,Texas,30.7858183,-96.97718698,7,0
Newberry,South Carolina,34.28629098,-81.59935761,7,0
Newton,Mississippi,32.40021118,-89.11843336,7,0
Nye,Nevada,38.04264256,-116.4722702,7,0
Orange,Virginia,38.24530219,-78.015604,7,0
Park,Montana,45.48965095,-110.5264394,7,0
Person,North Carolina,36.38989032,-78.97217358,7,0
Pierce,Wisconsin,44.71850291,-92.4224416,7,0
Pittsburg,Oklahoma,34.92065823,-95.7513432,7,0
Randolph,Indiana,40.15734772,-85.01139319,7,1
Randolph,Missouri,39.44007257,-92.4971374,7,0
Ray,Missouri,39.3537468,-93.98905745,7,0
Robeson,North Carolina,34.64244496,-79.1025053,7,0
Sabine,Louisiana,31.56388699,-93.55433981,7,0
Saline,Kansas,38.78369175,-97.65185177,7,1
San Patricio,Texas,28.00880118,-97.51763891,7,0
Sioux,Iowa,43.08221074,-96.1767568,7,0
Socorro,New Mexico,34.00715494,-106.9298354,7,0
Somerset,Pennsylvania,39.97172723,-79.02699593,7,0
St. Croix,Wisconsin,45.03437474,-92.45000068,7,0
Starr,Texas,26.56150059,-98.73892358,7,0
Stearns,Minnesota,45.55192576,-94.61078221,7,0
Taney,Missouri,36.65465345,-93.04075153,7,1
Torrance,New Mexico,34.64048375,-105.8508949,7,0
Val Verde,Texas,29.89149232,-101.1525205,7,0
Valencia,New Mexico,34.71669834,-106.8103733,7,0
Van Zandt,Texas,32.56483801,-95.83766469,7,1
Wakulla,Florida,30.16548905,-84.39895211,7,0
Waldo,Maine,44.4858305,-69.12061935,7,1
Wasco,Oregon,45.16292781,-121.1670954,7,0
Washington,Alabama,31.4092794,-88.20689944,7,1
Wexford,Michigan,44.33853602,-85.57712739,7,0
Willacy,Texas,26.47411727,-97.61535848,7,1
Woodford,Illinois,40.78579374,-89.20973757,7,0
Wright,Missouri,37.27029221,-92.46914488,7,0
Alcorn,Mississippi,34.88084463,-88.57996173,6,0
Allegany,Maryland,39.62357628,-78.69280486,6,0
Anson,North Carolina,34.97403241,-80.09953279,6,0
Antrim,Michigan,44.99690221,-85.15503082,6,0
Appling,Georgia,31.74847232,-82.28909114,6,0
Archuleta,Colorado,37.19474156,-107.0476867,6,0
Bamberg,South Carolina,33.21927586,-81.05659969,6,0
Beltrami,Minnesota,47.97373527,-94.93732139,6,0
Ben Hill,Georgia,31.76095874,-83.22145359,6,0
Blair,Pennsylvania,40.47961444,-78.34917412,6,0
Brookings,South Dakota,44.36974375,-96.79079945,6,0
Brown,Texas,31.77430356,-98.99907113,6,0
Caddo,Oklahoma,35.17364557,-98.37534464,6,0
Campbell,Tennessee,36.40355516,-84.1510856,6,0
Cherokee,Texas,31.837258,-95.16559897,6,0
Chester,Tennessee,35.42527478,-88.6095842,6,0
Choctaw,Alabama,32.02227341,-88.2656443,6,0
Clay,South Dakota,42.91296147,-96.97656917,6,0
Colorado,Texas,29.622098,-96.5273805,6,0
Crawford,Iowa,42.03718237,-95.3819718,6,0
Cumberland,Virginia,37.51328851,-78.24398086,6,0
Edgefield,South Carolina,33.77221995,-81.96231108,6,0
Grady,Georgia,30.87454847,-84.23418364,6,0
Greene,Arkansas,36.1173546,-90.55832668,6,0
Grimes,Texas,30.54579585,-95.98902499,6,0
Hardeman,Tennessee,35.20772017,-88.99161161,6,0
Henderson,Kentucky,37.79344553,-87.57392021,6,0
Henry,Tennessee,36.33160906,-88.30121797,6,0
Highland,Ohio,39.1839264,-83.60331456,6,0
Hill,Texas,31.99045053,-97.13423143,6,0
Humphreys,Mississippi,33.12825718,-90.52252707,6,1
Huntingdon,Pennsylvania,40.42162652,-77.97673273,6,0
Huntington,Indiana,40.82907273,-85.48822092,6,1
Iowa,Iowa,41.68630265,-92.0643373,6,0
Jackson,Oklahoma,34.58781741,-99.41138784,6,0
Jones,Iowa,42.12118609,-91.13139641,6,0
LaGrange,Indiana,41.64232188,-85.42674232,6,1
Lamar,Texas,33.66981763,-95.57404777,6,0
Lauderdale,Tennessee,35.75893438,-89.6301591,6,0
Laurens,South Carolina,34.48244419,-82.00490796,6,0
Lawrence,Mississippi,31.55147224,-90.10841127,6,0
Lee,Illinois,41.74583951,-89.29977132,6,0
Lewis,New York,43.7844157,-75.44903992,6,0
Limestone,Texas,31.5454767,-96.58095444,6,1
Lincoln,Georgia,33.79201475,-82.45024131,6,0
Logan,Oklahoma,35.91899576,-97.44352845,6,0
Macon,Alabama,32.38759944,-85.69267724,6,1
Mason,West Virginia,38.77071799,-82.02524219,6,0
Mercer,West Virginia,37.40481169,-81.11023142,6,0
Monona,Iowa,42.05220391,-95.95743843,6,0
Monroe,Tennessee,35.44550387,-84.24902965,6,0
Montgomery,Kentucky,38.03253032,-83.9145241,6,0
Morrow,Ohio,40.5236356,-82.7892599,6,0
Muskingum,Ohio,39.96575964,-81.94363275,6,0
Newton,Indiana,40.95610449,-87.39635768,6,1
Newton,Missouri,36.90519407,-94.3394104,6,0
Noble,Oklahoma,36.38953329,-97.22928674,6,0
Ottawa,Ohio,41.53781826,-83.0940185,6,0
Parker,Texas,32.77757172,-97.80500621,6,0
Payette,Idaho,44.00545243,-116.7647695,6,1
Pennington,South Dakota,44.0025835,-102.8240777,6,1
Perry,Ohio,39.73508655,-82.23804971,6,0
Poinsett,Arkansas,35.57433534,-90.66268713,6,0
Polk,Arkansas,34.48254879,-94.22728802,6,0
Poweshiek,Iowa,41.68625425,-92.53155731,6,1
Preston,West Virginia,39.46770987,-79.66712803,6,0
Randolph,Arkansas,36.3415714,-91.02455531,6,0
Rio Arriba,New Mexico,36.51072137,-106.6931674,6,0
Roscommon,Michigan,44.33473082,-84.61067651,6,0
Santa Cruz,Arizona,31.52508998,-110.8479088,6,0
Searcy,Arkansas,35.9109364,-92.69936482,6,0
Seneca,Ohio,41.12351311,-83.12783209,6,1
Sevier,Arkansas,33.99780401,-94.2424869,6,0
Shelby,Iowa,41.6850066,-95.31015553,6,0
Simpson,Mississippi,31.91282117,-89.91716179,6,0
Starke,Indiana,41.27890281,-86.64686895,6,0
Ste. Genevieve,Missouri,37.89090059,-90.1949941,6,1
Stephenson,Illinois,42.35129217,-89.662598,6,0
Story,Iowa,42.03621213,-93.46499005,6,0
Sullivan,New Hampshire,43.36094111,-72.22203125,6,0
Sussex,Virginia,36.92432914,-77.25791182,6,0
Sweetwater,Wyoming,41.65943896,-108.8827882,6,0
Terry,Texas,33.17402785,-102.3354521,6,0
Transylvania,North Carolina,35.20383864,-82.79638423,6,0
Union,Mississippi,34.49162015,-89.00776006,6,0
Upshur,Texas,32.73706798,-94.93999853,6,0
Van Buren,Iowa,40.75326764,-91.95017958,6,0
Wabasha,Minnesota,44.28424356,-92.23121312,6,0
Warren,Georgia,33.41146451,-82.67795848,6,0
Wythe,Virginia,36.91582035,-81.07834059,6,0
Abbeville,South Carolina,34.22333378,-82.46170658,5,0
Alamosa,Colorado,37.57250606,-105.7885451,5,0
Ashley,Arkansas,33.19153461,-91.7698471,5,0
Atascosa,Texas,28.89333001,-98.52730485,5,0
Bannock,Idaho,42.67002716,-112.2233311,5,0
Benton,Mississippi,34.81681228,-89.18945516,5,0
Bradley,Arkansas,33.46755808,-92.15980837,5,0
Brantley,Georgia,31.19576557,-81.97743999,5,1
Buchanan,Iowa,42.4709188,-91.83510825,5,0
Burleson,Texas,30.49273808,-96.62158484,5,0
Burnet,Texas,30.78801353,-98.181887,5,0
Butler,Missouri,36.71462476,-90.40421163,5,0
Calaveras,California,38.20537103,-120.552913,5,0
Caldwell,Texas,29.83668859,-97.61814775,5,0
Calhoun,South Carolina,33.66926881,-80.77722168,5,1
Calloway,Kentucky,36.62093411,-88.2731593,5,0
Carroll,Illinois,42.06823429,-89.93395545,5,1
Cassia,Idaho,42.28347888,-113.6012409,5,1
Champaign,Ohio,40.13923427,-83.76875242,5,0
Charles City,Virginia,37.35358063,-77.05634116,5,0
Cherokee,Kansas,37.16928494,-94.8462897,5,0
Chisago,Minnesota,45.5021011,-92.90861945,5,1
Clatsop,Oregon,45.99712889,-123.660711,5,0
Clayton,Iowa,42.84443388,-91.34133693,5,0
Cottonwood,Minnesota,44.00715262,-95.18138802,5,0
Craig,Oklahoma,36.76268118,-95.20916602,5,0
Crawford,Michigan,44.68255561,-84.61006219,5,1
Cross,Arkansas,35.29631396,-90.77185818,5,0
Custer,Oklahoma,35.63853802,-99.00170785,5,0
Daviess,Indiana,38.70186039,-87.07185406,5,1
Delta,Colorado,38.86246243,-107.8631342,5,1
Desha,Arkansas,33.83011025,-91.25500948,5,0
Drew,Arkansas,33.59035001,-91.71777921,5,0
Dunn,Wisconsin,44.94562799,-91.8962481,5,0
Edmonson,Kentucky,37.21218923,-86.23955613,5,0
Emanuel,Georgia,32.59221302,-82.30239915,5,0
Forest,Pennsylvania,41.51095103,-79.23229292,5,0
Franklin,Maine,44.97330019,-70.44381045,5,0
Franklin,Mississippi,31.47786634,-90.89672989,5,0
Franklin City,Virginia,36.6831435,-76.93859681,5,0
Fulton,Ohio,41.60213491,-84.12571393,5,0
Garfield,Oklahoma,36.3791334,-97.78265517,5,0
Garrett,Maryland,39.52786077,-79.27355126,5,0
George,Mississippi,30.86259065,-88.64436789,5,0
Grant,Arkansas,34.29017991,-92.42320562,5,0
Gratiot,Michigan,43.29265605,-84.60505416,5,0
Greensville,Virginia,36.67878901,-77.56351439,5,0
Henry,Alabama,31.51148016,-85.24267944,5,0
Hertford,North Carolina,36.3607755,-76.98104134,5,1
Howard,Arkansas,34.09007427,-93.9934871,5,0
Independence,Arkansas,35.74242707,-91.57001641,5,0
Itawamba,Mississippi,34.27993475,-88.3606733,5,0
Jackson,Louisiana,32.30251776,-92.55692092,5,0
Jasper,Georgia,33.31535543,-83.68844964,5,0
Jefferson,Kansas,39.2347941,-95.38289232,5,0
Jersey,Illinois,39.08869046,-90.35393073,5,0
Juneau,Wisconsin,43.92456975,-90.11120239,5,0
Kings,California,36.07409056,-119.8159973,5,0
Kit Carson,Colorado,39.30497777,-102.6022199,5,0
Lake,Montana,47.64514965,-114.0898013,5,0
Lamar,Alabama,33.77995024,-88.09668032,5,0
Lanier,Georgia,31.0382857,-83.06472457,5,0
Lee,North Carolina,35.47623147,-79.17569362,5,0
Levy,Florida,29.31829741,-82.74007147,5,0
Linn,Kansas,38.21267844,-94.84254089,5,0
Logan,Ohio,40.38996525,-83.76784341,5,0
Madison,Nebraska,41.91676024,-97.6005481,5,1
Madison,Virginia,38.41531222,-78.28220331,5,0
Manassas Park,Virginia,38.77058531,-77.44399307,5,0
Marion,Georgia,32.3483402,-84.52733571,5,0
Marion,South Carolina,34.07859748,-79.36400756,5,1
Marshall,Kentucky,36.8800707,-88.32803576,5,0
Marshall,West Virginia,39.86064362,-80.66591062,5,0
Matanuska-Susitna,Alaska,62.31305045,-149.5741743,5,0
McKenzie,North Dakota,47.7413337,-103.395905,5,0
Monroe,Alabama,31.56729412,-87.36995001,5,1
Monroe,Wisconsin,43.94641218,-90.618819,5,0
Montgomery,Missouri,38.94022054,-91.47000721,5,0
Morgan,Tennessee,36.13248031,-84.64880098,5,0
New Madrid,Missouri,36.59666326,-89.66070007,5,0
Nicollet,Minnesota,44.35291112,-94.24710352,5,0
Noxubee,Mississippi,33.11009499,-88.56949061,5,0
Oneida,Wisconsin,45.70677897,-89.51944105,5,0
Overton,Tennessee,36.34117832,-85.28989535,5,0
Park,Colorado,39.120926,-105.7182065,5,0
Parke,Indiana,39.77202286,-87.20375833,5,0
Platte,Nebraska,41.57246836,-97.52144359,5,0
Posey,Indiana,38.02097333,-87.86480429,5,0
Pottawatomie,Kansas,39.37925655,-96.34564657,5,0
Putnam,Georgia,33.32056115,-83.37552891,5,0
Rabun,Georgia,34.88389445,-83.40304637,5,0
Rio Grande,Colorado,37.5836865,-106.3847838,5,0
Roane,Tennessee,35.84923189,-84.52458689,5,0
Saline,Missouri,39.13734288,-93.20259964,5,0
Saluda,South Carolina,34.00795823,-81.72713237,5,0
Sampson,North Carolina,34.98820368,-78.36914061,5,0
Sandusky,Ohio,41.35624126,-83.137872,5,1
Scott,Tennessee,36.42325673,-84.50360494,5,0
Smyth,Virginia,36.84455636,-81.53344948,5,0
Somerset,Maine,45.51229767,-69.95995554,5,0
Southampton,Virginia,36.72231125,-77.10642712,5,0
Stevens,Washington,48.40035475,-117.8542701,5,0
Stone,Arkansas,35.86251946,-92.15684085,5,0
Taylor,Georgia,32.55792548,-84.25077141,5,2
Teton,Idaho,43.75303583,-111.2056773,5,0
Turner,South Dakota,43.3109081,-97.14865776,5,0
Union,Indiana,39.62550777,-84.92497066,5,0
Uvalde,Texas,29.35739637,-99.76229172,5,0
Venango,Pennsylvania,41.40323442,-79.75845449,5,0
Vermilion,Illinois,40.18417171,-87.73384359,5,0
Wabash,Indiana,40.84704239,-85.79328272,5,0
Washakie,Wyoming,43.90451606,-107.680187,5,0
Wayne,Mississippi,31.64135687,-88.69573913,5,0
Weakley,Tennessee,36.29896232,-88.71990865,5,0
Westmoreland,Virginia,38.11021557,-76.80213247,5,0
Wilkes,Georgia,33.78290391,-82.74286107,5,0
Williams,North Dakota,48.34522353,-103.4793387,5,0
Winn,Louisiana,31.94449367,-92.63789413,5,2
Wyandot,Ohio,40.84339621,-83.30734173,5,0
Wyoming,Pennsylvania,41.51955538,-76.01074915,5,0
Albany,Wyoming,41.65498705,-105.7235415,4,0
Arenac,Michigan,44.0636262,-83.89277559,4,0
Asotin,Washington,46.18894415,-117.2022851,4,0
Atkinson,Georgia,31.29633502,-82.87545866,4,0
Banks,Georgia,34.35607081,-83.49644388,4,0
Barbour,West Virginia,39.1307219,-80.00350858,4,0
Barron,Wisconsin,45.42372701,-91.84833627,4,0
Barton,Kansas,38.47889676,-98.75636726,4,0
Bedford,Pennsylvania,40.00522157,-78.48998442,4,0
Benton,Tennessee,36.07110411,-88.06849355,4,0
Berrien,Georgia,31.27590016,-83.2252992,4,0
Blackford,Indiana,40.47388153,-85.32499702,4,0
Blanco,Texas,30.26640707,-98.3999852,4,0
Bourbon,Kentucky,38.2054607,-84.21827874,4,1
Broadwater,Montana,46.33277565,-111.4955813,4,0
Brown,Ohio,38.93416837,-83.86788395,4,1
Buena Vista,Virginia,37.73484642,-79.35296097,4,0
Bureau,Illinois,41.40385234,-89.5283051,4,0
Calhoun,Florida,30.40666734,-85.19394153,4,0
Calumet,Wisconsin,44.0816316,-88.21780273,4,0
Campbell,Virginia,37.20553386,-79.09678609,4,0
Candler,Georgia,32.40209349,-82.07702563,4,0
Carbon,Wyoming,41.69357844,-106.9326084,4,0
Caroline,Virginia,38.02679129,-77.34901405,4,0
Cass,Texas,33.07499881,-94.34646905,4,0
Chariton,Missouri,39.51499357,-92.9629191,4,0
Chattooga,Georgia,34.47197698,-85.34535662,4,1
Cherokee,South Carolina,35.05122251,-81.61828622,4,0
Conecuh,Alabama,31.43401703,-86.99320044,4,0
Converse,Wyoming,42.97272268,-105.5081848,4,0
Cook,Georgia,31.16068491,-83.42947229,4,0
Cotton,Oklahoma,34.28845626,-98.37053567,4,0
Crawford,Illinois,39.0032229,-87.75954624,4,0
Crawford,Kansas,37.50675523,-94.85245778,4,1
Dale,Alabama,31.43037123,-85.61095742,4,0
DeKalb,Indiana,41.39804622,-84.99906934,4,0
Dorchester,Maryland,38.45413522,-76.02752426,4,0
Eddy,New Mexico,32.47167456,-104.3053527,4,1
Emporia,Virginia,36.69455571,-77.53406129,4,0
Fannin,Texas,33.59564294,-96.10751083,4,0
Fayette,Illinois,39.00072038,-89.02452658,4,0
Fayette,Ohio,39.56021306,-83.4562016,4,0
Fremont,Colorado,38.47362326,-105.4399667,4,0
Gallia,Ohio,38.82708533,-82.31647569,4,1
Geary,Kansas,38.99871131,-96.7577178,4,0
Gibson,Indiana,38.30393723,-87.58054938,4,0
Gilmer,Georgia,34.69316688,-84.45802506,4,0
Glades,Florida,26.95635849,-81.18996211,4,1
Gladwin,Michigan,43.98901072,-84.38774817,4,0
Grand,Colorado,40.10603347,-106.1178042,4,0
Grant,New Mexico,32.73911281,-108.3827845,4,0
Greene,Virginia,38.29545894,-78.46525378,4,0
Hamblen,Tennessee,36.21990035,-83.26586179,4,0
Hampton,South Carolina,32.77419582,-81.13845571,4,0
Harrison,Missouri,40.35570088,-93.99222144,4,0
Harvey,Kansas,38.04293782,-97.42747573,4,0
Henderson,Texas,32.21128872,-95.85846587,4,0
Henry,Virginia,36.68542395,-79.87634026,4,0
Hopkins,Texas,33.14875072,-95.56351139,4,0
Howell,Missouri,36.77383887,-91.88683935,4,0
Humphreys,Tennessee,36.03958805,-87.77992872,4,0
Huron,Michigan,43.83353985,-83.04078453,4,0
Iosco,Michigan,44.35486835,-83.63484895,4,1
Iowa,Wisconsin,43.00050278,-90.13469017,4,0
Isanti,Minnesota,45.56181234,-93.29487636,4,0
Jackson,Florida,30.7954597,-85.21500423,4,0
Jackson,Iowa,42.17178824,-90.57354837,4,0
Jackson,Tennessee,36.36380466,-85.67239905,4,0
Jackson,Texas,28.95472367,-96.57749563,4,0
Jackson,Wisconsin,44.31864893,-90.80566792,4,0
Jasper,Mississippi,32.01922104,-89.11786866,4,0
Jefferson,Georgia,33.05867328,-82.41609057,4,0
Jefferson,Idaho,43.82078483,-112.3131749,4,0
Jefferson,Mississippi,31.73397872,-91.03764977,4,0
Latimer,Oklahoma,34.87844729,-95.25215049,4,1
Leelanau,Michigan,44.94430054,-85.80150326,4,0
Lincoln,Oregon,44.64252874,-123.869912,4,0
Lincoln,Wyoming,42.26376367,-110.6563997,4,0
Logan,Kentucky,36.85949479,-86.877635,4,0
Lynn,Texas,33.17657705,-101.8162849,4,0
Lyon,Kentucky,37.02080035,-88.07886257,4,0
Lyon,Minnesota,44.41327865,-95.83806103,4,0
Lyon,Nevada,39.01777974,-119.1870479,4,0
Madison,Idaho,43.78141028,-111.6538474,4,0
Mahaska,Iowa,41.33521503,-92.64083907,4,0
Marion,Illinois,38.64963204,-88.91899208,4,0
Martin,North Carolina,35.84326734,-77.10860251,4,0
Mendocino,California,39.4381191,-123.3911313,4,0
Mercer,Kentucky,37.81474237,-84.87488475,4,0
Moniteau,Missouri,38.63571781,-92.57976951,4,0
Montgomery,Illinois,39.23198845,-89.47809254,4,1
Morgan,West Virginia,39.55439028,-78.26311676,4,0
Navarro,Texas,32.04620681,-96.47428766,4,1
Nelson,Kentucky,37.80335779,-85.4657193,4,0
Obion,Tennessee,36.35732446,-89.14921589,4,1
Okeechobee,Florida,27.3863362,-80.88944347,4,0
Orange,Vermont,44.00470222,-72.37640104,4,0
Osage,Missouri,38.46036182,-91.8613635,4,0
Otero,Colorado,37.9014485,-103.7173385,4,0
Panola,Texas,32.1639596,-94.30552481,4,1
Phillips,Colorado,40.59414277,-102.3577703,4,0
Piatt,Illinois,40.01360584,-88.59319339,4,0
Pike,Missouri,39.34310674,-91.16980779,4,0
Plymouth,Iowa,42.737633,-96.21366621,4,0
Poquoson,Virginia,37.14259351,-76.35798148,4,0
Portage,Wisconsin,44.47558711,-89.50152965,4,0
Powhatan,Virginia,37.55016038,-77.91267882,4,0
Quitman,Georgia,31.86728114,-85.01773177,4,0
Raleigh,West Virginia,37.76936795,-81.2456041,4,0
Rice,Minnesota,44.3543376,-93.29658715,4,0
Roberts,South Dakota,45.62975048,-96.94672673,4,0
Rockcastle,Kentucky,37.36642393,-84.31176452,4,0
San Augustine,Texas,31.39457611,-94.17000399,4,1
Saunders,Nebraska,41.2278103,-96.63773905,4,0
Schuyler,New York,42.39184015,-76.8773299,4,0
Screven,Georgia,32.74976524,-81.60779441,4,0
Seminole,Oklahoma,35.16478725,-96.61686741,4,1
Siskiyou,California,41.59198861,-122.5407434,4,0
Somerset,Maryland,38.1163542,-75.75118623,4,0
Stewart,Georgia,32.07996777,-84.83208037,4,0
Stone,Mississippi,30.79187949,-89.11547539,4,0
Sullivan,Indiana,39.08952258,-87.41414469,4,0
Tazewell,Virginia,37.12191123,-81.56685568,4,0
Telfair,Georgia,31.92829517,-82.93491155,4,0
Uintah,Utah,40.12491499,-109.5174415,4,0
Union,Georgia,34.82995757,-83.98967069,4,0
Vilas,Wisconsin,46.05467334,-89.51719204,4,0
Watonwan,Minnesota,43.97823903,-94.61413846,4,0
Wayne,Georgia,31.5521809,-81.91894878,4,0
Wayne,Kentucky,36.80310688,-84.8251971,4,0
Wilkes,North Carolina,36.2084135,-81.16232895,4,1
Wilkinson,Georgia,32.80291082,-83.17140684,4,0
Winneshiek,Iowa,43.29094334,-91.84422722,4,0
Wise,Virginia,36.9746148,-82.62410519,4,0
Wood,Texas,32.78722382,-95.38236368,4,0
Adair,Kentucky,37.10459774,-85.28129668,3,0
Amador,California,38.44583082,-120.65696,3,0
Anderson,Kentucky,38.00671029,-84.99171713,3,1
Appomattox,Virginia,37.37569884,-78.81340003,3,0
Ashland,Ohio,40.84772277,-82.27280781,3,0
Athens,Ohio,39.33425634,-82.04278644,3,1
Barbour,Alabama,31.868263,-85.3871286,3,0
Barnwell,South Carolina,33.26679302,-81.43584352,3,0
Bates,Missouri,38.25271289,-94.34113157,3,0
Bayfield,Wisconsin,46.52868768,-91.19716729,3,0
Benton,Missouri,38.29503305,-93.28756116,3,0
Bledsoe,Tennessee,35.59942968,-85.20611967,3,0
Bon Homme,South Dakota,42.98914167,-97.88592746,3,0
Bond,Illinois,38.88829622,-89.43534887,3,0
Bonner,Idaho,48.29996017,-116.6017932,3,0
Boone,Iowa,42.03657094,-93.9313999,3,0
Bryan,Oklahoma,33.96472458,-96.25903472,3,0
Bullock,Alabama,32.10030533,-85.71265535,3,0
Carbon,Montana,45.22850116,-109.0274047,3,0
Carroll,Indiana,40.5807832,-86.56198812,3,0
Carter,Missouri,36.94160441,-90.96051322,3,1
Carter,Tennessee,36.28969086,-82.12588974,3,0
Cass,Minnesota,46.95043611,-94.32603968,3,0
Cass,Nebraska,40.90899107,-96.13971217,3,0
Charlton,Georgia,30.78371028,-82.13951596,3,0
Chautauqua,Kansas,37.14994405,-96.2454192,3,0
Claiborne,Mississippi,31.97061673,-90.90702196,3,0
Clark,Illinois,39.33425789,-87.78705622,3,0
Clarke,Virginia,39.11271747,-77.99199425,3,0
Clay,North Carolina,35.05704275,-83.74353633,3,0
Clinch,Georgia,30.91395822,-82.70432472,3,0
Clinton,Pennsylvania,41.23255967,-77.63785995,3,0
Cloud,Kansas,39.48028352,-97.64925343,3,0
Colfax,Nebraska,41.57486951,-97.0868542,3,0
Colusa,California,39.17881957,-122.2331726,3,0
Comanche,Texas,31.94854689,-98.55876441,3,0
Costilla,Colorado,37.27732493,-105.4276548,3,0
Crawford,Georgia,32.71391813,-83.98061238,3,0
Crawford,Missouri,37.97663738,-91.30528104,3,0
Currituck,North Carolina,36.36123664,-75.95876401,3,0
Custer,Nebraska,41.39374521,-99.72805369,3,0
Davison,South Dakota,43.67490933,-98.14458906,3,0
Deer Lodge,Montana,46.05953325,-113.073353,3,0
Des Moines,Iowa,40.92012606,-91.18326592,3,0
Eastland,Texas,32.32743996,-98.83243566,3,0
Elbert,Georgia,34.11302332,-82.83936148,3,0
Escambia,Alabama,31.1256789,-87.15918694,3,0
Faribault,Minnesota,43.67381499,-93.94787458,3,0
Fayette,Iowa,42.86271799,-91.8441231,3,0
Ford,Illinois,40.59706922,-88.22350769,3,1
Franklin,Georgia,34.37525597,-83.23159927,3,0
Fulton,Indiana,41.0469907,-86.26252745,3,0
Gates,North Carolina,36.44667547,-76.69749701,3,0
Gila,Arizona,33.80190085,-110.8132779,3,0
Giles,Tennessee,35.20222469,-87.03992678,3,0
Gogebic,Michigan,46.40862701,-89.69377193,3,1
Goliad,Texas,28.65696592,-97.42760647,3,0
Gooding,Idaho,42.96927962,-114.8108306,3,0
Goshen,Wyoming,42.08798185,-104.3534743,3,0
Grainger,Tennessee,36.27469206,-83.51254721,3,0
Grant,Wisconsin,42.8671731,-90.7063218,3,0
Greenbrier,West Virginia,37.9463652,-80.45335881,3,0
Hancock,Iowa,43.08178477,-93.73454884,3,0
Hancock,Maine,44.59816444,-68.38401854,3,0
Hart,Georgia,34.34626973,-82.96567682,3,0
Haywood,North Carolina,35.55269063,-82.98196486,3,0
Heard,Georgia,33.29686567,-85.12886832,3,1
Holmes,Florida,30.86747479,-85.81319222,3,0
Holmes,Ohio,40.56163713,-81.92635677,3,0
Hughes,South Dakota,44.39091534,-99.99661148,3,0
Idaho,Idaho,45.84721541,-115.4634436,3,0
Jasper,Illinois,39.01054275,-88.15437049,3,0
Jasper,Texas,30.74685667,-94.02667579,3,1
Jay,Indiana,40.43781032,-85.00576229,3,0
Jefferson,Illinois,38.29980057,-88.9240025,3,0
Jefferson,Iowa,41.03192394,-91.94849466,3,0
Jones,North Carolina,35.02254606,-77.35870791,3,0
Kearney,Nebraska,40.50663314,-98.94877182,3,0
Kingfisher,Oklahoma,35.94530008,-97.94193268,3,0
La Paz,Arizona,33.72854224,-113.9810029,3,0
Lake,Colorado,39.20278823,-106.3555697,3,0
Larue,Kentucky,37.54567114,-85.70138352,3,0
Lavaca,Texas,29.38508402,-96.93186692,3,0
Lee,Virginia,36.70586667,-83.12606515,3,0
Lexington,Virginia,37.78258621,-79.44262866,3,0
Linn,Missouri,39.87001769,-93.10704106,3,0
Live Oak,Texas,28.35101362,-98.1246786,3,0
Llano,Texas,30.70645047,-98.68475262,3,0
Logan,Illinois,40.12581572,-89.36638784,3,0
Mackinac,Michigan,46.07028979,-85.04980537,3,0
Manitowoc,Wisconsin,44.11946801,-87.80928853,3,0
Marinette,Wisconsin,45.38553432,-88.033246,3,0
Marion,Kansas,38.35855394,-97.0985251,3,0
Marion,Kentucky,37.55218078,-85.26898542,3,0
Mason,Illinois,40.23917274,-89.91824452,3,0
McDonald,Missouri,36.62869595,-94.34867205,3,0
McDowell,West Virginia,37.38002939,-81.65083669,3,0
McIntosh,Georgia,,,3,0
McMinn,Tennessee,35.42812616,-84.61520715,3,0
Meigs,Tennessee,35.51558739,-84.81482914,3,0
Menifee,Kentucky,37.94090733,-83.59985712,3,0
Mineral,West Virginia,39.41561583,-78.94104895,3,0
Minidoka,Idaho,42.85518524,-113.6357257,3,0
Mitchell,North Carolina,36.01059309,-82.1582442,3,0
Moffat,Colorado,40.61810999,-108.2070876,3,0
Nelson,Virginia,37.78790447,-78.88498513,3,0
Newaygo,Michigan,43.554374,-85.80070107,3,0
Northumberland,Virginia,37.89202088,-76.41949732,3,0
Nottoway,Virginia,37.1435975,-78.05065922,3,0
O'Brien,Iowa,43.08310673,-95.62474482,3,0
Oceana,Michigan,43.64124435,-86.26726673,3,1
Ogemaw,Michigan,44.33481032,-84.12725175,3,0
Oldham,Texas,35.40425596,-102.6027606,3,1
Osage,Kansas,38.65235984,-95.72707998,3,0
Osceola,Michigan,43.98992088,-85.32566756,3,0
Otero,New Mexico,32.61348406,-105.7417604,3,0
Ottawa,Kansas,39.13237408,-97.65020313,3,0
Ouray,Colorado,38.14717457,-107.7675136,3,0
Page,Iowa,40.7393172,-95.1497813,3,0
Page,Virginia,38.61807452,-78.48797204,3,0
Palo Pinto,Texas,32.75310985,-98.31319001,3,0
Pamlico,North Carolina,35.15253315,-76.66559823,3,0
Pemiscot,Missouri,36.2130572,-89.78742322,3,0
Perry,Kentucky,37.25023553,-83.22922731,3,0
Perry,Tennessee,35.63708728,-87.86139634,3,0
Pettis,Missouri,38.72798918,-93.28471706,3,0
Pittsylvania,Virginia,36.81980341,-79.39731264,3,0
Plumas,California,40.00355989,-120.8395236,3,0
Polk,Tennessee,35.12245443,-84.52075859,3,0
Potter,Pennsylvania,41.74471626,-77.89559864,3,0
Prince Edward,Virginia,37.22554789,-78.43597949,3,0
Ramsey,North Dakota,48.26886249,-98.72223879,3,0
Randolph,West Virginia,38.769899,-79.87919615,3,0
Ravalli,Montana,46.08520862,-114.1189164,3,0
Red River,Louisiana,32.09530039,-93.34213308,3,1
Republic,Kansas,39.82799632,-97.65036709,3,0
Richland,Wisconsin,43.3762778,-90.43012729,3,0
Rockbridge,Virginia,37.81204314,-79.44605905,3,0
Rusk,Wisconsin,45.47498854,-91.1333012,3,0
Saguache,Colorado,38.08054629,-106.282466,3,0
San Jacinto,Texas,30.57933681,-95.16260304,3,0
Scotland,North Carolina,34.8386299,-79.4757978,3,0
Seward,Kansas,37.19324632,-100.8507201,3,0
Sharkey,Mississippi,32.88149103,-90.8159538,3,0
Shawano,Wisconsin,44.78902246,-88.76443896,3,0
Shelby,Illinois,39.39133527,-88.80611122,3,0
Slope,North Dakota,46.44737738,-103.4601547,3,0
Smith,Tennessee,36.25359775,-85.95411046,3,0
Spink,South Dakota,44.93837606,-98.34626602,3,0
Stone,Missouri,36.75000327,-93.45256475,3,0
Surry,Virginia,37.11781893,-76.88450012,3,0
Tallahatchie,Mississippi,33.95339918,-90.1729398,3,0
Tattnall,Georgia,32.04785085,-82.05539188,3,0
Taylor,West Virginia,39.33602617,-80.0421439,3,0
Texas,Oklahoma,36.74777635,-101.4889765,3,0
Tillamook,Oregon,45.46248721,-123.712066,3,0
Tucker,West Virginia,39.11240885,-79.57053576,3,0
Uinta,Wyoming,41.2878183,-110.5475782,3,0
Union,Oregon,45.30915495,-118.0068979,3,0
Union,South Dakota,42.83112163,-96.6557828,3,0
Walker,Georgia,34.73376362,-85.30165174,3,0
Walsh,North Dakota,48.36876964,-97.72574783,3,0
Warren,North Carolina,36.39728256,-78.10652228,3,0
Waseca,Minnesota,44.02211116,-93.58720034,3,0
Webster,Georgia,32.04066113,-84.54742852,3,0
Webster,Kentucky,37.52168356,-87.67989953,3,0
Webster,Missouri,37.2813734,-92.876329,3,0
Wetzel,West Virginia,39.6065771,-80.6401654,3,0
White,Indiana,40.74911165,-86.86492015,3,0
Winston,Alabama,34.15030532,-87.37325922,3,0
Wise,Texas,33.21570665,-97.65460265,3,0
Woodson,Kansas,37.8865336,-95.74006277,3,0
Young,Texas,33.17659707,-98.68790885,3,0
Adams,Indiana,40.7457653,-84.93671406,2,0
Adams,Ohio,38.84541072,-83.4718964,2,0
Adams,Wisconsin,43.96974651,-89.76782777,2,0
Alexander,North Carolina,35.9223796,-81.17751948,2,0
Alleghany,North Carolina,36.49360862,-81.12857041,2,0
Alleghany,Virginia,37.78636074,-80.00222498,2,0
Allen,Kentucky,36.75197631,-86.19457544,2,0
Allendale,South Carolina,32.98837386,-81.35321066,2,0
Anderson,Texas,31.81534745,-95.65354823,2,0
Aransas,Texas,28.10556197,-96.9995047,2,0
Aroostook,Maine,46.65926321,-68.59841248,2,0
Ashe,North Carolina,36.43296207,-81.49862729,2,0
Atchison,Kansas,39.53185661,-95.30870026,2,0
Barnes,North Dakota,46.93579637,-98.06605978,2,0
Bingham,Idaho,43.2167288,-112.3978437,2,0
Bollinger,Missouri,37.32449052,-90.02725304,2,0
Breckinridge,Kentucky,37.77377239,-86.42885017,2,0
Bremer,Iowa,42.77461496,-92.31795937,2,0
Buffalo,Wisconsin,44.37835084,-91.75332578,2,2
Burke,North Dakota,48.79094471,-102.5182117,2,0
Butler,Alabama,31.75300095,-86.68057478,2,0
Caldwell,Kentucky,37.14749129,-87.86948214,2,0
Camp,Texas,32.97195142,-94.97790104,2,0
Carbon,Utah,39.64834818,-110.5872512,2,0
Carroll,Kentucky,38.66599534,-85.12601074,2,0
Carroll,Virginia,36.73066666,-80.73455942,2,0
Caswell,North Carolina,36.39312665,-79.33353281,2,0
Charles Mix,South Dakota,43.20660134,-98.58856175,2,0
Chattahoochee,Georgia,32.34341231,-84.78809239,2,0
Chicot,Arkansas,33.26458973,-91.29539209,2,0
Choctaw,Oklahoma,34.02807439,-95.54771129,2,0
Claiborne,Tennessee,36.48319149,-83.65947309,2,0
Clare,Michigan,43.98794227,-84.8481986,2,0
Clay,Iowa,43.08247182,-95.15096481,2,0
Clay,Tennessee,36.55151008,-85.53930419,2,0
Clearwater,Minnesota,47.57992111,-95.37790562,2,0
Cocke,Tennessee,35.9278914,-83.11828725,2,0
Coles,Illinois,39.51949084,-88.22358557,2,0
Cooper,Missouri,38.844478,-92.80896081,2,0
Craig,Virginia,37.48133648,-80.21072274,2,0
Crane,Texas,31.43052248,-102.5143314,2,0
Crawford,Wisconsin,43.23870316,-90.93073686,2,0
Crenshaw,Alabama,31.72941803,-86.31593104,2,0
Crittenden,Kentucky,37.35839237,-88.0882609,2,0
Cuming,Nebraska,41.91637624,-96.78730772,2,0
Curry,Oregon,42.45911325,-124.157282,2,0
Custer,Colorado,38.10883162,-105.3683478,2,0
Custer,Idaho,44.24186819,-114.2855494,2,0
Dade,Georgia,34.8549167,-85.50490424,2,1
De Witt,Illinois,40.17514519,-88.90959682,2,0
Del Norte,California,41.74228275,-123.8974063,2,0
Dickinson,Michigan,46.00999672,-87.86961634,2,1
Dinwiddie,Virginia,37.07544585,-77.63451754,2,0
Dixie,Florida,29.60631086,-83.15724673,2,0
Duchesne,Utah,40.29772254,-110.425237,2,0
Effingham,Illinois,39.05935711,-88.58969584,2,0
Elk,Pennsylvania,41.42822061,-78.64524744,2,0
Emery,Utah,38.99617072,-110.7013958,2,0
Fentress,Tennessee,36.38128818,-84.92870012,2,0
Florence,Wisconsin,45.84963535,-88.39804137,2,0
Ford,Kansas,37.69200114,-99.88825298,2,0
Fountain,Indiana,40.12361933,-87.24217689,2,1
Franklin,Florida,29.83791238,-84.82731662,2,0
Franklin,Illinois,37.99189086,-88.92567818,2,0
Fremont,Idaho,44.22800938,-111.4809943,2,0
Gasconade,Missouri,38.43947277,-91.50847147,2,0
Giles,Virginia,37.31234791,-80.70636931,2,0
Glacier,Montana,48.70513576,-112.9934235,2,0
Glenn,California,39.59875897,-122.3938452,2,0
Graham,Arizona,32.93166885,-109.8882178,2,0
Grant,Kentucky,38.64962758,-84.62415957,2,1
Graves,Kentucky,36.72292505,-88.65143315,2,0
Grayson,Kentucky,37.46231118,-86.34248968,2,0
Greenup,Kentucky,38.54332505,-82.9215658,2,0
Guernsey,Ohio,40.05026529,-81.49248905,2,0
Halifax,Virginia,36.76654925,-78.93512622,2,0
Hamilton,Iowa,42.38382428,-93.70197703,2,0
Hamilton,New York,43.66146647,-74.49721957,2,0
Hamilton,Texas,31.70470573,-98.11083887,2,0
Hardee,Florida,27.49293939,-81.80956574,2,0
Hardin,Ohio,40.66015414,-83.65929931,2,0
Hardin,Tennessee,35.19732531,-88.18593755,2,0
Hardy,West Virginia,39.00683177,-78.85855301,2,0
Henderson,Tennessee,35.65581134,-88.38600175,2,0
Henry,Kentucky,38.44942688,-85.11587507,2,0
Henry,Missouri,38.38482826,-93.79293734,2,1
Hickman,Tennessee,35.80609681,-87.47643507,2,0
Hood River,Oregon,45.51872811,-121.6552036,2,0
Houston,Tennessee,36.28872054,-87.71878828,2,0
Hutchinson,South Dakota,43.33449012,-97.75536441,2,0
Hutchinson,Texas,35.84006574,-101.3546643,2,0
Itasca,Minnesota,47.51009045,-93.63092229,2,0
Jackson,North Carolina,35.28814273,-83.14093385,2,0
Jackson,Ohio,39.01914254,-82.6181856,2,0
Jefferson,Montana,46.14907081,-112.094396,2,0
Jewell,Kansas,39.78470589,-98.21820662,2,0
Jim Wells,Texas,27.73103938,-98.0904705,2,0
Johnson,Tennessee,36.4552395,-81.84886538,2,0
Kandiyohi,Minnesota,45.1526059,-95.00586446,2,0
Kane,Utah,37.28507306,-111.8861752,2,0
Karnes,Texas,28.90705334,-97.85960149,2,0
Keokuk,Iowa,41.33649833,-92.1785067,2,0
