county,state,Lat,Long_,Confirmed,Deaths
New York City,New York,40.7672726,-73.97152637,228069,23586
Los Angeles,California,34.30828379,-118.2282411,210543,4998
Miami-Dade,Florida,25.6112362,-80.55170587,133623,1874
Maricopa,Arizona,33.34835867,-112.4918154,126371,2356
Cook,Illinois,41.84144849,-87.81658794,111948,4928
Harris,Texas,29.85864939,-95.39339521,86563,1583
Broward,Florida,26.15184651,-80.48725556,62898,821
Dallas,Texas,32.76670599,-96.7779605,55255,756
Clark,Nevada,36.21458855,-115.0130241,49151,811
Suffolk,New York,40.88320119,-72.8012172,43844,1998
Nassau,New York,40.74066522,-73.58941873,43690,2195
Bexar,Texas,29.44928723,-98.52019748,42959,784
Riverside,California,33.74314981,-115.9933578,41983,820
Orange,California,33.70147516,-117.7645998,40527,726
Palm Beach,Florida,26.64676272,-80.46536002,37297,936
Westchester,New York,41.16278376,-73.75741653,36233,1447
San Bernardino,California,34.84060306,-116.1774685,36072,546
San Diego,California,33.03484597,-116.7365326,32975,594
Hillsborough,Florida,27.9276559,-82.32013172,32731,388
Tarrant,Texas,32.77143818,-97.29101614,32177,449
Orange,Florida,28.51367621,-81.31799498,31851,298
Philadelphia,Pennsylvania,40.00338507,-75.1379271,31448,1699
Wayne,Michigan,42.28098405,-83.281255,28273,2826
Middlesex,Massachusetts,42.48607732,-71.39049229,26470,2005
Kern,California,35.34329425,-118.7277796,24440,171
Prince George's,Maryland,38.83070039,-76.8496441,23832,755
Duval,Florida,30.33225875,-81.66976468,23530,189
Shelby,Tennessee,35.1864775,-89.89692423,23485,308
Travis,Texas,30.33432034,-97.7853562,22953,303
Mecklenburg,North Carolina,35.24469268,-80.8317671,22315,232
Suffolk,Massachusetts,42.3279514,-71.07850442,21929,1074
Milwaukee,Wisconsin,43.00486062,-87.96733172,21178,456
Bergen,New Jersey,40.96010917,-74.07164325,20825,2038
Salt Lake,Utah,40.66616532,-111.9216011,20748,196
Davidson,Tennessee,36.17007426,-86.78646056,20722,217
Fulton,Georgia,33.79216944,-84.46319413,20468,433
Hidalgo,Texas,26.39418217,-98.18299696,20148,829
Gwinnett,Georgia,33.96044201,-84.02137802,19971,262
Essex,New Jersey,40.78681335,-74.24657979,19747,2111
Hudson,New Jersey,40.73766234,-74.07515667,19683,1505
Hennepin,Minnesota,45.00761521,-93.47694895,19472,835
Montgomery,Maryland,39.13676329,-77.20358245,18489,803
Franklin,Ohio,39.96995815,-83.01115755,18483,525
Fairfield,Connecticut,41.26809896,-73.3881171,18035,1409
Pima,Arizona,32.0971334,-111.7890033,17996,489
Pinellas,Florida,27.93130349,-82.72239666,17941,500
Middlesex,New Jersey,40.43629879,-74.41426991,17932,1403
Essex,Massachusetts,42.6687626,-70.94687179,17883,1194
Fresno,California,36.75733899,-119.6466953,17846,171
Passaic,New Jersey,41.03238628,-74.29954144,17665,1242
Union,New Jersey,40.65835409,-74.30680092,16725,1350
King,Washington,47.49137892,-121.8346131,16707,676
Lee,Florida,26.58410348,-81.88399313,16632,334
Cameron,Texas,26.14524221,-97.48140372,16590,430
Fairfax,Virginia,38.83677558,-77.27565836,16445,529
El Paso,Texas,31.76980765,-106.2363275,16396,300
Marion,Indiana,39.78163624,-86.13826325,15963,725
Oakland,Michigan,42.66090111,-83.38595416,15615,1129
Nueces,Texas,27.736286,-97.5433285,15423,243
Jefferson,Louisiana,29.74075478,-90.11115756,15350,529
Providence,Rhode Island,41.87064746,-71.57753536,15047,0
St. Louis,Missouri,38.6377004,-90.4458375,14941,671
Polk,Florida,27.95027105,-81.69732947,14475,314
DeKalb,Georgia,33.76944049,-84.22396017,14047,238
Rockland,New York,41.15027894,-74.02560498,13949,674
Cobb,Georgia,33.94243204,-84.5761255,13729,320
Worcester,Massachusetts,42.35026951,-71.90493363,13654,1006
Cuyahoga,Ohio,41.424119,-81.65918339,13640,500
Alameda,California,37.64629437,-121.8929271,13631,209
Baltimore,Maryland,39.45784712,-76.62911955,13400,563
Jefferson,Alabama,33.55554728,-86.895063,13258,244
New Haven,Connecticut,41.4080325,-72.93620426,13224,1106
San Joaquin,California,37.93433732,-121.2730061,12864,223
District of Columbia,District of Columbia,38.90417773,-77.01655992,12807,591
Hartford,Connecticut,41.80283011,-72.73103891,12800,1415
Lake,Illinois,42.3224907,-88.00367925,12741,446
Baltimore City,Maryland,39.30211911,-76.61151012,12704,430
Santa Clara,California,37.23104908,-121.6970462,12694,205
Charleston,South Carolina,32.82487866,-79.96512315,12377,196
DuPage,Illinois,41.85116968,-88.08642662,12312,520
East Baton Rouge,Louisiana,30.53842039,-91.09777565,12244,350
Wake,North Carolina,35.78879266,-78.65249174,12110,170
Sacramento,California,38.45106826,-121.3425374,12040,177
Yuma,Arizona,32.76895712,-113.9066674,11609,289
Douglas,Nebraska,41.29518299,-96.15085305,11354,133
Orange,New York,41.40337468,-74.30240757,11168,491
Greenville,South Carolina,34.89502264,-82.37295012,11001,208
Tulare,California,36.22026558,-118.8020203,10862,196
Orleans,Louisiana,30.06971951,-89.92660315,10768,562
Oklahoma,Oklahoma,35.55140095,-97.40716948,10665,112
Norfolk,Massachusetts,42.16073095,-71.20530408,10639,997
Ocean,New Jersey,39.8895449,-74.28089251,10603,1018
Tulsa,Oklahoma,36.11939621,-95.94013939,10562,107
Macomb,Michigan,42.69158356,-82.92752801,10545,947
Mobile,Alabama,30.78472347,-88.20842409,10517,207
Collier,Florida,26.11091986,-81.34687065,10448,136
Yakima,Washington,46.45738486,-120.7380126,10367,212
Polk,Iowa,41.68679484,-93.57767461,10351,207
Monmouth,New Jersey,40.26549699,-74.22240686,10326,856
Stanislaus,California,37.55862499,-120.9970722,10264,169
Denver,Colorado,39.76018276,-104.8725695,10263,415
Montgomery,Pennsylvania,40.21053671,-75.36652296,10149,857
Fort Bend,Texas,29.52704478,-95.77219463,10021,162
Kane,Illinois,41.93842729,-88.42861412,9803,305
Osceola,Florida,28.06312234,-81.14882926,9769,104
Imperial,California,33.0393082,-115.3669042,9693,244
Hamilton,Ohio,39.19673558,-84.54502924,9689,255
Escambia,Florida,30.67652764,-87.37284571,9632,120
Prince William,Virginia,38.70916224,-77.48713689,9516,176
Galveston,Texas,29.40167322,-94.90469073,9514,113
Contra Costa,California,37.91923498,-121.9289527,9404,139
Bristol,Massachusetts,41.79228404,-71.10872211,9371,635
Manatee,Florida,27.47196942,-82.31831044,9340,227
Will,Illinois,41.44619267,-87.97862712,9315,344
Delaware,Pennsylvania,39.91680171,-75.40243663,9274,699
Plymouth,Massachusetts,41.94070556,-70.80802823,9258,722
Ada,Idaho,43.4526575,-116.2415516,9144,83
Allegheny,Pennsylvania,40.46809875,-79.98167747,8932,247
Erie,New York,42.76249024,-78.73063652,8918,671
Richland,South Carolina,34.01791263,-80.90267209,8836,153
Utah,Utah,40.1166722,-111.6657662,8794,37
Ventura,California,34.44465746,-119.0910613,8634,92
Horry,South Carolina,33.9212828,-78.99555293,8625,156
Camden,New Jersey,39.80343818,-74.96388753,8580,580
Pinal,Arizona,32.90525627,-111.3449483,8378,156
Webb,Texas,27.7610369,-99.33237355,8262,174
Jefferson,Kentucky,38.18664655,-85.65931031,8188,237
Mercer,New Jersey,40.28047017,-74.70479631,8127,620
Volusia,Florida,29.05858895,-81.18263252,7960,135
Collin,Texas,33.18820114,-96.57264368,7833,90
Denton,Texas,33.20521901,-97.11691153,7745,88
Ramsey,Minnesota,45.01625271,-93.09872295,7658,267
Lafayette,Louisiana,30.2049055,-92.06959876,7643,96
Lake,Indiana,41.41874274,-87.38277575,7632,275
San Francisco,California,37.75215114,-122.4385672,7623,67
Hampden,Massachusetts,42.13440424,-72.63235561,7619,707
Kent,Michigan,43.03197711,-85.54934642,7549,157
Brazoria,Texas,29.18757369,-95.44563172,7481,93
Anne Arundel,Maryland,39.00670238,-76.60329337,7416,225
Arapahoe,Colorado,39.64977461,-104.3353617,7340,364
Morris,New Jersey,40.86095313,-74.5455371,7261,829
New Castle,Delaware,39.57992638,-75.64054974,7243,291
Bucks,Pennsylvania,40.33682119,-75.10836643,7210,582
Seminole,Florida,28.7158582,-81.24060348,7152,119
Pasco,Florida,28.30810945,-82.40227529,7114,129
Williamson,Texas,30.64655664,-97.6004854,6893,93
Montgomery,Alabama,32.2206831,-86.20969272,6835,149
Calcasieu,Louisiana,30.22931235,-93.35400434,6815,146
Kansas City,Missouri,39.0997,-94.5786,6786,63
Santa Barbara,California,34.65329488,-120.0188492,6704,69
Caddo,Louisiana,32.57991587,-93.88375652,6688,295
Montgomery,Texas,30.30079133,-95.50572772,6654,90
Rutherford,Tennessee,35.84591405,-86.4107263,6589,55
Marion,Florida,29.21227113,-82.05803627,6573,89
Adams,Colorado,39.87432092,-104.3362578,6529,176
San Mateo,California,37.4228808,-122.3275546,6318,120
Washington,Arkansas,35.976844,-94.21800746,6310,51
Sarasota,Florida,27.18546175,-82.33174248,6256,147
Hamilton,Tennessee,35.17670231,-85.16652245,6220,53
Durham,North Carolina,36.03638492,-78.87608331,6200,80
Hall,Georgia,34.32207823,-83.81896936,6114,91
Brevard,Florida,28.29409504,-80.73091022,6099,151
Lubbock,Texas,33.61008596,-101.8204789,6059,73
Burlington,New Jersey,39.87681124,-74.66927768,6025,473
Lancaster,Pennsylvania,40.03904563,-76.24770128,5975,411
Jefferson,Texas,29.8832777,-94.16434171,5880,84
Canyon,Idaho,43.61970148,-116.7095499,5869,48
Sussex,Delaware,38.66143781,-75.39031349,5848,192
St. Lucie,Florida,27.37763908,-80.47106649,5824,166
Johnson,Kansas,38.88548175,-94.82250877,5800,103
Washoe,Nevada,40.66562265,-119.6631594,5792,120
Chatham,Georgia,32.00043026,-81.12489526,5764,75
Pierce,Washington,47.03892768,-122.1405958,5751,142
Merced,California,37.18922369,-120.7209035,5736,70
Guilford,North Carolina,36.07959451,-79.78824948,5670,156
Hinds,Mississippi,32.2656285,-90.44435448,5656,118
Pulaski,Arkansas,34.77054088,-92.31355101,5639,85
Snohomish,Washington,48.04615983,-121.7170703,5486,193
Madison,Alabama,34.76327133,-86.55069633,5447,34
Monterey,California,36.21862405,-121.2413397,5446,35
Berks,Pennsylvania,40.41570541,-75.92457766,5407,368
Marin,California,38.07122463,-122.7210631,5404,81
Lucas,Ohio,41.62101218,-83.65468618,5377,323
Navajo,Arizona,35.3997715,-110.3218983,5375,200
Loudoun,Virginia,39.08990083,-77.63481877,5306,115
Forsyth,North Carolina,36.12859861,-80.25459052,5286,52
St. Tammany,Louisiana,30.40942847,-89.95642711,5266,214
Somerset,New Jersey,40.56465737,-74.61683016,5253,561
St. Louis City,Missouri,38.63555736,-90.24349225,5235,176
Lake,Florida,28.76202069,-81.7125123,5177,68
Bernalillo,New Mexico,35.05163625,-106.6703554,5161,134
Chester,Pennsylvania,39.97291773,-75.74768357,5157,349
El Paso,Colorado,38.83240149,-104.5251411,5134,138
Clayton,Georgia,33.54187245,-84.35594188,5059,110
Hays,Texas,30.05669873,-98.02944344,5050,39
Virginia Beach,Virginia,36.73285734,-76.04566934,5050,54
Leon,Florida,30.45955727,-84.27491114,5006,25
Lexington,South Carolina,33.89665987,-81.27146426,4980,111
Monroe,New York,43.14638895,-77.69322942,4976,285
Lehigh,Pennsylvania,40.6154815,-75.59435245,4975,337
McLennan,Texas,31.55255453,-97.20217694,4970,55
Multnomah,Oregon,45.54747959,-122.4169351,4960,96
Sedgwick,Kansas,37.6842718,-97.4608198,4945,44
Wyandotte,Kansas,39.11727348,-94.76378225,4916,99
Ouachita,Louisiana,32.47645559,-92.15704172,4896,113
Elkhart,Indiana,41.59761169,-85.85875695,4883,85
Benton,Arkansas,36.33644656,-94.25680817,4794,43
Muscogee,Georgia,32.50931999,-84.87142262,4780,98
Knox,Tennessee,35.99508821,-83.94635435,4685,40
Dutchess,New York,41.7648606,-73.74356679,4613,153
Dane,Wisconsin,43.06601594,-89.41733797,4554,38
Spokane,Washington,47.62113146,-117.4046494,4504,90
Dakota,Minnesota,44.67172617,-93.06299363,4480,106
Kings,California,36.07409056,-119.8159973,4453,56
Bay,Florida,30.26548745,-85.62122584,4447,51
Minnehaha,South Dakota,43.67441641,-96.7910885,4437,68
Richmond,Georgia,33.35777107,-82.07026432,4412,90
Montgomery,Ohio,39.75394919,-84.29050975,4398,94
Chesterfield,Virginia,37.37373208,-77.5868014,4370,80
Waukesha,Wisconsin,43.01833055,-88.30431188,4299,59
Solano,California,38.26827353,-121.9357113,4274,41
Brown,Wisconsin,44.4526553,-88.00411844,4264,54
Tuscaloosa,Alabama,33.28726072,-87.52556818,4230,76
Jefferson,Colorado,39.58635604,-105.2517692,4210,228
Berkeley,South Carolina,33.20222596,-79.94654523,4186,67
Alachua,Florida,29.67866525,-82.35928158,4171,26
Beaufort,South Carolina,32.39226291,-80.72619758,4131,56
St. Charles,Missouri,38.77875681,-90.66662425,4123,87
Spartanburg,South Carolina,34.92960077,-81.99225984,4100,103
Jackson,Missouri,39.01002188,-94.34724536,4083,65
Brazos,Texas,30.6636448,-96.30205577,4069,49
McKinley,New Mexico,35.5800772,-108.262245,4057,226
St. Clair,Illinois,38.46996033,-89.93063427,4028,161
Santa Rosa,Florida,30.6934145,-87.02458128,3963,38
Allen,Indiana,41.09194313,-85.06800636,3937,163
Northampton,Pennsylvania,40.75182733,-75.30471829,3931,292
Henrico,Virginia,37.53460572,-77.39326555,3904,185
Howard,Maryland,39.25305293,-76.93126208,3881,112
Hillsborough,New Hampshire,42.91537785,-71.7200253,3855,279
Martin,Florida,27.0772071,-80.43109784,3838,94
Bell,Texas,31.03736027,-97.4785025,3831,38
Winnebago,Illinois,42.33641854,-89.16085327,3784,131
Benton,Washington,46.23946995,-119.5120834,3748,116
Anoka,Minnesota,45.27476015,-93.24604565,3739,115
Woodbury,Iowa,42.38979414,-96.0459439,3727,52
Weld,Colorado,40.55499405,-104.3929621,3723,145
Norfolk,Virginia,36.89934014,-76.26420872,3703,32
Potter,Texas,35.40133773,-101.893964,3689,45
DeSoto,Mississippi,34.87625235,-89.99091418,3680,31
Sonoma,California,38.52746429,-122.8862506,3670,47
Genesee,Michigan,43.02244215,-83.70589709,3664,296
St. Johns,Florida,29.90096506,-81.43589967,3660,36
Baldwin,Alabama,30.72774991,-87.72207058,3651,25
Bibb,Georgia,32.80904227,-83.70489165,3645,68
York,South Carolina,34.97281497,-81.18085944,3590,29
Ector,Texas,31.86898877,-102.5429428,3587,55
Onondaga,New York,43.00491923,-76.19971155,3585,200
Williamson,Tennessee,35.89099229,-86.89281867,3577,25
Summit,Ohio,41.12464734,-81.53123079,3573,223
Whitfield,Georgia,34.80987459,-84.96093476,3549,32
St. Joseph,Indiana,41.61756781,-86.29040834,3546,82
Okaloosa,Florida,30.69143028,-86.59267105,3541,41
Franklin,Washington,46.53351425,-118.9018212,3540,49
Cherokee,Georgia,34.24393976,-84.47431861,3535,64
Racine,Wisconsin,42.74753117,-88.05941254,3526,78
Tangipahoa,Louisiana,30.62888673,-90.40664996,3498,77
Florence,South Carolina,34.02361754,-79.70189312,3480,116
Atlantic,New Jersey,39.47538693,-74.65848483,3469,252
Luzerne,Pennsylvania,41.17823008,-75.98447579,3462,184
Sumner,Tennessee,36.46824103,-86.45917204,3449,72
Victoria,Texas,28.79780988,-96.96813006,3448,42
Henry,Georgia,33.4533428,-84.1481466,3411,47
San Juan,Puerto Rico,18.386933,-66.061128,3361,0
Cumberland,New Jersey,39.37199394,-75.10712559,3348,158
Gaston,North Carolina,35.29373559,-81.17477045,3339,52
Johnston,North Carolina,35.51745004,-78.36622717,3315,46
Lancaster,Nebraska,40.78416049,-96.68777155,3312,17
Shelby,Alabama,33.26879845,-86.66232561,3309,36
Rapides,Louisiana,31.19778499,-92.52997303,3304,114
Clay,Florida,29.98319144,-81.85609986,3298,51
Gloucester,New Jersey,39.71581067,-75.13995546,3258,212
Honolulu,Hawaii,21.45803166,-157.9712182,3249,27
Davis,Utah,40.99001837,-112.1139997,3232,21
Southwest Utah,Utah,37.85447192,-111.4418764,3223,26
McHenry,Illinois,42.32451172,-88.45248227,3218,114
Mohave,Arizona,35.70471703,-113.7577902,3202,168
Apache,Arizona,35.39465006,-109.4892383,3194,139
Lowndes,Georgia,30.83568832,-83.27056716,3193,44
Richmond City,Virginia,37.53255773,-77.47966921,3190,41
Marshall,Alabama,34.36975964,-86.30486727,3189,37
Cumberland,North Carolina,35.04762133,-78.82623165,3162,51
Fayette,Kentucky,38.0368225,-84.45576892,3149,47
Dorchester,South Carolina,33.0794369,-80.40502652,3135,47
Black Hawk,Iowa,42.4704581,-92.30524729,3134,66
Washington,Oregon,45.55972701,-123.0955257,3119,25
Union,North Carolina,34.98960527,-80.52955873,3109,43
Coconino,Arizona,35.83883429,-111.7707178,3099,117
Arlington,Virginia,38.8767675,-77.10139853,3091,135
Frederick,Maryland,39.47296601,-77.39999394,3082,121
Terrebonne,Louisiana,29.37343766,-90.82626855,3057,85
Walker,Texas,30.73872995,-95.57440968,3051,41
San Juan,New Mexico,36.50838318,-108.320437,3047,184
Cass,North Dakota,46.93201724,-97.2444719,3046,76
Cleveland,Oklahoma,35.20413532,-97.32519562,3017,55
Alexandria,Virginia,38.814003,-77.08183073,2976,60
Chesapeake,Virginia,36.67670048,-76.30545744,2949,37
Butler,Ohio,39.44012838,-84.57388716,2944,63
Livingston,Louisiana,30.44143993,-90.73061664,2938,51
Marion,Oregon,44.90287942,-122.5815117,2938,70
Marion,Ohio,40.58610662,-83.15736305,2929,45
Stearns,Minnesota,45.55192576,-94.61078221,2906,20
Columbia,Florida,30.22509788,-82.62160164,2893,15
Ascension,Louisiana,30.20406249,-90.9132841,2890,74
Ellis,Texas,32.34894117,-96.79371841,2855,42
Weber-Morgan,Utah,41.27116049,-111.9145117,2845,25
Lafourche,Louisiana,29.52470226,-90.40976986,2839,99
Dauphin,Pennsylvania,40.41377078,-76.77993242,2829,159
Robeson,North Carolina,34.64244496,-79.1025053,2817,53
Hamilton,Indiana,40.07306535,-86.05244729,2803,104
St. Landry,Louisiana,30.59724262,-92.00135806,2735,90
Dougherty,Georgia,31.53328528,-84.21722377,2732,171
Lee,Alabama,32.60154883,-85.35132246,2700,47
Kenosha,Wisconsin,42.57639354,-88.04051686,2681,60
Douglas,Georgia,33.70291126,-84.77026156,2678,51
Midland,Texas,31.86904128,-102.0315682,2676,49
Santa Cruz,Arizona,31.52508998,-110.8479088,2671,53
Tom Green,Texas,31.40464436,-100.462443,2671,26
Warren,Kentucky,36.99903045,-86.42672751,2641,22
Madison,Illinois,38.83042506,-89.90422563,2634,76
Cabarrus,North Carolina,35.3877799,-80.55267168,2630,50
New Hanover,North Carolina,34.25758282,-77.87075626,2630,20
Acadia,Louisiana,30.2950649,-92.41419698,2601,85
Albany,New York,42.60060306,-73.97723916,2600,128
York,Pennsylvania,39.9210089,-76.73040131,2591,93
Mahoning,Ohio,41.01631101,-80.77287029,2566,254
Glynn,Georgia,31.23279254,-81.53811412,2557,47
Washtenaw,Michigan,42.253105,-83.83853204,2551,113
Indian River,Florida,27.69308961,-80.60556721,2543,56
Iberia,Louisiana,29.86803617,-91.75871777,2539,72
Sumter,South Carolina,33.91826534,-80.37942316,2539,51
Harrison,Mississippi,30.51359752,-89.12467576,2530,36
Smith,Texas,32.37474036,-95.2717568,2524,23
Alamance,North Carolina,36.0434701,-79.39976137,2472,41
Dona Ana,New Mexico,32.35275771,-106.8329387,2466,31
Madera,California,37.21513971,-119.7665589,2463,39
Madison,Mississippi,32.63389156,-90.03513564,2443,68
Orangeburg,South Carolina,33.4391073,-80.79886287,2441,65
Wayne,North Carolina,35.36438125,-78.00027268,2424,42
Morgan,Alabama,34.45500589,-86.85475946,2411,18
Anderson,Texas,31.81534745,-95.65354823,2403,14
Linn,Iowa,42.07923082,-91.59809485,2399,88
Pickaway,Ohio,39.64170392,-83.0243386,2387,42
Anderson,South Carolina,34.51828081,-82.63959517,2350,63
Bossier,Louisiana,32.67932307,-93.60460152,2339,81
Maverick,Texas,28.7429195,-100.3157686,2321,43
Wilson,Tennessee,36.15496772,-86.29775884,2321,23
Placer,California,39.06167234,-120.7240569,2319,22
Bear River,Utah,41.52106798,-113.0832816,2316,7
Umatilla,Oregon,45.59073056,-118.7353826,2302,28
Troup,Georgia,33.03349196,-85.02812115,2298,69
Kent,Delaware,39.08646628,-75.56884914,2294,108
Forsyth,Georgia,34.22604035,-84.1231513,2293,22
Rankin,Mississippi,32.26469147,-89.94537876,2292,35
Sarpy,Nebraska,41.11314181,-96.11156432,2290,11
Jackson,Mississippi,30.54020656,-88.64184064,2288,43
Columbia,Georgia,33.54534185,-82.263524,2284,24
Charlotte,Florida,26.90131002,-81.92949121,2257,91
San Luis Obispo,California,35.38822029,-120.4039028,2254,16
Sebastian,Arkansas,35.19605503,-94.27162713,2229,20
Starr,Texas,26.56150059,-98.73892358,2213,68
Rowan,North Carolina,35.64003916,-80.52446628,2205,48
Anchorage,Alaska,61.14998174,-149.1426986,2198,14
Randolph,North Carolina,35.71015088,-79.80570339,2180,37
Etowah,Alabama,34.04567266,-86.04051873,2162,32
Kaufman,Texas,32.5991417,-96.28734728,2158,25
Washington,Minnesota,45.03864533,-92.88429635,2155,45
Oneida,New York,43.24375382,-75.43710392,2150,115
Catawba,North Carolina,35.66211129,-81.2132617,2123,29
Johnson,Iowa,41.67169354,-91.58754744,2107,19
Cumberland,Maine,43.8370751,-70.37226999,2089,69
Ford,Kansas,37.69200114,-99.88825298,2088,10
Clarke,Georgia,33.95436462,-83.37124007,2081,18
Ulster,New York,41.89027881,-74.26252104,2072,92
Boulder,Colorado,40.09313619,-105.3546767,2059,74
Charles,Maryland,38.51092331,-76.98580666,2040,91
Pitt,North Carolina,35.59535426,-77.37353178,2036,11
Saginaw,Michigan,43.33433923,-84.0513121,2032,130
Hernando,Florida,28.55364461,-82.42700204,2028,48
Yavapai,Arizona,34.59933926,-112.5538588,2018,67
Duplin,North Carolina,34.93449805,-77.93140529,2015,48
Vanderburgh,Indiana,38.02658833,-87.58763124,1997,13
Harford,Maryland,39.55010644,-76.3077594,1994,69
Houston,Georgia,32.45802497,-83.66879087,1992,60
Bradley,Tennessee,35.15739424,-84.857186,1956,13
Montgomery,Tennessee,36.49609412,-87.38550661,1952,13
Lackawanna,Pennsylvania,41.43564672,-75.60379201,1940,212
Dakota,Nebraska,42.39040144,-96.56656425,1928,42
Jones,Mississippi,31.62257767,-89.168969,1916,59
Iredell,North Carolina,35.80950511,-80.8743128,1905,18
Gadsden,Florida,30.57796289,-84.61915825,1903,21
Hendricks,Indiana,39.76719009,-86.51037283,1901,108
Buncombe,North Carolina,35.61113393,-82.53305,1898,47
Jackson,Florida,30.7954597,-85.21500423,1897,38
Carroll,Georgia,33.58138199,-85.07976677,1894,50
Sevier,Tennessee,35.78077323,-83.52244332,1894,7
Dallas,Iowa,41.68560356,-94.04127625,1888,35
Bartow,Georgia,34.23732119,-84.83887523,1885,63
Aiken,South Carolina,33.54338026,-81.63645384,1883,38
Pickens,South Carolina,34.88807695,-82.72791551,1863,27
Johnson,Texas,32.37877812,-97.36615819,1861,30
Newport News,Virginia,37.08166899,-76.51754109,1847,18
Stark,Ohio,40.81482476,-81.36437305,1844,139
Ottawa,Michigan,42.95996803,-85.9969107,1841,56
Comal,Texas,29.80811278,-98.27647225,1839,70
Yolo,California,38.68278902,-121.9018288,1834,44
DeKalb,Alabama,34.45946862,-85.80782906,1830,13
Newton,Georgia,33.55514538,-83.8454714,1823,40
Forrest,Mississippi,31.18961454,-89.25832496,1820,56
Calhoun,Alabama,33.77483727,-85.82630386,1807,17
Warren,Ohio,39.42581994,-84.16557457,1803,39
Barnstable,Massachusetts,41.72980578,-70.28854339,1802,158
Lorain,Ohio,41.29553751,-82.15083537,1802,78
Angelina,Texas,31.25457347,-94.60901487,1796,45
Cass,Indiana,40.76135835,-86.34830753,1796,9
Buena Vista,Iowa,42.73545875,-95.15100162,1794,12
Davidson,North Carolina,35.79115496,-80.21256572,1793,18
Kootenai,Idaho,47.67282258,-116.7020872,1792,16
Portsmouth,Virginia,36.85914825,-76.35971629,1788,25
Clark,Washington,45.77568046,-122.4829204,1787,43
Finney,Kansas,38.04340344,-100.7381938,1787,10
Kankakee,Illinois,41.13746989,-87.86205334,1787,68
Putnam,Tennessee,36.14005459,-85.50646123,1785,18
Hendry,Florida,26.55386945,-81.16469006,1783,38
Jasper,Missouri,37.20351921,-94.34050458,1771,31
Johnson,Indiana,39.48994426,-86.10149107,1767,118
Nobles,Minnesota,43.67434621,-95.75329576,1765,6
Burke,North Carolina,35.74989637,-81.70755735,1763,28
Rock Island,Illinois,41.46613806,-90.57042164,1756,36
Olmsted,Minnesota,44.00374114,-92.40209944,1747,23
Hall,Nebraska,40.87257079,-98.50218293,1746,45
Douglas,Colorado,39.33133796,-104.930001,1744,59
Elmore,Alabama,32.59785413,-86.14415284,1731,38
Scott,Iowa,41.63935978,-90.61959493,1727,14
Randall,Texas,34.96585996,-101.8971322,1725,21
St. Martin,Louisiana,30.13112107,-91.61403569,1714,46
Paulding,Georgia,33.91969522,-84.86848792,1694,23
Val Verde,Texas,29.89149232,-101.1525205,1693,49
Rockingham,New Hampshire,42.98499744,-71.12883377,1691,96
Washington,Mississippi,33.28392041,-90.94196237,1689,42
Champaign,Illinois,40.13919438,-88.20046615,1686,19
Dubuque,Iowa,42.46815349,-90.88181925,1686,31
Guadalupe,Texas,29.58165339,-97.94786822,1679,55
Columbiana,Ohio,40.76932373,-80.78094576,1665,60
Manassas,Virginia,38.7464321,-77.48509905,1662,22
Kalamazoo,Michigan,42.24542231,-85.53038622,1648,83
Monroe,Pennsylvania,41.05934058,-75.34031025,1636,124
Peoria,Illinois,40.78702156,-89.76078901,1630,35
Jefferson,Missouri,38.25926778,-90.53870896,1628,24
Lebanon,Pennsylvania,40.36680311,-76.45651841,1617,54
Litchfield,Connecticut,41.7937534,-73.2451475,1615,138
Cochise,Arizona,31.87934684,-109.7516088,1611,52
St. Mary,Louisiana,29.69262097,-91.44702164,1611,55
Shawnee,Kansas,39.04100763,-95.7557264,1588,19
Vermilion,Louisiana,29.83517605,-92.30292538,1584,26
Trousdale,Tennessee,36.39026213,-86.16087954,1583,6
Larimer,Colorado,40.66671597,-105.4625784,1575,35
Jefferson,Arkansas,34.26767081,-91.92619839,1574,40
Scott,Minnesota,44.6490231,-93.53340251,1574,19
Greene,Missouri,37.2575872,-93.34230916,1573,10
Robertson,Tennessee,36.52454807,-86.87346725,1567,20
Bayamon,Puerto Rico,18.34946,-66.168435,1565,0
Colquitt,Georgia,31.18810588,-83.7677946,1555,24
Carroll,Maryland,39.56453592,-77.02373735,1554,117
Hot Spring,Arkansas,34.31709259,-92.95396325,1554,11
Ingham,Michigan,42.59716886,-84.37472069,1554,31
Westmoreland,Pennsylvania,40.3137798,-79.46615476,1553,46
Clackamas,Oregon,45.18787398,-122.2179634,1549,40
Citrus,Florida,28.84804315,-82.47614748,1548,36
Grant,Washington,47.20753737,-119.4500749,1540,13
Walker,Alabama,33.80270512,-87.30027177,1539,64
Trumbull,Ohio,41.31735028,-80.76109643,1534,107
Monroe,Florida,25.20904673,-81.07812416,1531,13
Putnam,Florida,29.60779729,-81.74230285,1519,27
Floyd,Georgia,34.26268279,-85.21577392,1517,17
Coweta,Georgia,33.35334302,-84.76129976,1514,22
Wilson,North Carolina,35.70625477,-77.917978,1514,35
Sampson,North Carolina,34.98820368,-78.36914061,1511,14
Niagara,New York,43.19898042,-78.74777412,1500,98
Spotsylvania,Virginia,38.18574462,-77.655399,1499,35
Kent,Rhode Island,41.67106337,-71.57641596,1494,0
Henderson,North Carolina,35.33788927,-82.4766782,1490,54
Sullivan,New York,41.71579493,-74.76394559,1489,48
St. Charles,Louisiana,29.90709658,-90.35555967,1484,52
Leavenworth,Kansas,39.20183497,-95.03620809,1483,9
Lee,Mississippi,34.2918775,-88.68149954,1479,41
Orange,Texas,30.11879481,-93.89412775,1477,20
Suwannee,Florida,30.19746066,-82.9909967,1471,44
Coffee,Georgia,31.54892966,-82.8549206,1468,29
Georgetown,South Carolina,33.43443342,-79.33202141,1461,19
New London,Connecticut,41.48896435,-72.10430976,1457,103
Highlands,Florida,27.34254618,-81.34071957,1449,37
Putnam,New York,41.42630093,-73.74965532,1449,63
Marshall,Iowa,42.03586837,-92.9990819,1446,26
Rock,Wisconsin,42.67151616,-89.071479,1441,26
St. John the Baptist,Louisiana,30.12597499,-90.4753503,1430,92
Twin Falls,Idaho,42.35440512,-114.6685381,1430,32
Houston,Alabama,31.15197924,-85.29939599,1419,12
Greenwood,South Carolina,34.15272415,-82.12715789,1416,18
Gregg,Texas,32.47940482,-94.81591935,1416,27
Kenton,Kentucky,38.93950319,-84.53241199,1416,41
Walton,Florida,30.64204028,-86.16935664,1414,15
Lauderdale,Mississippi,32.40419769,-88.66229662,1411,92
Kershaw,South Carolina,34.33988254,-80.58763164,1407,25
Hamblen,Tennessee,36.21990035,-83.26586179,1405,14
Middlesex,Connecticut,41.45949668,-72.53714864,1405,192
Fairfield,Ohio,39.75107189,-82.63088163,1400,32
Boone,Missouri,38.99186229,-92.30723575,1397,3
Russell,Alabama,32.28725256,-85.18415324,1387,2
Stafford,Virginia,38.41758738,-77.45917053,1385,9
Kendall,Illinois,41.59081014,-88.42869583,1379,23
Berrien,Michigan,41.95447397,-86.4131308,1376,66
Craighead,Arkansas,35.83018283,-90.63235729,1374,12
Crittenden,Arkansas,35.21247318,-90.30839406,1369,23
Franklin,Pennsylvania,39.92956518,-77.72157791,1368,46
Bastrop,Texas,30.10370699,-97.31206354,1365,21
Chelan,Washington,47.87046092,-120.6173956,1358,10
DeSoto,Florida,27.18677893,-81.80941373,1358,16
St. Clair,Alabama,33.71902176,-86.31029372,1354,18
Orange,North Carolina,36.06092947,-79.12167935,1353,47
Limestone,Alabama,34.81185586,-86.98310072,1349,13
Wicomico,Maryland,38.37301947,-75.62705831,1348,45
Rockdale,Georgia,33.65145002,-84.02202167,1347,18
Tift,Georgia,31.45743864,-83.5236119,1345,39
Warren,New Jersey,40.85951833,-74.99556527,1345,172
Laurens,South Carolina,34.48244419,-82.00490796,1340,46
Porter,Indiana,41.45986947,-87.06848888,1338,39
Walworth,Wisconsin,42.66858202,-88.54163073,1335,23
Sussex,New Jersey,41.13891592,-74.69118243,1333,198
Dallas,Alabama,32.32688101,-87.1086671,1331,23
Beaver,Pennsylvania,40.6825484,-80.34921611,1326,92
Pottawattamie,Iowa,41.33640314,-95.53907776,1325,26
Faulkner,Arkansas,35.14719007,-92.33717519,1319,6
Pope,Arkansas,35.44871474,-93.03212219,1319,10
Delaware,Ohio,40.27942393,-83.00457058,1316,19
Blount,Tennessee,35.68938198,-83.92847788,1314,11
Darlington,South Carolina,34.33358335,-79.96027485,1312,36
Sumter,Florida,28.70181754,-82.0794267,1307,41
Chatham,North Carolina,35.70394416,-79.25541492,1305,52
Bulloch,Georgia,32.39577406,-81.74811421,1304,14
Harnett,North Carolina,35.36731853,-78.87243571,1303,39
Carolina,Puerto Rico,18.374986,-65.956831,1302,0
Cumberland,Pennsylvania,40.1625372,-77.26130755,1300,71
Licking,Ohio,40.09136236,-82.48185785,1299,49
Suffolk,Virginia,36.70155394,-76.63603554,1297,50
Barrow,Georgia,33.99148694,-83.71436292,1296,32
Lee,North Carolina,35.47623147,-79.17569362,1296,11
Yellowstone,Montana,45.93955949,-108.2691486,1295,30
Titus,Texas,33.21339719,-94.96797273,1289,15
Franklin,Alabama,34.44235334,-87.84289505,1288,20
Neshoba,Mississippi,32.75339664,-89.11726492,1286,92
Hale,Texas,34.07044901,-101.8268114,1285,26
Washington,Louisiana,30.85288548,-90.03866652,1281,58
Allen,Louisiana,30.65385745,-92.82442028,1278,30
Washington,Tennessee,36.29472368,-82.4945472,1277,2
Outagamie,Wisconsin,44.41578887,-88.46565023,1276,14
Sangamon,Illinois,39.75836914,-89.65872023,1274,33
Maury,Tennessee,35.6187413,-87.07462444,1272,7
Brunswick,North Carolina,34.070565,-78.22814204,1259,21
Iberville,Louisiana,30.25734305,-91.3499598,1250,48
Granville,North Carolina,36.30337451,-78.65184241,1247,27
Hampton,Virginia,37.03513786,-76.35879121,1245,7
Clark,Indiana,38.48015445,-85.70510334,1244,47
Santa Cruz,California,37.05580291,-122.0066524,1243,6
Nassau,Florida,30.61037141,-81.80297522,1239,11
Butte,California,39.66727762,-121.6005252,1238,8
Cullman,Alabama,34.13020303,-86.86888037,1227,12
Lancaster,South Carolina,34.68270843,-80.70513032,1227,26
Lamar,Mississippi,31.20572971,-89.5077704,1226,14
Parker,Texas,32.77757172,-97.80500621,1225,19
Canadian,Oklahoma,35.5426055,-97.98465569,1224,7
Lincoln,Arkansas,33.95317155,-91.74002806,1223,12
St. Francis,Arkansas,35.02201976,-90.74828138,1223,3
Tippecanoe,Indiana,40.38872739,-86.89413959,1221,11
Seward,Kansas,37.19324632,-100.8507201,1220,4
Caldwell,North Carolina,35.95204977,-81.54799522,1215,16
Tipton,Tennessee,35.501942,-89.73694895,1211,10
Bee,Texas,28.41761668,-97.74215593,1207,11
Colbert,Alabama,34.69847452,-87.80168544,1207,16
Burleigh,North Dakota,46.97847375,-100.4645214,1201,6
Nash,North Carolina,35.96575634,-77.98422508,1194,12
Cleveland,North Carolina,35.33553364,-81.55204486,1193,20
Gordon,Georgia,34.50487351,-84.87296253,1193,23
Winnebago,Wisconsin,44.06886922,-88.64477096,1193,18
Lauderdale,Alabama,34.90171875,-87.65624729,1189,19
Hunt,Texas,33.12351514,-96.08551032,1182,21
Hampshire,Massachusetts,42.33997957,-72.65898478,1179,129
Muskegon,Michigan,43.29123859,-86.15176712,1179,59
Autauga,Alabama,32.53952745,-86.64408227,1174,21
Story,Iowa,42.03621213,-93.46499005,1167,14
Madison,Tennessee,35.61181957,-88.84076036,1160,18
Clark,Ohio,39.91592258,-83.78498252,1158,14
Ware,Georgia,31.05449097,-82.42224148,1153,29
Caldwell,Texas,29.83668859,-97.61814775,1149,26
Hunterdon,New Jersey,40.56335249,-74.91284156,1149,126
Nacogdoches,Texas,31.62017125,-94.61803994,1148,42
Habersham,Georgia,34.63331566,-83.53094677,1145,49
Grayson,Texas,33.62744998,-96.67753461,1139,13
Sandoval,New Mexico,35.68862401,-106.8687803,1137,33
Broome,New York,42.15903158,-75.81326086,1131,69
Fayette,Georgia,33.41357794,-84.49089434,1131,29
Taylor,Texas,32.30163422,-99.89007449,1130,23
Oktibbeha,Mississippi,33.42491685,-88.87905132,1127,39
Thomas,Georgia,30.86392347,-83.91847289,1125,42
Eagle,Colorado,39.62754308,-106.6933637,1124,9
Lake,Ohio,41.69710807,-81.23676539,1124,38
Cherokee,Texas,31.837258,-95.16559897,1119,7
Bolivar,Mississippi,33.79696941,-90.87372121,1118,34
Walton,Georgia,33.78017694,-83.73552314,1118,39
Erie,Pennsylvania,41.99253829,-80.03301954,1110,19
St. Bernard,Louisiana,29.87761636,-89.51887093,1109,24
Boone,Kentucky,38.97065142,-84.72615357,1104,24
Mower,Minnesota,43.67142874,-92.75234549,1103,2
Accomack,Virginia,37.76707161,-75.63234615,1102,16
Saline,Arkansas,34.64916145,-92.67583224,1095,6
Warren,Mississippi,32.35810271,-90.83352619,1095,33
Buchanan,Missouri,39.65816401,-94.80138942,1091,10
Escambia,Alabama,31.1256789,-87.15918694,1087,17
Lowndes,Mississippi,33.47386518,-88.4419153,1085,38
Harrisonburg,Virginia,38.43542574,-78.87536254,1079,31
Onslow,North Carolina,34.72607366,-77.42908179,1079,10
Flagler,Florida,29.45933576,-81.31508595,1078,13
Bonneville,Idaho,43.38713372,-111.6161537,1075,4
Stanly,North Carolina,35.31647813,-80.25093221,1075,26
Napa,California,38.50735751,-122.332839,1074,11
Avoyelles,Louisiana,31.07796211,-92.00079449,1070,32
Jackson,Georgia,34.13794553,-83.56814788,1070,16
Yell,Arkansas,35.00292371,-93.41171338,1067,17
Washington,Wisconsin,43.36863664,-88.22974712,1066,22
Panola,Mississippi,34.36398677,-89.95064249,1062,14
Schenectady,New York,42.81668777,-74.05278291,1060,37
Garland,Arkansas,34.57692074,-93.14921604,1058,16
Wood,Ohio,41.36224827,-83.62285108,1058,58
Texas,Oklahoma,36.74777635,-101.4889765,1056,7
Tolland,Connecticut,41.85853803,-72.3308481,1056,66
Okeechobee,Florida,27.3863362,-80.88944347,1055,12
Sunflower,Mississippi,33.60192578,-90.58882684,1054,25
Clay,Missouri,39.31132056,-94.41850862,1053,20
Baldwin,Georgia,33.06882326,-83.24701748,1051,39
Moore,Texas,35.83769242,-101.8930281,1050,13
Talladega,Alabama,33.37823223,-86.16886178,1048,14
Rice,Minnesota,44.3543376,-93.29658715,1038,8
Sullivan,Tennessee,36.51240691,-82.30412917,1037,14
Mississippi,Arkansas,35.76271485,-90.0519437,1033,14
Jefferson Davis,Louisiana,30.26896765,-92.81210004,1028,28
Williamsburg,South Carolina,33.62190129,-79.72767442,1020,31
Moore,North Carolina,35.30885257,-79.48474178,1018,20
Washington,Maryland,39.60835778,-77.82002295,1018,31
Roanoke City,Virginia,37.27791025,-79.96189766,1015,15
Jackson,Alabama,34.78144169,-85.99750489,1014,4
Culpeper,Virginia,38.48199985,-77.9563087,1008,12
Scott,Mississippi,32.4067041,-89.53789439,1003,20
Wichita,Texas,33.98842886,-98.7041034,1001,11
St. Mary's,Maryland,38.30058422,-76.6062928,999,52
Sevier,Arkansas,33.99780401,-94.2424869,992,10
Whatcom,Washington,48.82227976,-121.7490018,990,40
Liberty,Texas,30.15152688,-94.81205615,987,34
Madison,Indiana,40.16143691,-85.71964711,987,65
Monroe,Michigan,41.92734151,-83.53749864,987,25
Rogers,Oklahoma,36.37004357,-95.60406759,986,16
Lafayette,Mississippi,34.35687874,-89.48490961,983,17
Hardee,Florida,27.49293939,-81.80956574,976,7
Hardin,Texas,30.33364686,-94.38931817,973,15
Taylor,Florida,30.04848048,-83.60445406,965,5
Dawson,Nebraska,40.87028216,-99.8201461,961,9
Douglas,Washington,47.7361335,-119.692937,961,7
Copiah,Mississippi,31.86977774,-90.44565118,957,28
Surry,North Carolina,36.41689489,-80.69102283,956,10
Sutter,California,39.03417539,-121.6945899,952,7
Chambers,Texas,29.70972016,-94.67154501,951,3
Laurens,Georgia,32.46325233,-82.92221316,951,9
McDonald,Missouri,36.62869595,-94.34867205,951,7
Spalding,Georgia,33.26310031,-84.28013991,949,41
Gallatin,Montana,45.54486106,-111.1692571,947,3
Leflore,Mississippi,33.55545125,-90.29900733,947,65
Rockingham,Virginia,38.51006137,-78.87260325,946,19
Monongalia,West Virginia,39.63218457,-80.04766838,945,5
Clermont,Ohio,39.04847534,-84.15375786,941,11
DeKalb,Illinois,41.89373302,-88.76958483,938,30
Franklin,Louisiana,32.13675181,-91.67589857,938,18
Kanawha,West Virginia,38.33860077,-81.52857054,938,24
Pike,Mississippi,31.17507789,-90.40392572,938,36
San Patricio,Texas,28.00880118,-97.51763891,935,26
Baker,Florida,30.33060121,-82.28467476,932,4
Hardeman,Tennessee,35.20772017,-88.99161161,930,17
Medina,Ohio,41.11770589,-81.8998621,930,35
Bedford,Tennessee,35.51123746,-86.45549096,928,11
Blue Earth,Minnesota,44.03554215,-94.06699781,927,5
LaPorte,Indiana,41.54366008,-86.74072188,921,30
Schuylkill,Pennsylvania,40.70497338,-76.2150785,919,51
Gila,Arizona,33.80190085,-110.8132779,916,38
La Crosse,Wisconsin,43.90632465,-91.11451093,914,1
Columbus,North Carolina,34.26744084,-78.65801424,907,48
Howard,Indiana,40.48527731,-86.11351892,905,65
Wapello,Iowa,41.03064984,-92.40954728,904,33
Holmes,Mississippi,33.12345854,-90.08923538,900,49
Salem,New Jersey,39.58719656,-75.3469663,898,87
Lee,Arkansas,34.78498904,-90.78383866,896,8
Pennington,South Dakota,44.0025835,-102.8240777,896,32
Rockwall,Texas,32.89779518,-96.40771592,896,13
Evangeline,Louisiana,30.72985248,-92.39915924,895,7
Webster,Louisiana,32.70847669,-93.33121835,894,14
Wright,Minnesota,45.17297924,-93.96234781,892,5
Skagit,Washington,48.48171488,-121.766131,890,22
Grimes,Texas,30.54579585,-95.98902499,880,23
Medina,Texas,29.3557301,-99.11030298,878,26
Okanogan,Washington,48.54855019,-119.7387224,877,4
Newton,Missouri,36.90519407,-94.3394104,874,6
Carver,Minnesota,44.82017001,-93.8009918,873,3
Washington,Florida,30.61359259,-85.66002461,872,14
Franklin,North Carolina,36.081519,-78.28708884,871,26
Tallapoosa,Alabama,32.86698258,-85.79833053,865,79
Wagoner,Oklahoma,35.96024096,-95.51911308,864,23
Kosciusko,Indiana,41.24521668,-85.86312322,862,12
Guaynabo,Puerto Rico,18.345114,-66.114523,861,0
Macon,Tennessee,36.53157855,-86.00778595,860,13
McCurtain,Oklahoma,34.11664328,-94.77222373,858,28
Navarro,Texas,32.04620681,-96.47428766,856,8
Washington,Pennsylvania,40.19208869,-80.24582867,855,13
Newberry,South Carolina,34.28629098,-81.59935761,854,10
Miami,Ohio,40.0543329,-84.22871271,853,38
Lincoln,North Carolina,35.48508185,-81.21740317,850,9
Grenada,Mississippi,33.77036166,-89.80245083,849,21
Muscatine,Iowa,41.48370744,-91.1121697,848,48
Clarendon,South Carolina,33.66610974,-80.21647898,846,52
Chambers,Alabama,32.91360079,-85.39072749,844,38
Wilkes,North Carolina,36.2084135,-81.16232895,843,11
Albemarle,Virginia,38.02080697,-78.55481085,842,16
Oconee,South Carolina,34.75225169,-83.06742317,839,10
Livingston,Michigan,42.60302282,-83.91297209,837,28
Beauregard,Louisiana,30.64836518,-93.34173616,835,18
Dale,Alabama,31.43037123,-85.61095742,835,25
Dodge,Wisconsin,43.41576662,-88.70928178,835,5
Cape May,New Jersey,39.15008829,-74.80170244,834,87
Yazoo,Mississippi,32.77890365,-90.39656148,833,12
Lincoln,Mississippi,31.53288662,-90.45391915,832,41
Comanche,Oklahoma,34.65973764,-98.47195055,831,10
Pontotoc,Mississippi,34.226046,-89.03636807,830,8
Clarke,Alabama,31.68099859,-87.83548597,826,10
Colleton,South Carolina,32.87582989,-80.67641292,825,34
St. Clair,Michigan,42.92655373,-82.67937954,820,53
Dodge,Nebraska,41.58071748,-96.65598179,817,10
Webster,Iowa,42.42853483,-94.17987389,813,8
Blount,Alabama,33.98210918,-86.56790593,812,4
Chilton,Alabama,32.85044126,-86.7173256,809,7
Polk,Georgia,34.00267074,-85.18677781,808,11
Lincoln,Louisiana,32.6003154,-92.6659741,805,31
Malheur,Oregon,43.1937027,-117.6227395,804,14
Simpson,Mississippi,31.91282117,-89.91716179,803,30
Bartholomew,Indiana,39.20744865,-85.89558181,801,47
Monroe,Mississippi,33.89236763,-88.4808438,801,55
Lea,New Mexico,32.79215361,-103.4123733,798,5
Decatur,Georgia,30.87967778,-84.57619536,797,11
Platte,Nebraska,41.57246836,-97.52144359,797,3
Calhoun,Michigan,42.24633834,-85.00493569,795,42
Pointe Coupee,Louisiana,30.71409502,-91.60209535,794,32
Lake,Tennessee,36.3418017,-89.48921915,792,0
Floyd,Indiana,38.32117957,-85.90385377,791,46
Leake,Mississippi,32.7536828,-89.52402044,790,25
Marshall,Indiana,41.32467367,-86.26185087,790,22
Tuscarawas,Ohio,40.44214695,-81.47226262,788,14
Clay,Minnesota,46.89289518,-96.48761922,785,40
Wayne,Georgia,31.5521809,-81.91894878,785,9
LaSalle,Illinois,41.3442613,-88.88633881,783,24
Chesterfield,South Carolina,34.64137396,-80.1564014,777,21
Vance,North Carolina,36.36880673,-78.40670845,777,41
Natchitoches,Louisiana,31.72321584,-93.09816516,774,17
Shelby,Kentucky,38.21476019,-85.194223,774,21
Wayne,Mississippi,31.64135687,-88.69573913,774,21
Coahoma,Mississippi,34.22772299,-90.60415045,772,13
Vernon,Louisiana,31.10884837,-93.18153838,770,28
Garfield,Colorado,39.59921777,-107.902708,768,4
Sumter,Georgia,32.03650571,-84.19821492,768,56
Butler,Alabama,31.75300095,-86.68057478,767,36
Boone,Illinois,42.32359279,-88.82345779,766,23
Rensselaer,New York,42.71348136,-73.51089874,766,30
Daviess,Kentucky,37.73028906,-87.0901948,765,9
Portage,Ohio,41.16793482,-81.19735782,765,61
San Benito,California,36.60308176,-121.069975,765,4
Bowie,Texas,33.44626922,-94.41834132,764,32
Coffee,Alabama,31.39932826,-85.98901039,764,6
Camden,Georgia,30.92951916,-81.66601818,762,5
Chattahoochee,Georgia,32.34341231,-84.78809239,761,2
Wharton,Texas,29.27765923,-96.22319248,761,25
Allen,Ohio,40.77285242,-84.10802343,760,44
Saratoga,New York,43.10904162,-73.86653895,760,17
Monroe,Indiana,39.16130004,-86.52414358,759,30
Toombs,Georgia,32.12059861,-82.32957247,759,8
Cass,Missouri,38.64789422,-94.353399,755,9
El Dorado,California,38.77965956,-120.5233166,755,2
Craven,North Carolina,35.11833364,-77.08398081,753,12
Sheboygan,Wisconsin,43.72099677,-87.94579284,753,9
Matagorda,Texas,28.81955746,-96.01230294,752,27
Rutherford,North Carolina,35.40114178,-81.92112099,752,14
Loudon,Tennessee,35.73939663,-84.31145275,749,3
Polk,Texas,30.79472531,-94.8276624,748,12
Kitsap,Washington,47.63479026,-122.6436061,746,7
Caguas,Puerto Rico,18.211615,-66.050779,745,0
Effingham,Georgia,32.36616021,-81.34280942,745,2
Douglas,Kansas,38.88503636,-95.2925121,744,5
Payne,Oklahoma,36.07695283,-96.97584944,740,4
Chicot,Arkansas,33.26458973,-91.29539209,739,8
Delaware,Indiana,40.22787247,-85.39732772,738,52
Windham,Connecticut,41.82972709,-71.98182316,738,15
Covington,Alabama,31.2477854,-86.45050893,737,20
Tate,Mississippi,34.65133709,-89.94485778,736,29
Sherburne,Minnesota,45.44447208,-93.77617511,732,8
Thurston,Washington,46.9291895,-122.8290656,732,11
Chittenden,Vermont,44.46322849,-73.08359212,730,39
Crawford,Iowa,42.03718237,-95.3819718,730,3
De Soto,Louisiana,32.05457447,-93.74130302,727,26
Liberty,Georgia,31.82588896,-81.49251135,727,3
Gibson,Tennessee,35.99438059,-88.93358327,726,6
Jim Wells,Texas,27.73103938,-98.0904705,724,15
Jackson,Illinois,37.78595185,-89.38232563,722,19
West Baton Rouge,Louisiana,30.46058217,-91.30989571,722,37
Hoke,North Carolina,35.01888303,-79.23651674,720,9
St. James,Louisiana,30.02531716,-90.80212061,719,32
Shenandoah,Virginia,38.85905135,-78.56813762,717,44
Summit,Utah,40.86688146,-110.9535882,713,1
Jackson,Michigan,42.24807035,-84.42258681,711,34
Lyon,Kansas,38.45576156,-96.15275715,710,14
Walker,Georgia,34.73376362,-85.30165174,710,17
Bledsoe,Tennessee,35.59942968,-85.20611967,708,1
Madison,Florida,30.44396917,-83.47398594,708,8
Pike,Alabama,31.80396383,-85.9408295,708,7
Union,Louisiana,32.83121059,-92.3749373,708,33
Calvert,Maryland,38.53961642,-76.56820632,707,28
Wakulla,Florida,30.16548905,-84.39895211,707,4
Cecil,Maryland,39.56647682,-75.94627411,706,30
Halifax,North Carolina,36.25669272,-77.6556109,705,6
Colfax,Nebraska,41.57486951,-97.0868542,703,4
Greene,Ohio,39.69116283,-83.89032084,703,12
Fayette,Tennessee,35.19615831,-89.41399032,702,8
Marshall,Mississippi,34.76216286,-89.50299462,701,9
Dubois,Indiana,38.36597551,-86.8792417,700,12
Pueblo,Colorado,38.17359144,-104.5127437,699,34
Willacy,Texas,26.47411727,-97.61535848,699,30
Berkeley,West Virginia,39.46704621,-78.02414609,698,11
Dickson,Tennessee,36.14669837,-87.35891709,698,2
Kandiyohi,Minnesota,45.1526059,-95.00586446,698,1
Worcester,Maryland,38.21274277,-75.33200012,694,20
Anderson,Tennessee,36.12684348,-84.19965764,693,6
DeWitt,Texas,29.08101855,-97.3568117,693,19
Harrison,Texas,32.54935988,-94.36934071,693,23
Ozaukee,Wisconsin,43.38352225,-87.94625009,692,17
Levy,Florida,29.31829741,-82.74007147,687,5
Morgan,Colorado,40.2627981,-103.8093302,686,46
Marion,Mississippi,31.23132643,-89.8209217,684,20
Noble,Indiana,41.39672484,-85.41966713,684,29
Boone,Indiana,40.0509304,-86.46841646,683,46
Gonzales,Texas,29.45634206,-97.49424032,683,9
Grand Forks,North Dakota,47.92093639,-97.45450447,683,6
Lassen,California,40.67311306,-120.5935099,683,0
McDowell,North Carolina,35.67736232,-82.0482425,683,14
Frederick,Virginia,39.20172582,-78.25974949,681,9
Appling,Georgia,31.74847232,-82.28909114,678,19
York,Maine,43.47808377,-70.71052375,675,12
Butler,Pennsylvania,40.91152759,-79.91351055,671,15
Chester,South Carolina,34.69249168,-81.1583216,671,14
Fond du Lac,Wisconsin,43.75354908,-88.48885325,671,7
Hancock,Indiana,39.82304555,-85.77566351,670,38
Johnson,Arkansas,35.56759135,-93.46036368,670,2
Coryell,Texas,31.39078397,-97.79936155,669,5
Berkshire,Massachusetts,42.37428441,-73.20524838,668,46
Madison,Texas,30.96694679,-95.93003775,668,2
Vigo,Indiana,39.42944561,-87.39169027,668,10
Deaf Smith,Texas,34.96522957,-102.6054267,667,17
Cape Girardeau,Missouri,37.38489388,-89.6843587,663,5
Dyer,Tennessee,36.05931946,-89.41542855,663,8
Bryan,Georgia,32.00979311,-81.44002948,661,8
Gulf,Florida,29.93543004,-85.2427099,659,2
Pender,North Carolina,34.52265624,-77.90352133,659,3
Harris,Georgia,32.73709786,-84.90538572,657,17
Edgecombe,North Carolina,35.91230639,-77.59436892,656,13
Marathon,Wisconsin,44.89792533,-89.75863384,655,9
McLean,Illinois,40.48996987,-88.84621113,655,15
Santa Fe,New Mexico,35.50708973,-105.9774716,654,3
Hanover,Virginia,37.7583355,-77.49464673,653,32
Mitchell,Georgia,31.22483255,-84.19381821,652,41
Logan,Colorado,40.7249637,-103.110817,651,5
San Juan,Utah,37.62762978,-109.8033714,650,25
Lamar,Texas,33.66981763,-95.57404777,647,18
Montgomery,North Carolina,35.33155144,-79.90416657,647,14
Sabine,Louisiana,31.56388699,-93.55433981,647,10
Yuba,California,39.26255932,-121.3535644,646,4
Dillon,South Carolina,34.39007791,-79.37741872,644,25
Union,Mississippi,34.49162015,-89.00776006,643,16
Lincoln,South Dakota,43.27841182,-96.7203905,642,2
Cherokee,South Carolina,35.05122251,-81.61828622,641,28
Henderson,Texas,32.21128872,-95.85846587,641,12
Macon,Illinois,39.86064913,-88.96342505,641,23
Karnes,Texas,28.90705334,-97.85960149,639,6
Bay,Michigan,43.70639106,-83.98731479,638,31
Catoosa,Georgia,34.89872298,-85.13757014,637,9
Jefferson,Wisconsin,43.02054068,-88.77529134,637,5
Sioux,Iowa,43.08221074,-96.1767568,637,3
Washington,Oklahoma,36.71380786,-95.90514104,636,39
Crawford,Arkansas,35.58928601,-94.2446814,635,4
Cerro Gordo,Iowa,43.08177563,-93.2612239,634,17
Gilmer,Georgia,34.69316688,-84.45802506,633,4
Oldham,Kentucky,38.39791089,-85.448222,632,15
Franklin,Missouri,38.41127108,-91.07522826,631,18
Adams,Mississippi,31.47669768,-91.35326037,629,25
Hardin,Kentucky,37.6976111,-85.96319251,629,8
Lavaca,Texas,29.38508402,-96.93186692,627,17
Lynchburg,Virginia,37.40021399,-79.19888138,627,5
Muhlenberg,Kentucky,37.21425819,-87.14632053,626,11
Bladen,North Carolina,34.61296243,-78.56180059,625,7
Mercer,Ohio,40.54043046,-84.62912742,625,13
Stephens,Georgia,34.55151201,-83.29405315,623,12
Winston,Mississippi,33.08747908,-89.03391385,623,16
Belmont,Ohio,40.01625942,-80.9924051,621,26
Covington,Mississippi,31.63225413,-89.55389939,621,13
Fauquier,Virginia,38.73564842,-77.80647472,620,9
Hamilton,Florida,30.49673973,-82.94998918,618,4
James City,Virginia,37.31156958,-76.76950618,617,16
Taney,Missouri,36.65465345,-93.04075153,616,3
Madison,Louisiana,32.36918118,-91.23973355,613,6
Deschutes,Oregon,43.91570171,-121.2289121,611,10
Murray,Georgia,34.78897608,-84.74993177,608,2
Richland,Ohio,40.77180308,-82.5379961,608,12
Creek,Oklahoma,35.90230551,-96.37086028,607,14
Washington,Rhode Island,41.45961631,-71.61435303,607,0
Buckingham,Virginia,37.57242268,-78.52518834,605,8
Henderson,Tennessee,35.65581134,-88.38600175,604,3
Richland,Louisiana,32.41391005,-91.76634876,602,8
Cheatham,Tennessee,36.26136216,-87.08903581,599,7
Lenoir,North Carolina,35.2403259,-77.64245615,599,12
Jasper,South Carolina,32.43171982,-81.02487495,597,16
Saline,Nebraska,40.52418865,-97.14085859,597,2
Jones,Texas,32.73997145,-99.87861576,596,0
Toa Alta,Puerto Rico,18.362406,-66.246616,595,0
Beadle,South Dakota,44.41464384,-98.27858469,594,9
Erie,Ohio,41.36796058,-82.62904521,592,27
East Feliciana,Louisiana,30.84425359,-91.04976723,591,36
Henry,Virginia,36.68542395,-79.87634026,591,7
St. Joseph,Michigan,41.91441767,-85.52797979,591,8
Tazewell,Illinois,40.50716185,-89.51404662,591,8
Eau Claire,Wisconsin,44.726614,-91.28609183,590,4
Lane,Oregon,43.93727035,-122.847753,590,3
George,Mississippi,30.86259065,-88.64436789,589,5
Assumption,Louisiana,29.89946234,-91.06461642,588,20
Jackson,Indiana,38.9091582,-86.03851889,588,5
Warrick,Indiana,38.08922676,-87.2716085,586,30
Jefferson,Tennessee,36.04818632,-83.45148924,584,4
Tooele,Utah,40.44862644,-113.1295715,583,0
Marion,Alabama,34.13697363,-87.88704173,580,26
Obion,Tennessee,36.35732446,-89.14921589,579,4
Blaine,Idaho,43.4085812,-113.9752658,577,6
Barbour,Alabama,31.868263,-85.3871286,576,5
Lawrence,Tennessee,35.21675201,-87.39787695,575,6
Ashtabula,Ohio,41.70860332,-80.74830218,574,46
Fairfield,South Carolina,34.39287073,-81.1195624,573,23
Lowndes,Alabama,32.1597283,-86.65158371,573,24
Campbell,Kentucky,38.94384345,-84.37875208,571,13
St. Louis,Minnesota,47.6048407,-92.46879855,570,19
Warren,Iowa,41.33559454,-93.56007641,569,1
Wasatch,Utah,40.33110236,-111.1691419,568,4
Rockingham,North Carolina,36.39593137,-79.77504841,567,8
Lee,South Carolina,34.16393091,-80.25690731,566,29
Androscoggin,Maine,44.1664747,-70.20380627,565,8
Marengo,Alabama,32.24767634,-87.78796182,565,15
Burnet,Texas,30.78801353,-98.181887,563,9
Graves,Kentucky,36.72292505,-88.65143315,560,25
LaGrange,Indiana,41.64232188,-85.42674232,559,10
Curry,New Mexico,34.57421077,-103.3468876,558,2
Geauga,Ohio,41.49952319,-81.17935342,558,44
Marion,South Carolina,34.07859748,-79.36400756,558,13
Shelby,Indiana,39.52305623,-85.7915857,558,27
Pearl River,Mississippi,30.77090935,-89.58677275,554,39
Dixie,Florida,29.60631086,-83.15724673,553,4
Elko,Nevada,41.14531606,-115.3577619,553,2
McMinn,Tennessee,35.42812616,-84.61520715,553,20
Tama,Iowa,42.07991767,-92.53266945,553,29
Uvalde,Texas,29.35739637,-99.76229172,551,10
Pettis,Missouri,38.72798918,-93.28471706,550,4
Graham,Arizona,32.93166885,-109.8882178,549,16
Coffee,Tennessee,35.49090731,-86.07311784,548,3
Walla Walla,Washington,46.23040051,-118.4775539,547,3
Calhoun,Texas,28.47048236,-96.61633945,544,5
Lee,Georgia,31.7793306,-84.14324253,544,22
Wayne,Ohio,40.82925852,-81.88844833,544,58
Charlottesville,Virginia,38.03527919,-78.48569588,543,15
Newton,Mississippi,32.40021118,-89.11843336,543,11
Toa Baja,Puerto Rico,18.431446,-66.213553,543,0
Adams,Illinois,39.98815591,-91.18786813,542,5
Yadkin,North Carolina,36.16222629,-80.66239436,542,6
Columbia,New York,42.24819348,-73.63089095,541,37
Upson,Georgia,32.87920671,-84.30024826,541,46
Rhea,Tennessee,35.60536161,-84.93076643,538,2
Independence,Arkansas,35.74242707,-91.57001641,537,1
Warren,Tennessee,35.6728299,-85.77969117,533,4
Morehouse,Louisiana,32.81686191,-91.80421614,531,12
Tallahatchie,Mississippi,33.95339918,-90.1729398,530,11
Allegan,Michigan,42.59147037,-85.89102866,529,6
Grant,Indiana,40.51587228,-85.65468702,528,30
Hood,Texas,32.42990927,-97.83242024,528,10
Erath,Texas,32.23602653,-98.21773417,527,5
Pike,Pennsylvania,41.33155042,-75.03208106,526,21
Cassia,Idaho,42.28347888,-113.6012409,525,1
Adams,Pennsylvania,39.87140411,-77.21610347,524,20
Carter,Tennessee,36.28969086,-82.12588974,524,6
Lonoke,Arkansas,34.75392199,-91.88742357,524,2
Attala,Mississippi,33.08658803,-89.57838564,523,25
Jackson,Oklahoma,34.58781741,-99.41138784,523,7
Richmond,North Carolina,35.00417719,-79.74491009,521,9
East Carroll,Louisiana,32.73926954,-91.23425694,520,2
Petersburg,Virginia,37.20530399,-77.39368102,520,19
Miller,Arkansas,33.31403423,-93.89285258,518,5
Madison,Kentucky,37.71659336,-84.27220275,516,1
Manassas Park,Virginia,38.77058531,-77.44399307,515,7
Washington,Texas,30.21498498,-96.40946246,515,39
Lauderdale,Tennessee,35.75893438,-89.6301591,514,8
Trujillo Alto,Puerto Rico,18.336159,-65.998884,514,0
Emanuel,Georgia,32.59221302,-82.30239915,513,10
Frio,Texas,28.86751206,-99.10804207,512,5
Tattnall,Georgia,32.04785085,-82.05539188,511,1
Haywood,Tennessee,35.58332824,-89.28536625,510,6
Muskogee,Oklahoma,35.61318461,-95.37802952,509,16
Bradford,Florida,29.95079741,-82.16611613,508,4
Dearborn,Indiana,39.14647946,-84.97333539,508,28
Holmes,Florida,30.86747479,-85.81319222,507,2
Marlboro,South Carolina,34.59905577,-79.67561152,507,4
Mayaguez,Puerto Rico,18.2013,-67.1452,507,0
Greene,Tennessee,36.17470125,-82.84691273,504,8
Jefferson,Georgia,33.05867328,-82.41609057,504,8
Union,Arkansas,33.16887091,-92.59746952,504,18
Christian,Kentucky,36.89267803,-87.49055367,502,8
St. Croix,Wisconsin,45.03437474,-92.45000068,502,5
Fayette,Pennsylvania,39.92041012,-79.64291195,501,5
Walthall,Mississippi,31.14971548,-90.10446654,501,20
Ponce,Puerto Rico,18.059498,-66.613748,499,0
Butts,Georgia,33.2830945,-83.9543504,497,38
Fremont,Wyoming,43.04183996,-108.6296893,497,0
Roanoke,Virginia,37.26865804,-80.06396753,496,4
Greensville,Virginia,36.67878901,-77.56351439,495,11
Laramie,Wyoming,41.3070252,-104.6887497,495,0
Grady,Georgia,30.87454847,-84.23418364,493,5
Pittsylvania,Virginia,36.81980341,-79.39731264,493,2
Ross,Ohio,39.33705391,-83.06000914,490,4
Johnson,Missouri,38.74719601,-93.80691168,489,2
Coles,Illinois,39.51949084,-88.22358557,487,20
Cowlitz,Washington,46.19074721,-122.6782231,485,5
Greene,Arkansas,36.1173546,-90.55832668,485,2
Roane,Tennessee,35.84923189,-84.52458689,485,2
Hawkins,Tennessee,36.44355426,-82.94885298,483,7
Jerome,Idaho,42.68891267,-114.2655033,483,6
Morgan,Indiana,39.47899078,-86.44573375,483,34
Riley,Kansas,39.28935726,-96.73420026,483,5
Hardin,Tennessee,35.19732531,-88.18593755,482,8
Scurry,Texas,32.74613808,-100.9162664,481,1
Minidoka,Idaho,42.85518524,-113.6357257,480,2
Bamberg,South Carolina,33.21927586,-81.05659969,479,22
Jasper,Iowa,41.68576082,-93.05567785,479,26
Washington,Georgia,32.96711864,-82.79357039,479,2
Cocke,Tennessee,35.9278914,-83.11828725,478,3
Hale,Alabama,32.76039258,-87.63284988,478,26
Oceana,Michigan,43.64124435,-86.26726673,478,6
Columbia,Pennsylvania,41.04821986,-76.40565017,477,35
La Paz,Arizona,33.72854224,-113.9810029,477,12
Broomfield,Colorado,39.95998787,-105.0566324,475,32
Calhoun,Florida,30.40666734,-85.19394153,475,7
Northumberland,Pennsylvania,40.84785433,-76.70798222,475,13
Jackson,Oregon,42.43201126,-122.7289309,473,2
Wright,Iowa,42.73305373,-93.73515113,473,1
Mendocino,California,39.4381191,-123.3911313,472,10
Burke,Georgia,33.05917989,-81.99928721,470,7
Chickasaw,Mississippi,33.91983202,-88.9481545,470,19
Lapeer,Michigan,43.09052506,-83.22153148,470,33
Macon,North Carolina,35.14867843,-83.41696617,470,3
Randolph,Illinois,38.05095369,-89.82512254,470,7
Okmulgee,Oklahoma,35.64661916,-95.96432828,469,3
Waupaca,Wisconsin,44.47068056,-88.96534501,468,15
Yamhill,Oregon,45.23330449,-123.3086963,467,13
Bullock,Alabama,32.10030533,-85.71265535,466,11
Merrimack,New Hampshire,43.29662971,-71.6811573,466,21
Plymouth,Iowa,42.737633,-96.21366621,463,9
Weakley,Tennessee,36.29896232,-88.71990865,463,4
Chaves,New Mexico,33.36406072,-104.4665365,462,6
Eaton,Michigan,42.59599185,-84.83740035,462,8
Madison,Nebraska,41.91676024,-97.6005481,461,5
Garfield,Oklahoma,36.3791334,-97.78265517,460,5
Monroe,Georgia,33.014289,-83.92097166,460,25
Plaquemines,Louisiana,29.42245447,-89.60322085,460,19
Noxubee,Mississippi,33.11009499,-88.56949061,459,12
Saluda,South Carolina,34.00795823,-81.72713237,459,8
Shasta,California,40.76391419,-122.0396884,459,10
Bryan,Oklahoma,33.96472458,-96.25903472,458,1
Cumberland,Tennessee,35.95271721,-84.99840585,458,6
Jeff Davis,Georgia,31.80405727,-82.6372487,457,8
Winston,Alabama,34.15030532,-87.37325922,457,11
Jefferson,Florida,30.43669112,-83.89442308,455,5
Smith,Tennessee,36.25359775,-85.95411046,455,4
Van Buren,Michigan,42.25190229,-86.01939087,454,10
Waller,Texas,30.01058447,-95.99011759,454,5
Caroline,Maryland,38.87172293,-75.82904158,453,3
Adams,Washington,46.98299757,-118.5601734,452,5
Ben Hill,Georgia,31.76095874,-83.22145359,452,4
Monroe,Tennessee,35.44550387,-84.24902965,452,9
Jackson,North Carolina,35.28814273,-83.14093385,451,5
Worth,Georgia,31.55162306,-83.85090513,449,23
Pottawatomie,Oklahoma,35.20614018,-96.94923008,448,9
Brown,South Dakota,45.58994323,-98.35165355,446,3
Mecklenburg,Virginia,36.67882005,-78.36131056,446,32
Cherokee,Oklahoma,35.90692775,-94.99980896,445,2
McClain,Oklahoma,35.01123903,-97.44572302,445,4
Perry,Alabama,32.64048341,-87.29770589,445,4
Sauk,Wisconsin,43.42574087,-89.94966132,444,3
Washington,Alabama,31.4092794,-88.20689944,443,12
Bibb,Alabama,32.99642064,-87.1251146,442,5
Grady,Oklahoma,35.0167709,-97.88339847,442,7
Kleberg,Texas,27.42435506,-97.69894948,442,8
Mercer,Pennsylvania,41.30248872,-80.25816981,442,9
Hampton,South Carolina,32.77419582,-81.13845571,441,11
Oconee,Georgia,33.83749973,-83.43679568,441,15
Clinton,Indiana,40.30319754,-86.47277257,440,3
Cook,Georgia,31.16068491,-83.42947229,440,6
Fairbanks North Star,Alaska,64.80726247,-146.5692662,440,5
Wilson,Texas,29.1732598,-98.08693082,439,19
Bacon,Georgia,31.55456473,-82.45936528,438,8
Atascosa,Texas,28.89333001,-98.52730485,437,18
Big Horn,Montana,45.42335905,-107.492347,437,13
Charlton,Georgia,30.78371028,-82.13951596,437,3
Buffalo,Nebraska,40.85486962,-99.07500296,435,1
Haywood,North Carolina,35.55269063,-82.98196486,435,12
Saline,Missouri,39.13734288,-93.20259964,435,7
Alcorn,Mississippi,34.88084463,-88.57996173,434,5
Queen Anne's,Maryland,39.06198912,-76.03530977,434,25
Laurel,Kentucky,37.10975748,-84.11321779,433,5
Lenawee,Michigan,41.89475156,-84.06603727,433,12
Wilcox,Alabama,31.98773215,-87.30891118,432,10
Davie,North Carolina,35.93099927,-80.54496571,431,7
Delaware,Oklahoma,36.40823634,-94.80325046,431,19
Franklin,Florida,29.83791238,-84.82731662,430,2
Putnam,Georgia,33.32056115,-83.37552891,430,18
Beaufort,North Carolina,35.48531943,-76.84325809,428,2
Valencia,New Mexico,34.71669834,-106.8103733,428,4
Cole,Missouri,38.50455671,-92.27860244,427,3
Central Utah,Utah,39.37231946,-111.5758676,426,2
Osage,Oklahoma,36.62888819,-96.39635704,426,11
Todd,Minnesota,46.06996226,-94.89785296,426,2
Caddo,Oklahoma,35.17364557,-98.37534464,425,16
Lyon,Minnesota,44.41327865,-95.83806103,425,3
Winn,Louisiana,31.94449367,-92.63789413,425,7
Clinton,Michigan,42.94400871,-84.60145248,423,13
Hopkins,Kentucky,37.30939025,-87.54670406,421,33
Monroe,Alabama,31.56729412,-87.36995001,421,5
Tishomingo,Mississippi,34.74023475,-88.23917219,421,6
Barnwell,South Carolina,33.26679302,-81.43584352,420,5
Calhoun,Mississippi,33.93683395,-89.33686647,420,9
Portage,Wisconsin,44.47558711,-89.50152965,420,0
Lincoln,Oregon,44.64252874,-123.869912,418,9
Vega Baja,Puerto Rico,18.428262,-66.397924,418,0
Prentiss,Mississippi,34.61810501,-88.51986294,417,10
Brooks,Georgia,30.83922642,-83.58303423,413,18
Madison,New York,42.91653905,-75.67266639,412,17
Clinton,Illinois,38.60704876,-89.42385254,411,17
Danville,Virginia,36.58022376,-79.40395668,411,7
Franklin,Massachusetts,42.58119713,-72.58602547,411,61
Marinette,Wisconsin,45.38553432,-88.033246,411,3
Ogle,Illinois,42.04165196,-89.32184679,411,5
Clinton,Iowa,41.89981633,-90.53275096,410,3
Pierce,Georgia,31.35928155,-82.21598442,410,8
Prince Edward,Virginia,37.22554789,-78.43597949,410,10
Claiborne,Mississippi,31.97061673,-90.90702196,409,13
Williamson,Illinois,37.73033511,-88.92994027,409,6
Wise,Texas,33.21570665,-97.65460265,409,7
Nye,Nevada,38.04264256,-116.4722702,408,9
Franklin,Georgia,34.37525597,-83.23159927,406,6
Fredericksburg,Virginia,38.2977863,-77.4922454,406,4
Jackson,Texas,28.95472367,-96.57749563,406,7
Smith,Mississippi,32.01744532,-89.50644846,406,13
Glades,Florida,26.95635849,-81.18996211,405,3
Cabell,West Virginia,38.42424062,-82.23855912,404,3
Pickens,Alabama,33.28094866,-88.08818103,404,9
Madison,Georgia,34.12920917,-83.21218732,403,6
Randolph,Alabama,33.29526734,-85.45708831,403,10
Darke,Ohio,40.13412966,-84.6194517,402,29
Pasquotank,North Carolina,36.26723798,-76.25134778,402,20
Talbot,Maryland,38.76618159,-76.10882561,402,4
Huron,Ohio,41.14651175,-82.59867951,401,5
Shelby,Texas,31.79211404,-94.14550696,401,18
Bannock,Idaho,42.67002716,-112.2233311,400,2
Liberty,Florida,30.23766008,-84.8829258,400,6
Lycoming,Pennsylvania,41.34310539,-77.06629984,400,20
Scott,Missouri,37.05588075,-89.56474493,400,13
Winchester,Virginia,39.17054517,-78.17325058,399,4
Kerr,Texas,30.06040006,-99.34930144,398,6
Clay,Mississippi,33.65358105,-88.77784255,397,14
Meriwether,Georgia,33.04163534,-84.68859732,396,6
Newport,Rhode Island,41.5642026,-71.26569799,396,0
Hancock,Mississippi,30.41830223,-89.48851033,395,14
Payette,Idaho,44.00545243,-116.7647695,394,2
Union,Oregon,45.30915495,-118.0068979,394,2
Conecuh,Alabama,31.43401703,-86.99320044,393,10
Lawrence,Pennsylvania,40.99206278,-80.33393706,392,16
Brown,Texas,31.77430356,-98.99907113,391,16
Colusa,California,39.17881957,-122.2331726,391,4
Ottawa,Ohio,41.53781826,-83.0940185,390,26
Pickens,Georgia,34.46589159,-84.46406611,390,5
Canovanas,Puerto Rico,18.328802,-65.887612,388,0
Fayette,Texas,29.87788372,-96.92076062,388,14
Jasper,Mississippi,32.01922104,-89.11786866,388,9
Madison,Ohio,39.89381073,-83.40178317,388,10
Isle of Wight,Virginia,36.90579348,-76.70842863,387,9
Peach,Georgia,32.56934316,-83.82937,387,14
Crawford,Kansas,37.50675523,-94.85245778,385,1
Crisp,Georgia,31.92289565,-83.76811843,385,14
Giles,Tennessee,35.20222469,-87.03992678,385,13
Henry,Indiana,39.93029017,-85.39625719,385,20
Prince George,Virginia,37.18497668,-77.22922187,384,2
Saline,Kansas,38.78369175,-97.65185177,384,5
Sandusky,Ohio,41.35624126,-83.137872,384,17
Calhoun,South Carolina,33.66926881,-80.77722168,383,11
Morton,North Dakota,46.71681782,-101.2822377,383,3
Bienville,Louisiana,32.34569994,-93.05398492,382,30
Dickinson,Iowa,43.37787725,-95.1510206,382,4
Lincoln,Missouri,39.05345619,-90.95588181,382,1
McNairy,Tennessee,35.17468549,-88.5647812,381,5
Hancock,Ohio,41.00250487,-83.66838948,379,3
Dawson,Georgia,34.44244079,-84.16964071,378,3
Louisa,Iowa,41.21842119,-91.26102611,378,14
Scott,Kentucky,38.29622293,-84.5816631,378,0
Wayne,Indiana,39.8633444,-85.01044989,377,10
Carteret,North Carolina,34.8932941,-76.54120135,376,6
Jackson,Louisiana,32.30251776,-92.55692092,376,18
St. Francois,Missouri,37.81214171,-90.47598685,376,2
Dorchester,Maryland,38.45413522,-76.02752426,375,5
Itawamba,Mississippi,34.27993475,-88.3606733,375,10
Kittitas,Washington,47.12521214,-120.679439,375,20
Van Zandt,Texas,32.56483801,-95.83766469,375,3
Union,Florida,30.04412971,-82.37497443,374,5
Bullitt,Kentucky,37.97162523,-85.68955617,373,5
York,Virginia,37.24374789,-76.54412815,373,4
Carbon,Pennsylvania,40.91545395,-75.7068525,372,28
Centre,Pennsylvania,40.92058903,-77.82200624,372,10
Morrow,Oregon,45.41846568,-119.584546,372,3
White,Indiana,40.74911165,-86.86492015,372,10
Jefferson,Oregon,44.62806839,-121.17832,371,4
Ottawa,Oklahoma,36.83532655,-94.81011909,371,3
Rusk,Texas,32.10773545,-94.76176432,370,2
Teton,Wyoming,43.93522482,-110.5890801,370,0
Cibola,New Mexico,34.91131525,-107.998876,369,18
McCracken,Kentucky,37.05350953,-88.70445755,367,4
Platte,Missouri,39.38154439,-94.77068479,367,10
Tippah,Mississippi,34.76872156,-88.90988194,367,13
Gilchrist,Florida,29.72856978,-82.79880657,366,5
Branch,Michigan,41.91600556,-85.05929476,365,2
DeKalb,Tennessee,35.97616272,-85.83689361,365,2
Scotland,North Carolina,34.8386299,-79.4757978,365,2
Barren,Kentucky,36.96469836,-85.93338945,364,2
Christian,Missouri,36.9711783,-93.18537118,364,1
Sumter,Alabama,32.59117397,-88.19916205,364,18
Union,South Carolina,34.68835752,-81.61730349,364,4
Bedford,Virginia,37.3080028,-79.5281964,361,7
La Salle,Texas,28.34453111,-99.09908775,361,2
Ontario,New York,42.85145728,-77.30874425,361,34
Pittsburg,Oklahoma,34.92065823,-95.7513432,361,3
Early,Georgia,31.32155345,-84.90255207,360,32
Elbert,Georgia,34.11302332,-82.83936148,360,1
Freeborn,Minnesota,43.67385583,-93.34884422,360,1
Glenn,California,39.59875897,-122.3938452,360,3
Strafford,New Hampshire,43.291833,-71.02336013,360,13
Athens,Ohio,39.33425634,-82.04278644,359,1
Carroll,Arkansas,36.3403856,-93.54270261,359,7
Whiteside,Illinois,41.75509713,-89.91556058,359,17
Adams,Nebraska,40.5244942,-98.50117804,358,11
Grant,Wisconsin,42.8671731,-90.7063218,357,15
Nevada,California,39.30394768,-120.7627281,357,1
Camden,Missouri,38.02199522,-92.76083747,356,5
McDuffie,Georgia,33.47851918,-82.48252774,356,10
Ohio,Kentucky,37.47751843,-86.85368087,356,8
Tuscola,Michigan,43.46606813,-83.41897025,356,29
Carson City,Nevada,39.15509045,-119.7480219,355,8
Warren,Virginia,38.90847745,-78.20280433,355,6
Montgomery,Indiana,40.04034823,-86.89335024,354,21
White,Georgia,34.64624278,-83.74905525,353,5
Lawrence,Alabama,34.52041498,-87.31069453,351,2
Northampton,North Carolina,36.41736238,-77.39769443,351,16
Steele,Minnesota,44.02240351,-93.22627088,351,2
Tunica,Mississippi,34.64967704,-90.37481167,351,7
Lawrence,Indiana,38.84112637,-86.48361629,350,27
Hertford,North Carolina,36.3607755,-76.98104134,349,11
Matanuska-Susitna,Alaska,62.31305045,-149.5741743,349,2
West Feliciana,Louisiana,30.87882871,-91.4148538,348,16
Flathead,Montana,48.29575866,-114.0520569,347,2
Galax,Virginia,36.66601852,-80.91703124,347,24
Milam,Texas,30.7858183,-96.97718698,346,3
Page,Virginia,38.61807452,-78.48797204,346,25
Le Flore,Oklahoma,34.89851864,-94.70392124,345,1
Manitowoc,Wisconsin,44.11946801,-87.80928853,345,1
Henderson,Kentucky,37.79344553,-87.57392021,344,3
Jessamine,Kentucky,37.87119786,-84.58252003,344,0
Lumpkin,Georgia,34.57286511,-84.00425681,344,6
Shiawassee,Michigan,42.953928,-84.14585902,343,28
Carter,Oklahoma,34.25103751,-97.28552485,342,4
Howard,Arkansas,34.09007427,-93.9934871,342,4
Nicollet,Minnesota,44.35291112,-94.24710352,342,13
Adair,Oklahoma,35.88494195,-94.65859267,341,6
Cambria,Pennsylvania,40.49527404,-78.71377428,341,3
Harrison,Indiana,38.19467379,-86.10948271,341,23
Parmer,Texas,34.52993409,-102.7844668,340,7
Macon,Alabama,32.38759944,-85.69267724,339,14
Sequoyah,Oklahoma,35.49447108,-94.75463785,339,4
Decatur,Indiana,39.30712658,-85.50087166,338,32
Midland,Michigan,43.64330771,-84.38804374,338,10
Trempealeau,Wisconsin,44.30360275,-91.35893614,338,2
Abbeville,South Carolina,34.22333378,-82.46170658,335,9
Fannin,Georgia,34.86430205,-84.316964,335,3
Carroll,Virginia,36.73066666,-80.73455942,334,13
Concordia,Louisiana,31.44817835,-91.63814433,334,9
Summit,Colorado,39.63803232,-106.1150762,333,4
Edgefield,South Carolina,33.77221995,-81.96231108,332,7
Franklin,Tennessee,35.15634626,-86.09201039,332,4
Missoula,Montana,47.03728583,-113.9213508,332,1
Greene,North Carolina,35.48544173,-77.67578087,331,3
Ashley,Arkansas,33.19153461,-91.7698471,330,5
Calumet,Wisconsin,44.0816316,-88.21780273,330,2
Stephenson,Illinois,42.35129217,-89.662598,330,6
Anson,North Carolina,34.97403241,-80.09953279,328,3
Hill,Texas,31.99045053,-97.13423143,328,7
Holmes,Ohio,40.56163713,-81.92635677,328,6
Kenai Peninsula,Alaska,60.24429722,-151.5388884,328,2
Logan,Kentucky,36.85949479,-86.877635,328,23
Cass,Michigan,41.91522292,-85.99405727,326,14
Clarke,Mississippi,32.04158545,-88.6889622,326,26
Crenshaw,Alabama,31.72941803,-86.31593104,326,5
Grundy,Illinois,41.28569601,-88.41905692,326,5
Montgomery,Mississippi,33.49419589,-89.61729103,326,5
White,Arkansas,35.25688493,-91.74908296,326,2
Carroll,Tennessee,35.97366108,-88.45189331,325,3
Dorado,Puerto Rico,18.436115,-66.278669,325,0
Phillips,Arkansas,34.43268455,-90.84800154,325,9
Arecibo,Puerto Rico,18.406631,-66.675077,324,0
Union,Illinois,37.47119609,-89.25548938,324,23
Indiana,Pennsylvania,40.65241041,-79.08963285,322,6
Lawrence,Mississippi,31.55147224,-90.10841127,322,8
Mayes,Oklahoma,36.30179091,-95.23175116,322,6
Richmond,Virginia,37.937575,-76.72920628,321,4
Atkinson,Georgia,31.29633502,-82.87545866,320,2
Benton,Minnesota,45.69804958,-93.99514135,320,3
Polk,Oregon,44.90322804,-123.4128888,319,12
Hancock,Georgia,33.2721566,-82.99766919,318,35
Monroe,Illinois,38.27594376,-90.17761038,318,13
Rio Arriba,New Mexico,36.51072137,-106.6931674,318,7
Dunklin,Missouri,36.27167174,-90.09122243,317,4
Bristol,Rhode Island,41.71018079,-71.28652315,316,0
Mesa,Colorado,39.01787888,-108.469799,316,4
Watauga,North Carolina,36.23103603,-81.70033724,316,0
Wood,Texas,32.78722382,-95.38236368,316,7
Franklin,Kentucky,38.2379395,-84.87962551,315,7
Yalobusha,Mississippi,34.02824175,-89.7076205,315,10
Houston,Texas,31.31925973,-95.42226208,314,7
Greene,Georgia,33.5769205,-83.17139104,313,12
Bell,Kentucky,36.73355174,-83.67766671,312,4
Warren,New York,43.56173026,-73.8433699,312,33
Hart,Georgia,34.34626973,-82.96567682,310,7
Montrose,Colorado,38.40214114,-108.2639022,310,13
Jones,Georgia,33.02512137,-83.56019163,309,3
Lincoln,Tennessee,35.13738622,-86.58910106,309,1
Pulaski,Kentucky,37.10466131,-84.57629079,309,5
Huntingdon,Pennsylvania,40.42162652,-77.97673273,308,4
Watonwan,Minnesota,43.97823903,-94.61413846,308,0
Sussex,Virginia,36.92432914,-77.25791182,307,9
Eddy,New Mexico,32.47167456,-104.3053527,306,4
Grant,Louisiana,31.59882456,-92.56124347,306,18
LaSalle,Louisiana,31.67884782,-92.15907765,305,2
Montgomery,Virginia,37.17746986,-80.37868691,305,3
Wood,Wisconsin,44.45537896,-90.04158336,305,1
Andrews,Texas,32.30468633,-102.6376548,304,7
Jasper,Texas,30.74685667,-94.02667579,304,11
Marshall,Tennessee,35.45798777,-86.76420988,304,4
Alexander,North Carolina,35.9223796,-81.17751948,303,2
Chaffee,Colorado,38.74745778,-106.1926573,303,19
Knox,Illinois,40.93148779,-90.2133034,303,1
Rio Grande,Puerto Rico,18.346329,-65.813742,302,0
Terrell,Georgia,31.77527543,-84.44069698,302,30
Scotts Bluff,Nebraska,41.85070896,-103.7080986,301,6
Washington,Iowa,41.33577126,-91.71725711,300,10
Allegany,Maryland,39.62357628,-78.69280486,299,18
Orleans,New York,43.2516977,-78.2320066,298,54
Steuben,New York,42.2689144,-77.3829924,298,42
Fulton,New York,43.11363907,-74.41798804,297,24
Colorado,Texas,29.622098,-96.5273805,296,2
Jefferson,West Virginia,39.30776166,-77.86014147,296,4
Northampton,Virginia,37.34062933,-75.87751591,296,29
Stokes,North Carolina,36.4017975,-80.23893369,296,3
Barron,Wisconsin,45.42372701,-91.84833627,295,3
Berrien,Georgia,31.27590016,-83.2252992,295,0
Catahoula,Louisiana,31.66778967,-91.84526385,295,5
Humphreys,Mississippi,33.12825718,-90.52252707,294,11
Naranjito,Puerto Rico,18.288019,-66.252703,294,0
West Carroll,Louisiana,32.78550125,-91.461201,294,6
White,Tennessee,35.92929884,-85.45591799,294,5
Blair,Pennsylvania,40.47961444,-78.34917412,293,5
Butler,Kentucky,37.20946153,-86.68748787,293,15
Greene,New York,42.275797,-74.12384884,293,18
Panola,Texas,32.1639596,-94.30552481,292,18
Cherokee,North Carolina,35.1349263,-84.05970864,290,4
Henry,Tennessee,36.33160906,-88.30121797,290,0
Jefferson,Illinois,38.29980057,-88.9240025,290,19
Putnam,Indiana,39.66437981,-86.84517605,290,8
Lawrence,Ohio,38.59743452,-82.53466552,288,0
Choctaw,Alabama,32.02227341,-88.2656443,287,12
Humboldt,California,40.69923009,-123.876044,286,4
Poinsett,Arkansas,35.57433534,-90.66268713,286,3
Johnson,Tennessee,36.4552395,-81.84886538,285,0
Linn,Oregon,44.48899494,-122.5373154,284,10
Reno,Kansas,37.95230263,-98.08607292,284,1
Butler,Missouri,36.71462476,-90.40421163,283,2
Telfair,Georgia,31.92829517,-82.93491155,281,10
Augusta,Virginia,38.16404586,-79.12461614,280,4
Morgan,Georgia,33.59232073,-83.49129491,279,0
Butler,Kansas,37.78134351,-96.83878537,278,1
Claiborne,Louisiana,32.82308512,-92.99526883,277,11
Genesee,New York,43.0022601,-78.19135193,277,5
Uinta,Wyoming,41.2878183,-110.5475782,277,0
Claiborne,Tennessee,36.48319149,-83.65947309,276,0
Tehama,California,40.12570935,-122.2370171,276,1
Bertie,North Carolina,36.0688473,-76.96545943,275,5
Cherokee,Alabama,34.17805983,-85.60638968,275,8
Lamar,Georgia,33.07841647,-84.14263877,275,12
Herkimer,New York,43.42034246,-74.96145307,274,4
Ionia,Michigan,42.94502238,-85.07413319,274,7
Miami,Indiana,40.76940965,-86.04525048,274,2
Daviess,Indiana,38.70186039,-87.07185406,273,20
Gunnison,Colorado,38.66611652,-107.0320729,273,6
Hickman,Tennessee,35.80609681,-87.47643507,273,0
Logan,Arkansas,35.21413234,-93.71951016,273,1
Hopewell,Virginia,37.29186313,-77.29754684,272,5
Randolph,Georgia,31.76622818,-84.75732369,272,26
Williams,North Dakota,48.34522353,-103.4793387,272,2
Banks,Georgia,34.35607081,-83.49644388,271,4
Hillsdale,Michigan,41.88753639,-84.59312019,271,25
Madison,Arkansas,36.01038185,-93.72524943,270,2
Quitman,Mississippi,34.25157572,-90.28908,270,1
Crockett,Tennessee,35.81830662,-89.14916269,269,5
Ohio,West Virginia,40.0955451,-80.62203992,269,4
Morgan,Illinois,39.71654544,-90.20255104,268,6
Scott,Indiana,38.68672078,-85.74627859,268,10
Chattooga,Georgia,34.47197698,-85.34535662,267,3
Southampton,Virginia,36.72231125,-77.10642712,267,13
St. Helena,Louisiana,30.82210324,-90.71013176,267,2
Iroquois,Illinois,40.74717633,-87.82466784,265,11
Owyhee,Idaho,42.58016894,-116.1693871,265,3
Palo Pinto,Texas,32.75310985,-98.31319001,265,7
Henry,Alabama,31.51148016,-85.24267944,264,3
Stark,North Dakota,46.80851182,-102.6576326,264,3
Union,Georgia,34.82995757,-83.98967069,264,7
Winona,Minnesota,43.98772283,-91.78081305,264,16
Clay,Alabama,33.26984193,-85.85836077,263,5
Geneva,Alabama,31.09389027,-85.83572839,263,1
St. Lawrence,New York,44.4976179,-75.06550039,263,4
Carroll,Mississippi,33.44834567,-89.91994479,261,11
Evans,Georgia,32.15328841,-81.8870105,261,1
Gurabo,Puerto Rico,18.266461,-65.979705,261,0
Martin,North Carolina,35.84326734,-77.10860251,261,6
Candler,Georgia,32.40209349,-82.07702563,260,4
Sweetwater,Wyoming,41.65943896,-108.8827882,260,0
Washington,New York,43.31153794,-73.43043448,260,14
Boone,Iowa,42.03657094,-93.9313999,259,3
Barry,Missouri,36.70978521,-93.82919888,258,4
Morovis,Puerto Rico,18.316963,-66.420383,258,0
Warren,North Carolina,36.39728256,-78.10652228,258,7
Chautauqua,New York,42.2276921,-79.36691763,257,9
Auglaize,Ohio,40.55998859,-84.2242143,256,6
Fajardo,Puerto Rico,18.318373,-65.666866,256,0
New Madrid,Missouri,36.59666326,-89.66070007,256,1
Oconto,Wisconsin,45.02715345,-88.26807503,256,0
Greene,Mississippi,31.21444233,-88.63922281,255,12
Raleigh,West Virginia,37.76936795,-81.2456041,255,1
Stewart,Georgia,32.07996777,-84.83208037,255,7
Yauco,Puerto Rico,18.080374,-66.858814,255,0
Bingham,Idaho,43.2167288,-112.3978437,254,2
Campbell,Tennessee,36.40355516,-84.1510856,254,1
Dooly,Georgia,32.15630737,-83.79746561,254,14
Luna,New Mexico,32.18179341,-107.7508826,254,4
Union,Ohio,40.30016061,-83.37239023,254,1
Oswego,New York,43.42778894,-76.14635194,253,3
Columbia,Wisconsin,43.46492199,-89.33589004,252,1
Greene,Alabama,32.85504247,-87.95684022,252,11
Wayne,New York,43.15494365,-77.02976528,252,3
Brantley,Georgia,31.19576557,-81.97743999,251,5
Greene,Indiana,39.03630547,-86.96223202,251,34
Newaygo,Michigan,43.554374,-85.80070107,251,0
Turner,Georgia,31.71612656,-83.62069378,250,18
Vega Alta,Puerto Rico,18.409346,-66.33725,250,0
Wood,West Virginia,39.20967886,-81.5162836,250,5
Austin,Texas,29.88548725,-96.27736949,249,4
Manati,Puerto Rico,18.420473,-66.490461,249,0
Pike,Kentucky,37.47088263,-82.39487445,249,3
Barranquitas,Puerto Rico,18.201592,-66.30963,248,0
Hamilton,Iowa,42.38382428,-93.70197703,248,1
Henry,Illinois,41.3533994,-90.13296166,248,1
Hempstead,Arkansas,33.73325583,-93.66935133,247,2
Island,Washington,48.14713305,-122.5216407,247,11
Fannin,Texas,33.59564294,-96.10751083,246,8
Jasper,Indiana,41.02078733,-87.11553319,245,2
Calloway,Kentucky,36.62093411,-88.2731593,244,4
Jenkins,Georgia,32.79248718,-81.96040187,244,24
Kay,Oklahoma,36.81799745,-97.14421435,244,11
Monroe,Wisconsin,43.94641218,-90.618819,244,2
Pecos,Texas,30.78097267,-102.7241261,244,1
Franklin,Indiana,39.4142482,-85.06062647,243,14
Kent,Maryland,39.24976208,-76.04741541,243,23
Perry,Mississippi,31.17161885,-88.99281835,243,7
Bleckley,Georgia,32.43829035,-83.33035166,242,9
Burleson,Texas,30.49273808,-96.62158484,242,6
Corozal,Puerto Rico,18.304264,-66.327738,242,0
Beltrami,Minnesota,47.97373527,-94.93732139,241,0
Franklin,Iowa,42.73270384,-93.26256925,241,10
Johnson,Georgia,32.70211082,-82.66166794,241,11
Limestone,Texas,31.5454767,-96.58095444,241,3
Lake,California,39.10124298,-122.7536244,240,2
Chippewa,Wisconsin,45.06939744,-91.28068855,239,0
Crow Wing,Minnesota,46.48096553,-94.06755609,239,14
Muskingum,Ohio,39.96575964,-81.94363275,239,1
Union,Pennsylvania,40.96188846,-77.05996014,238,2
Red River,Louisiana,32.09530039,-93.34213308,237,12
San Sebastian,Puerto Rico,18.328646,-66.971214,236,0
Seminole,Oklahoma,35.16478725,-96.61686741,236,5
Vermilion,Illinois,40.18417171,-87.73384359,236,2
Amite,Mississippi,31.17467303,-90.80501621,235,6
DeKalb,Indiana,41.39804622,-84.99906934,235,4
Knox,Kentucky,36.89225732,-83.85403396,235,8
Natrona,Wyoming,42.96180148,-106.797885,235,0
Webster,Mississippi,33.61300486,-89.28392912,235,12
Jefferson,Ohio,40.38614126,-80.76259514,234,2
Kemper,Mississippi,32.75462946,-88.64105766,234,14
Logan,West Virginia,37.8299889,-81.93528571,234,4
Pemiscot,Missouri,36.2130572,-89.78742322,234,9
Robertson,Texas,31.02539637,-96.51272246,234,2
Scioto,Ohio,38.80270163,-82.98907345,234,1
Tompkins,New York,42.44945765,-76.47229843,234,0
Ward,North Dakota,48.22390169,-101.5436763,234,1
Camp,Texas,32.97195142,-94.97790104,233,6
Jefferson Davis,Mississippi,31.56884708,-89.8267099,233,6
Washington,Virginia,36.72341572,-81.95666289,233,5
Harlan,Kentucky,36.85699301,-83.21899516,232,3
Perry,Missouri,37.70660776,-89.82741088,232,4
Cass,Illinois,39.96991073,-90.24734436,231,11
Orange,Virginia,38.24530219,-78.015604,231,3
Stoddard,Missouri,36.85571651,-89.9444155,231,9
Aguadilla,Puerto Rico,18.459681,-67.120815,230,0
Alamosa,Colorado,37.57250606,-105.7885451,230,9
Brunswick,Virginia,36.76366949,-77.8593436,230,2
Lawrence,Missouri,37.10626634,-93.83293097,230,2
Live Oak,Texas,28.35101362,-98.1246786,230,2
Lyon,Nevada,39.01777974,-119.1870479,230,6
Lamar,Alabama,33.77995024,-88.09668032,229,2
Allendale,South Carolina,32.98837386,-81.35321066,228,3
Gibson,Indiana,38.30393723,-87.58054938,228,4
Wayne,Tennessee,35.23868267,-87.78644456,228,2
Bremer,Iowa,42.77461496,-92.31795937,227,7
Garvin,Oklahoma,34.70418038,-97.30811132,227,4
Marion,Tennessee,35.12997174,-85.62265895,227,4
Allen,Kentucky,36.75197631,-86.19457544,226,8
Harrison,West Virginia,39.2853852,-80.37919577,226,1
Jennings,Indiana,38.99588883,-85.62710784,226,12
Lamb,Texas,34.06859623,-102.3516289,226,11
Mason,Washington,47.35007586,-123.1863685,226,1
Perry,Kentucky,37.25023553,-83.22922731,226,3
Pulaski,Missouri,37.82462075,-92.20783203,226,1
Refugio,Texas,28.3238976,-97.15766311,226,4
Upshur,Texas,32.73706798,-94.93999853,226,2
Lewis,Washington,46.57756476,-122.3925769,225,3
Le Sueur,Minnesota,44.37136597,-93.72844721,224,1
Pierce,Wisconsin,44.71850291,-92.4224416,224,2
Chester,Tennessee,35.42527478,-88.6095842,223,2
Cooke,Texas,33.63979567,-97.21240912,223,3
Person,North Carolina,36.38989032,-78.97217358,223,2
Echols,Georgia,30.71101099,-82.89687287,222,2
Haralson,Georgia,33.79602175,-85.21005667,222,6
Logan,Oklahoma,35.91899576,-97.44352845,222,1
Seneca,Ohio,41.12351311,-83.12783209,222,3
Arkansas,Arkansas,34.29145151,-91.37277296,221,1
Caldwell,Louisiana,32.0902519,-92.11752148,221,3
Dinwiddie,Virginia,37.07544585,-77.63451754,221,7
Dodge,Georgia,32.17265114,-83.16948926,221,3
Orocovis,Puerto Rico,18.215046,-66.433604,221,0
La Plata,Colorado,37.28632032,-107.8429014,219,2
Lanier,Georgia,31.0382857,-83.06472457,219,4
Randolph,Arkansas,36.3415714,-91.02455531,219,4
Nelson,Kentucky,37.80335779,-85.4657193,218,2
Oglethorpe,Georgia,33.8786296,-83.08278123,218,7
Columbia,Arkansas,33.21230701,-93.22642793,217,12
Armstrong,Pennsylvania,40.81665618,-79.46290811,216,7
Chenango,New York,42.49430041,-75.60887553,216,6
Decatur,Tennessee,35.60048904,-88.11043779,216,3
Pike,Georgia,33.09310242,-84.38790389,216,4
Union,South Dakota,42.83112163,-96.6557828,216,4
Botetourt,Virginia,37.55531756,-79.80982182,215,7
Bureau,Illinois,41.40385234,-89.5283051,215,3
Gray,Texas,35.40081878,-100.8129222,215,2
Rabun,Georgia,34.88389445,-83.40304637,215,3
Wilkinson,Georgia,32.80291082,-83.17140684,215,11
Caroline,Virginia,38.02679129,-77.34901405,214,5
Lawrence,Arkansas,36.04188196,-91.10867198,214,9
Susquehanna,Pennsylvania,41.82147784,-75.80071959,214,27
Campbell,Virginia,37.20553386,-79.09678609,213,2
Elmore,Idaho,43.3507101,-115.4701578,213,3
Grand Traverse,Michigan,44.69565625,-85.55585247,213,5
Boone,Arkansas,36.3084504,-93.09374925,212,2
Fayette,Alabama,33.72076938,-87.73886638,212,5
Martinsville,Virginia,36.68212094,-79.86352771,212,3
Steuben,Indiana,41.64423868,-85.00101094,211,3
Westmoreland,Virginia,38.11021557,-76.80213247,211,3
Wilkinson,Mississippi,31.16078225,-91.31018819,211,13
Cabo Rojo,Puerto Rico,18.040993,-67.154391,210,0
Dare,North Carolina,35.66520691,-75.71767334,210,2
Polk,Missouri,37.6162296,-93.39828174,210,0
Randolph,West Virginia,38.769899,-79.87919615,210,0
Screven,Georgia,32.74976524,-81.60779441,210,9
Wayne,West Virginia,38.14901357,-82.42287994,210,9
Zavala,Texas,28.86617238,-99.76050829,210,5
Drew,Arkansas,33.59035001,-91.71777921,209,3
Washington,Idaho,44.45275475,-116.7847688,209,3
Putnam,Ohio,41.02094889,-84.1336111,208,17
Ripley,Indiana,39.10235626,-85.26212744,208,7
Isabella,Michigan,43.64060976,-84.84664923,207,9
Martin,Minnesota,43.67429718,-94.55099908,207,5
Polk,Tennessee,35.12245443,-84.52075859,207,3
Custer,Oklahoma,35.63853802,-99.00170785,206,0
Hockley,Texas,33.60771256,-102.3431676,206,4
Knox,Ohio,40.39830217,-82.42027563,206,7
Adair,Kentucky,37.10459774,-85.28129668,205,19
Douglas,Nevada,38.912862,-119.6171333,205,0
Stone,Mississippi,30.79187949,-89.11547539,205,5
Thurston,Nebraska,42.15725356,-96.54157099,205,4
Washington,Ohio,39.45690571,-81.49121382,205,22
Bradley,Arkansas,33.46755808,-92.15980837,204,4
Chisago,Minnesota,45.5021011,-92.90861945,204,1
Cross,Arkansas,35.29631396,-90.77185818,204,4
Harvey,Kansas,38.04293782,-97.42747573,204,1
Preble,Ohio,39.7420247,-84.64787018,204,2
Audrain,Missouri,39.215877,-91.84242683,203,1
Calhoun,Georgia,31.53169785,-84.62725131,203,6
Otero,New Mexico,32.61348406,-105.7417604,203,10
Warren,Missouri,38.76529479,-91.16124662,203,0
Clarke,Iowa,41.02868181,-93.78499767,202,3
Cleburne,Arkansas,35.53864922,-92.02640019,202,5
Grayson,Kentucky,37.46231118,-86.34248968,202,11
Laclede,Missouri,37.65896829,-92.5888493,202,1
Hopkins,Texas,33.14875072,-95.56351139,201,2
Jefferson,Idaho,43.82078483,-112.3131749,201,1
Klamath,Oregon,42.68762984,-121.6496461,201,2
Marion,Missouri,39.80601912,-91.62203062,201,1
Pontotoc,Oklahoma,34.72959848,-96.68337199,201,2
Stephens,Oklahoma,34.48556989,-97.85141892,201,3
Castro,Texas,34.53016752,-102.2617243,200,4
Clinch,Georgia,30.91395822,-82.70432472,200,4
Grainger,Tennessee,36.27469206,-83.51254721,200,0
Mercer,West Virginia,37.40481169,-81.11023142,200,11
Shawano,Wisconsin,44.78902246,-88.76443896,200,0
Shelby,Ohio,40.33163494,-84.20258189,200,4
Cayey,Puerto Rico,18.102851,-66.14914,199,0
Sharkey,Mississippi,32.88149103,-90.8159538,199,5
Catano,Puerto Rico,18.437269,-66.143306,198,0
Overton,Tennessee,36.34117832,-85.28989535,198,1
Colonial Heights,Virginia,37.26420587,-77.39609676,197,21
Desha,Arkansas,33.83011025,-91.25500948,197,2
Goodhue,Minnesota,44.40849741,-92.7234195,197,9
Juana Diaz,Puerto Rico,18.050764,-66.494581,197,0
McLeod,Minnesota,44.82367677,-94.27287017,197,0
Otter Tail,Minnesota,46.40846929,-95.70835255,197,3
Caswell,North Carolina,36.39312665,-79.33353281,196,2
Clay,Iowa,43.08247182,-95.15096481,196,1
Seminole,Georgia,30.93464824,-84.86823924,196,4
Jefferson,Mississippi,31.73397872,-91.03764977,195,7
Putnam,West Virginia,38.50782345,-81.9082131,195,0
Coshocton,Ohio,40.30096166,-81.91729018,194,6
Carroll,Indiana,40.5807832,-86.56198812,193,2
Carroll,Iowa,42.03617207,-94.86032705,193,1
Fluvanna,Virginia,37.84157909,-78.27715475,193,9
Hood River,Oregon,45.51872811,-121.6552036,193,0
Tioga,New York,42.16852837,-76.30835812,193,25
Wilkes,Georgia,33.78290391,-82.74286107,193,4
Emmet,Iowa,43.37782951,-94.67858943,192,4
Humacao,Puerto Rico,18.145211,-65.810174,192,0
Montcalm,Michigan,43.31082541,-85.15252824,192,1
Wasco,Oregon,45.16292781,-121.1670954,192,3
Barry,Michigan,42.59513984,-85.30834519,191,2
Boyd,Kentucky,38.36176608,-82.68652187,191,3
Franklin,Illinois,37.99189086,-88.92567818,191,0
Marion,West Virginia,39.50984542,-80.24244659,191,2
Warren,Illinois,40.84925021,-90.6147432,191,0
Dallam,Texas,36.27787176,-102.6020725,190,5
Fayette,Indiana,39.63684962,-85.17797541,190,7
Casey,Kentucky,37.32533118,-84.92726209,189,10
Brewster,Texas,29.81008251,-103.2520326,188,2
Choctaw,Oklahoma,34.02807439,-95.54771129,188,1
Clark,Wisconsin,44.73483377,-90.61207486,188,7
McIntosh,Georgia,31.49683595,-81.40163426,187,2
Salinas,Puerto Rico,18.010387,-66.256592,187,0
Des Moines,Iowa,40.92012606,-91.18326592,186,2
Douglas,Wisconsin,46.43222285,-91.91595768,186,0
Maui,Hawaii,20.86399628,-156.5689097,186,6
Nodaway,Missouri,40.36079813,-94.88133008,186,0
Perry,Indiana,38.07809328,-86.63741946,186,12
Pitkin,Colorado,39.21720112,-106.9310027,186,2
Hardin,Iowa,42.38353877,-93.23654611,184,0
Perry,Illinois,38.08510853,-89.36856219,184,1
Shelby,Iowa,41.6850066,-95.31015553,184,1
Wilcox,Georgia,31.97496928,-83.43438555,184,19
Bonner,Idaho,48.29996017,-116.6017932,183,0
Louisa,Virginia,37.97850256,-77.96274807,183,2
Amador,California,38.44583082,-120.65696,182,2
Franklin City,Virginia,36.6831435,-76.93859681,182,6
Nottoway,Virginia,37.1435975,-78.05065922,182,13
Lake,Montana,47.64514965,-114.0898013,181,1
Little River,Arkansas,33.70375665,-94.23468591,181,1
Macoupin,Illinois,39.26119767,-89.92424028,181,3
McIntosh,Oklahoma,35.37235506,-95.66599306,181,1
Cass,Nebraska,40.90899107,-96.13971217,180,2
Gem,Idaho,44.06482372,-116.398376,180,1
Jayuya,Puerto Rico,18.211446,-66.58878,179,0
San Lorenzo,Puerto Rico,18.147987,-65.976392,179,0
TriCounty,Utah,40.12491499,-109.5174415,179,0
Champaign,Ohio,40.13923427,-83.76875242,178,2
Cottonwood,Minnesota,44.00715262,-95.18138802,178,0
Emporia,Virginia,36.69455571,-77.53406129,178,15
Florida,Puerto Rico,18.373715,-66.560488,178,0
Franklin,Kansas,38.56443815,-95.28644341,178,1
Lafayette,Missouri,39.06986886,-93.78076396,178,2
Starke,Indiana,41.27890281,-86.64686895,178,7
Aransas,Texas,28.10556197,-96.9995047,177,15
Clark,Arkansas,34.04613432,-93.17484713,177,1
Duval,Texas,27.68184592,-98.50864568,177,6
Macon,Georgia,32.35207048,-84.04234127,177,10
Moca,Puerto Rico,18.377805,-67.080952,177,0
Montgomery,New York,42.90123494,-74.44011632,177,4
Posey,Indiana,38.02097333,-87.86480429,177,0
San Jacinto,Texas,30.57933681,-95.16260304,177,8
Amherst,Virginia,37.60308293,-79.14548696,176,0
Cass,Texas,33.07499881,-94.34646905,176,8
Livingston,New York,42.72596275,-77.77966158,176,8
Franklin,Virginia,36.99536167,-79.88023649,175,1
Gillespie,Texas,30.31824095,-98.94676915,175,6
Lares,Puerto Rico,18.269035,-66.867236,175,0
Clearfield,Pennsylvania,41.00110782,-78.47592663,174,0
Crawford,Ohio,40.85065156,-82.91989099,174,5
Marion,Iowa,41.33445101,-93.09934783,174,0
Waynesboro,Virginia,38.06451466,-78.90293905,174,3
Zapata,Texas,27.00156391,-99.16987152,174,2
Cowley,Kansas,37.23781842,-96.83776647,173,2
Howard,Texas,32.30621324,-101.4356444,173,6
Lee,Illinois,41.74583951,-89.29977132,173,1
Lee,Texas,30.31120597,-96.97045773,173,10
Mingo,West Virginia,37.73048351,-82.13338365,173,5
Orange,Indiana,38.5411892,-86.49523093,173,24
Chemung,New York,42.13891056,-76.7638805,172,3
Kennebec,Maine,44.40759555,-69.76738544,172,11
Morrow,Ohio,40.5236356,-82.7892599,172,2
Bailey,Texas,34.06854817,-102.8299707,171,4
Cidra,Puerto Rico,18.173559,-66.161179,171,0
Wells,Indiana,40.72934187,-85.22132966,171,2
Madison,Idaho,43.78141028,-111.6538474,170,0
Montgomery,Kansas,37.19236568,-95.74329258,170,5
Wabash,Indiana,40.84704239,-85.79328272,170,3
Alleghany,North Carolina,36.49360862,-81.12857041,169,0
Benton,Oregon,44.49167306,-123.4316987,169,6
Cameron,Louisiana,29.87592238,-93.19310676,169,0
Fulton,Indiana,41.0469907,-86.26252745,169,2
Gooding,Idaho,42.96927962,-114.8108306,169,1
Hardin,Ohio,40.66015414,-83.65929931,169,12
Montgomery,Illinois,39.23198845,-89.47809254,169,7
Unicoi,Tennessee,36.10890856,-82.43709629,169,0
Young,Texas,33.17659707,-98.68790885,169,5
Green,Wisconsin,42.6794956,-89.60243287,167,1
Irwin,Georgia,31.60213036,-83.27501387,167,1
Lincoln,Oklahoma,35.70270942,-96.8812462,167,2
Cascade,Montana,47.30797024,-111.3467922,166,4
Cattaraugus,New York,42.24778241,-78.67923096,166,6
Clark,Kentucky,37.9689263,-84.14615986,166,7
Greene,Virginia,38.29545894,-78.46525378,166,2
Roosevelt,New Mexico,34.02097406,-103.4799493,166,1
Clinton,Ohio,39.41485808,-83.80852286,165,6
Jackson,West Virginia,38.84263974,-81.68148753,165,19
Jefferson,Indiana,38.78576239,-85.43633383,165,2
Goochland,Virginia,37.71714806,-77.90381514,164,7
Jasper,Georgia,33.31535543,-83.68844964,164,1
Polk,North Carolina,35.27820615,-82.16812354,164,5
Whitley,Kentucky,36.75700531,-84.14541217,163,1
Bosque,Texas,31.89978581,-97.63613524,162,2
Effingham,Illinois,39.05935711,-88.58969584,162,1
Guayama,Puerto Rico,18.007516,-66.133908,162,0
San Augustine,Texas,31.39457611,-94.17000399,162,11
Union,Tennessee,36.28590426,-83.83651902,162,0
Wayne,Pennsylvania,41.64938475,-75.29956506,162,9
Becker,Minnesota,46.93479392,-95.67158144,161,1
Gaines,Texas,32.74055318,-102.6353295,161,3
Gloucester,Virginia,37.40809042,-76.53524337,161,2
Marion,Illinois,38.64963204,-88.91899208,161,0
Nez Perce,Idaho,46.32638236,-116.7500975,161,19
Salem,Virginia,37.2836193,-80.06219455,161,3
Saunders,Nebraska,41.2278103,-96.63773905,161,2
Adair,Missouri,40.19058551,-92.60078167,160,0
Benton,Iowa,42.08011739,-92.06463573,160,1
Marquette,Michigan,46.4338914,-87.64043701,160,11
Benton,Tennessee,36.07110411,-88.06849355,159,1
Callaway,Missouri,38.83674754,-91.92186505,159,1
Highland,Ohio,39.1839264,-83.60331456,159,1
Knox,Indiana,38.68861576,-87.4194665,159,0
Poweshiek,Iowa,41.68625425,-92.53155731,159,8
Ashe,North Carolina,36.43296207,-81.49862729,158,1
Carroll,Kentucky,38.66599534,-85.12601074,158,2
Huron,Michigan,43.83353985,-83.04078453,158,4
Kendall,Texas,29.94414155,-98.7113588,158,4
Las Piedras,Puerto Rico,18.187527,-65.869468,158,0
Lewis and Clark,Montana,47.12610041,-112.394698,158,1
Mono,California,37.93899289,-118.8872409,158,1
Patrick,Virginia,36.6801638,-80.2865648,158,4
Chowan,North Carolina,36.12908077,-76.60118385,157,1
Floyd,Iowa,43.0600053,-92.78940097,157,2
Freestone,Texas,31.70422788,-96.15072516,157,0
Grayson,Virginia,36.65677234,-81.23215889,157,5
Pipestone,Minnesota,44.02301619,-96.25841142,157,9
Gratiot,Michigan,43.29265605,-84.60505416,156,15
Halifax,Virginia,36.76654925,-78.93512622,156,1
Jackson,Iowa,42.17178824,-90.57354837,156,1
Oglala Lakota,South Dakota,43.33749164,-102.5555498,156,2
Trinity,Texas,31.0879489,-95.1367187,156,4
Woodford,Kentucky,38.04178222,-84.7417556,156,0
Allamakee,Iowa,43.28383218,-91.37860922,155,4
Ciales,Puerto Rico,18.28885,-66.516475,155,0
Crockett,Texas,30.72367027,-101.4134238,155,3
Logan,Ohio,40.38996525,-83.76784341,155,2
Montgomery,Georgia,32.17201038,-82.53527476,155,2
Tuolumne,California,38.02644018,-119.9525093,155,3
Boyle,Kentucky,37.62680923,-84.8633779,154,0
Crawford,Pennsylvania,41.68447709,-80.10760592,154,1
Polk,Minnesota,47.77372465,-96.40134647,154,4
Whitley,Indiana,41.13863784,-85.50791236,154,6
Conway,Arkansas,35.26205537,-92.70506566,153,3
Howell,Missouri,36.77383887,-91.88683935,153,2
Cayuga,New York,42.91261714,-76.55731592,152,2
Clay,Kentucky,37.16451126,-83.712575,152,5
Coamo,Puerto Rico,18.097597,-66.36014,152,0
Staunton,Virginia,38.15965544,-79.05979937,152,0
Woodford,Illinois,40.78579374,-89.20973757,152,3
Cannon,Tennessee,35.80990797,-86.05738983,151,0
Douglas,Oregon,43.27941273,-123.167291,151,1
Fayette,West Virginia,38.02974928,-81.08286634,151,7
Dimmit,Texas,28.42270064,-99.75645095,150,3
Jackson,Kentucky,37.41866422,-83.99825483,150,14
Marion,Georgia,32.3483402,-84.52733571,150,5
Penobscot,Maine,45.40194593,-68.65020455,150,5
Simpson,Kentucky,36.74058474,-86.58047435,150,7
Smyth,Virginia,36.84455636,-81.53344948,150,3
Ashland,Ohio,40.84772277,-82.27280781,149,3
Waseca,Minnesota,44.02211116,-93.58720034,149,0
Defiance,Ohio,41.32398837,-84.49076944,148,4
Geary,Kansas,38.99871131,-96.7577178,148,2
Jackson,Kansas,39.41673394,-95.79356799,148,1
Lafayette,Florida,29.98484137,-83.18166636,148,2
McPherson,Kansas,38.39184858,-97.64769869,148,1
Moniteau,Missouri,38.63571781,-92.57976951,148,2
Polk,Arkansas,34.48254879,-94.22728802,148,1
Wyandot,Ohio,40.84339621,-83.30734173,148,8
Calaveras,California,38.20537103,-120.552913,147,1
Fulton,Ohio,41.60213491,-84.12571393,147,1
Itasca,Minnesota,47.51009045,-93.63092229,147,12
Powhatan,Virginia,37.55016038,-77.91267882,147,4
McDonough,Illinois,40.45674722,-90.67775541,146,15
Reeves,Texas,31.32323325,-103.6903896,146,5
San German,Puerto Rico,18.111484,-67.038581,146,0
Anasco,Puerto Rico,18.287985,-67.120611,145,0
Dawson,Texas,32.74255572,-101.9477242,145,4
Ellis,Kansas,38.91458712,-99.31751551,145,1
King George,Virginia,38.26818502,-77.15852768,145,4
Transylvania,North Carolina,35.20383864,-82.79638423,145,1
Leon,Texas,31.29872538,-95.9936328,144,2
Sullivan,Missouri,40.2099105,-93.11150106,144,0
Towns,Georgia,34.91369188,-83.7410746,144,1
Bedford,Pennsylvania,40.00522157,-78.48998442,143,4
Benton,Mississippi,34.81681228,-89.18945516,143,1
Camuy,Puerto Rico,18.418578,-66.860206,143,0
Christian,Illinois,39.54581621,-89.27780482,143,4
Douglas,Minnesota,45.93348491,-95.45335469,143,1
Heard,Georgia,33.29686567,-85.12886832,143,4
Lafayette,Wisconsin,42.66005229,-90.1317729,143,0
Lincoln,Georgia,33.79201475,-82.45024131,143,4
Miller,Georgia,31.16568912,-84.73151117,143,0
Nevada,Arkansas,33.66340119,-93.30632432,143,9
Terry,Texas,33.17402785,-102.3354521,143,2
Tipton,Indiana,40.31123252,-86.05234925,143,11
Comanche,Texas,31.94854689,-98.55876441,142,3
Jefferson,New York,44.04200959,-75.94653457,142,0
Washington,Indiana,38.60219804,-86.1049363,142,1
Isabela,Puerto Rico,18.44981,-67.005093,141,0
Juncos,Puerto Rico,18.223793,-65.909109,141,0
Menominee,Michigan,45.58038692,-87.55370409,141,0
O'Brien,Iowa,43.08310673,-95.62474482,141,4
Oneida,Wisconsin,45.70677897,-89.51944105,141,0
Wise,Virginia,36.9746148,-82.62410519,141,3
Aguada,Puerto Rico,18.360255,-67.175131,140,0
Mahaska,Iowa,41.33521503,-92.64083907,140,17
Mississippi,Missouri,36.82516239,-89.29505753,140,0
Barton,Kansas,38.47889676,-98.75636726,139,3
Brookings,South Dakota,44.36974375,-96.79079945,139,1
Kingfisher,Oklahoma,35.94530008,-97.94193268,139,0
Somerset,Maryland,38.1163542,-75.75118623,139,3
Brown,Ohio,38.93416837,-83.86788395,138,2
Carlton,Minnesota,46.59180601,-92.67601019,138,0
Hughes,Oklahoma,35.04912569,-96.24921145,138,2
Juneau,Wisconsin,43.92456975,-90.11120239,138,1
Labette,Kansas,37.19113093,-95.29849679,138,1
Marshall,Kentucky,36.8800707,-88.32803576,138,2
Pawnee,Oklahoma,36.31743373,-96.7033176,138,3
Talbot,Georgia,32.69642758,-84.53351366,138,3
Benson,North Dakota,48.0683985,-99.35916363,137,2
Codington,South Dakota,44.97788119,-97.18827677,137,1
Grant,Arkansas,34.29017991,-92.42320562,137,0
Taylor,Kentucky,37.3677562,-85.3329931,137,2
Webster,Missouri,37.2813734,-92.876329,137,1
Clay,Arkansas,36.36826212,-90.4148172,136,4
Perry,Ohio,39.73508655,-82.23804971,136,3
Red River,Texas,33.61886692,-95.04841765,136,11
Spencer,Indiana,38.01519732,-87.0079644,136,3
Stone,Missouri,36.75000327,-93.45256475,136,1
Choctaw,Mississippi,33.34598242,-89.24809382,135,4
Loiza,Puerto Rico,18.425688,-65.89943,135,0
Mountrail,North Dakota,48.20197971,-102.3555315,135,1
Otsego,Michigan,45.02085831,-84.59898295,135,11
Park,Wyoming,44.52157546,-109.5852825,135,0
Somerset,Pennsylvania,39.97172723,-79.02699593,135,3
Williams,Ohio,41.56052014,-84.58429552,135,3
Iosco,Michigan,44.35486835,-83.63484895,134,12
Miami,Kansas,38.56383358,-94.83832189,134,0
Nolan,Texas,32.30365282,-100.4060208,134,3
Sullivan,Indiana,39.08952258,-87.41414469,134,1
Aguas Buenas,Puerto Rico,18.251619,-66.126806,133,0
Cedar,Iowa,41.77233777,-91.13246684,133,1
Juniata,Pennsylvania,40.53358749,-77.3997513,133,6
Marion,Texas,32.79868409,-94.3566123,133,8
Teller,Colorado,38.88133511,-105.1614893,133,3
Washington,North Carolina,35.83810081,-76.57299037,133,4
Guthrie,Iowa,41.68378965,-94.50111014,132,5
Jones,Iowa,42.12118609,-91.13139641,132,2
Miller,Missouri,38.21450288,-92.42610898,132,1
Polk,Wisconsin,45.46130348,-92.44182875,132,2
Saline,Illinois,37.75332999,-88.54119706,132,2
Cooper,Missouri,38.844478,-92.80896081,131,0
Franklin,Mississippi,31.47786634,-90.89672989,131,2
Hawaii,Hawaii,19.60121157,-155.5210167,131,0
Kewaunee,Wisconsin,44.51727459,-87.61468386,131,2
Marshall,West Virginia,39.86064362,-80.66591062,131,1
Alpena,Michigan,45.03477666,-83.62212411,130,13
Clay,South Dakota,42.91296147,-96.97656917,130,0
Sabana Grande,Puerto Rico,18.08282,-66.943758,130,0
Buchanan,Iowa,42.4709188,-91.83510825,129,1
Cherokee,Kansas,37.16928494,-94.8462897,129,1
Guayanilla,Puerto Rico,18.039942,-66.79186,129,0
Jackson,Tennessee,36.36380466,-85.67239905,129,1
Long,Georgia,31.75218791,-81.74952375,129,1
New Kent,Virginia,37.50694406,-76.99828634,129,1
Pine,Minnesota,46.12105238,-92.74070188,129,0
Treutlen,Georgia,32.40422134,-82.56904553,129,3
Clinton,New York,44.74530905,-73.67875352,128,4
Dodge,Minnesota,44.02238415,-92.86244324,128,0
Falls,Texas,31.25350609,-96.93630086,128,3
Humphreys,Tennessee,36.03958805,-87.77992872,128,3
Isanti,Minnesota,45.56181234,-93.29487636,128,0
Lincoln,New Mexico,33.74526079,-105.4586166,128,2
Russell,Virginia,36.9302832,-82.10095486,128,2
Williamsburg,Virginia,37.28131268,-76.70905141,128,6
Cleburne,Alabama,33.67679204,-85.52005899,127,1
Dade,Georgia,34.8549167,-85.50490424,127,1
Franklin,Arkansas,35.51202821,-93.89299569,127,2
Henry,Iowa,40.98767962,-91.54436349,127,4
Jo Daviess,Illinois,42.36542373,-90.21094405,127,1
Stutsman,North Dakota,46.97962541,-98.95637318,127,3
Dunn,Wisconsin,44.94562799,-91.8962481,126,0
Hutchinson,Texas,35.84006574,-101.3546643,126,3
Morgan,Tennessee,36.13248031,-84.64880098,126,1
Washington,Nebraska,41.52815707,-96.22019892,126,1
Yabucoa,Puerto Rico,18.070399,-65.896289,126,0
Delta,Colorado,38.86246243,-107.8631342,125,1
Fremont,Colorado,38.47362326,-105.4399667,125,0
Lincoln,Nebraska,41.04658298,-100.7475374,125,2
Preston,West Virginia,39.46770987,-79.66712803,125,4
Routt,Colorado,40.48596505,-106.9905548,125,8
Campbell,Wyoming,44.24886082,-105.5474404,124,0
