county,state,Lat,Long_,Confirmed,Deaths
Abbeville,South Carolina,34.22333378,-82.46170658,46,0
Acadia,Louisiana,30.2950649,-92.41419698,446,26
Accomack,Virginia,37.76707161,-75.63234615,953,12
Ada,Idaho,43.4526575,-116.2415516,818,22
Adair,Iowa,41.33075609,-94.47105874,9,0
Adair,Missouri,40.19058551,-92.60078167,60,0
Adair,Oklahoma,35.88494195,-94.65859267,91,4
Adair,Kentucky,37.10459774,-85.28129668,97,19
Adams,Idaho,44.89333571,-116.4545247,3,0
Adams,Wisconsin,43.96974651,-89.76782777,4,1
Adams,Iowa,41.02903567,-94.69932645,7,0
Adams,Ohio,38.84541072,-83.4718964,10,1
Adams,Indiana,40.7457653,-84.93671406,20,1
Adams,Illinois,39.98815591,-91.18786813,44,1
Adams,Washington,46.98299757,-118.5601734,73,0
Adams,Mississippi,31.47669768,-91.35326037,202,16
Adams,Pennsylvania,39.87140411,-77.21610347,260,8
Adams,Nebraska,40.5244942,-98.50117804,273,11
Adams,Colorado,39.87432092,-104.3362578,3379,127
Addison,Vermont,44.03217337,-73.14130877,64,2
Aiken,South Carolina,33.54338026,-81.63645384,208,7
Aitkin,Minnesota,46.60962049,-93.4116826,11,0
Alachua,Florida,29.67866525,-82.35928158,383,8
Alamance,North Carolina,36.0434701,-79.39976137,413,29
Alameda,California,37.64629437,-121.8929271,3548,97
Alamosa,Colorado,37.57250606,-105.7885451,84,2
Albany,Wyoming,41.65498705,-105.7235415,25,0
Albany,New York,42.60060306,-73.97723916,1920,112
Albemarle,Virginia,38.02080697,-78.55481085,204,8
Alcona,Michigan,44.6846864,-83.59507875,17,1
Alcorn,Mississippi,34.88084463,-88.57996173,19,1
Alexander,Illinois,37.18049267,-89.32910838,12,0
Alexander,North Carolina,35.9223796,-81.17751948,38,0
Alexandria,Virginia,38.814003,-77.08183073,2016,46
Alfalfa,Oklahoma,36.73090616,-98.32408495,1,0
Allamakee,Iowa,43.28383218,-91.37860922,120,4
Allegan,Michigan,42.59147037,-85.89102866,221,6
Allegany,New York,42.25748406,-78.02750466,49,0
Allegany,Maryland,39.62357628,-78.69280486,182,17
Alleghany,North Carolina,36.49360862,-81.12857041,24,0
Alleghany,Virginia,37.78636074,-80.00222498,24,2
Allegheny,Pennsylvania,40.46809875,-79.98167747,1952,166
Allen,Kansas,37.88582951,-95.30030847,1,0
Allen,Kentucky,36.75197631,-86.19457544,96,3
Allen,Louisiana,30.65385745,-92.82442028,185,10
Allen,Ohio,40.77285242,-84.10802343,214,33
Allen,Indiana,41.09194313,-85.06800636,1743,71
Allendale,South Carolina,32.98837386,-81.35321066,38,3
Alpena,Michigan,45.03477666,-83.62212411,95,9
Alpine,California,38.59678594,-119.8223594,2,0
Amador,California,38.44583082,-120.65696,10,0
Amelia,Virginia,37.34081025,-77.98584649,28,1
Amherst,Virginia,37.60308293,-79.14548696,27,0
Amite,Mississippi,31.17467303,-90.80501621,65,1
Anchorage,Alaska,61.14998174,-149.1426986,254,4
Anderson,Kansas,38.21413251,-95.29272815,1,0
Anderson,Kentucky,38.00671029,-84.99171713,21,1
Anderson,Tennessee,36.12684348,-84.19965764,41,1
Anderson,Texas,31.81534745,-95.65354823,78,0
Anderson,South Carolina,34.51828081,-82.63959517,244,9
Andrew,Missouri,39.98492163,-94.80163024,31,0
Andrews,Texas,32.30468633,-102.6376548,27,0
Androscoggin,Maine,44.1664747,-70.20380627,326,2
Angelina,Texas,31.25457347,-94.60901487,232,5
Anne Arundel,Maryland,39.00670238,-76.60329337,4009,178
Anoka,Minnesota,45.27476015,-93.24604565,1470,73
Anson,North Carolina,34.97403241,-80.09953279,68,1
Antelope,Nebraska,42.17695516,-98.0666283,8,0
Antrim,Michigan,44.99690221,-85.15503082,12,0
Apache,Arizona,35.39465006,-109.4892383,1586,45
Appanoose,Iowa,40.74324454,-92.86865906,14,3
Appling,Georgia,31.74847232,-82.28909114,170,13
Appomattox,Virginia,37.37569884,-78.81340003,31,0
Aransas,Texas,28.10556197,-96.9995047,5,0
Arapahoe,Colorado,39.64977461,-104.3353617,4496,320
Archer,Texas,33.61569967,-98.68754589,1,0
Archuleta,Colorado,37.19474156,-107.0476867,8,0
Arenac,Michigan,44.0636262,-83.89277559,34,1
Arkansas,Arkansas,34.29145151,-91.37277296,7,0
Arlington,Virginia,38.8767675,-77.10139853,2142,120
Armstrong,Texas,34.96507426,-101.3574874,3,0
Armstrong,Pennsylvania,40.81665618,-79.46290811,64,5
Aroostook,Maine,46.65926321,-68.59841248,10,1
Ascension,Louisiana,30.20406249,-90.9132841,852,57
Ashe,North Carolina,36.43296207,-81.49862729,37,0
Ashland,Wisconsin,46.31956891,-90.67837132,2,0
Ashland,Ohio,40.84772277,-82.27280781,21,0
Ashley,Arkansas,33.19153461,-91.7698471,20,0
Ashtabula,Ohio,41.70860332,-80.74830218,345,37
Asotin,Washington,46.18894415,-117.2022851,19,2
Assumption,Louisiana,29.89946234,-91.06461642,252,14
Atascosa,Texas,28.89333001,-98.52730485,37,2
Atchison,Missouri,40.43238737,-95.42970639,3,0
Atchison,Kansas,39.53185661,-95.30870026,23,0
Athens,Ohio,39.33425634,-82.04278644,18,1
Atkinson,Georgia,31.29633502,-82.87545866,53,2
Atlantic,New Jersey,39.47538693,-74.65848483,2284,163
Atoka,Oklahoma,34.37366573,-96.03802487,4,0
Attala,Mississippi,33.08658803,-89.57838564,307,18
Audrain,Missouri,39.215877,-91.84242683,97,0
Audubon,Iowa,41.6844628,-94.90581859,13,1
Auglaize,Ohio,40.55998859,-84.2242143,76,3
Augusta,Virginia,38.16404586,-79.12461614,115,2
Aurora,South Dakota,43.71757685,-98.56050467,27,0
Austin,Texas,29.88548725,-96.27736949,27,0
Autauga,Alabama,32.53952745,-86.64408227,239,5
Avery,North Carolina,36.07569796,-81.92308483,2,0
Avoyelles,Louisiana,31.07796211,-92.00079449,141,9
Baca,Colorado,37.31940883,-102.5603223,12,0
Bacon,Georgia,31.55456473,-82.45936528,136,3
Bailey,Texas,34.06854817,-102.8299707,19,0
Baker,Oregon,44.70915557,-117.6749883,1,0
Baker,Florida,30.33060121,-82.28467476,29,4
Baker,Georgia,31.32669878,-84.44218806,34,2
Baldwin,Alabama,30.72774991,-87.72207058,292,9
Baldwin,Georgia,33.06882326,-83.24701748,352,27
Ballard,Kentucky,37.05842757,-88.99427697,12,0
Baltimore,Maryland,39.45784712,-76.62911955,6457,366
Baltimore City,Maryland,39.30211911,-76.61151012,5801,266
Bamberg,South Carolina,33.21927586,-81.05659969,23,0
Bandera,Texas,29.74619598,-99.24598147,6,0
Banks,Georgia,34.35607081,-83.49644388,86,1
Bannock,Idaho,42.67002716,-112.2233311,34,1
Baraga,Michigan,46.6720582,-88.36363591,1,0
Barber,Kansas,37.2288586,-98.68460053,1,0
Barbour,West Virginia,39.1307219,-80.00350858,8,1
Barbour,Alabama,31.868263,-85.3871286,177,1
Barnes,North Dakota,46.93579637,-98.06605978,5,0
Barnstable,Massachusetts,41.72980578,-70.28854339,1435,121
Barnwell,South Carolina,33.26679302,-81.43584352,48,1
Barren,Kentucky,36.96469836,-85.93338945,49,1
Barron,Wisconsin,45.42372701,-91.84833627,21,0
Barrow,Georgia,33.99148694,-83.71436292,333,18
Barry,Missouri,36.70978521,-93.82919888,9,0
Barry,Michigan,42.59513984,-85.30834519,64,2
Bartholomew,Indiana,39.20744865,-85.89558181,522,38
Barton,Kansas,38.47889676,-98.75636726,44,1
Bartow,Georgia,34.23732119,-84.83887523,496,39
Bastrop,Texas,30.10370699,-97.31206354,231,3
Bates,Missouri,38.25271289,-94.34113157,10,1
Bath,Kentucky,38.14735938,-83.74588932,9,1
Baxter,Arkansas,36.28784385,-92.33782872,12,0
Bay,Florida,30.26548745,-85.62122584,105,3
Bay,Michigan,43.70639106,-83.98731479,322,24
Bayfield,Wisconsin,46.52868768,-91.19716729,3,1
Beadle,South Dakota,44.41464384,-98.27858469,308,5
Bear River,Utah,41.52106798,-113.0832816,305,2
Beaufort,North Carolina,35.48531943,-76.84325809,36,0
Beaufort,South Carolina,32.39226291,-80.72619758,398,14
Beauregard,Louisiana,30.64836518,-93.34173616,81,4
Beaver,Oklahoma,36.7496847,-100.4758872,24,0
Beaver,Pennsylvania,40.6825484,-80.34921611,594,74
Beaverhead,Montana,45.13434354,-112.8984694,1,0
Becker,Minnesota,46.93479392,-95.67158144,41,0
Beckham,Oklahoma,35.26862449,-99.68128023,7,0
Bedford,Pennsylvania,40.00522157,-78.48998442,41,2
Bedford,Virginia,37.3080028,-79.5281964,62,2
Bedford,Tennessee,35.51123746,-86.45549096,295,4
Bee,Texas,28.41761668,-97.74215593,11,0
Belknap,New Hampshire,43.51637314,-71.41684235,63,0
Bell,Kentucky,36.73355174,-83.67766671,1,0
Bell,Texas,31.03736027,-97.4785025,411,4
Belmont,Ohio,40.01625942,-80.9924051,439,14
Beltrami,Minnesota,47.97373527,-94.93732139,18,0
Ben Hill,Georgia,31.76095874,-83.22145359,81,1
Benewah,Idaho,47.21754179,-116.6586851,12,0
Bennington,Vermont,43.03519828,-73.09048868,64,1
Benson,North Dakota,48.0683985,-99.35916363,1,0
Bent,Colorado,37.95474293,-103.0720195,2,0
Benton,Tennessee,36.07110411,-88.06849355,7,1
Benton,Missouri,38.29503305,-93.28756116,11,0
Benton,Mississippi,34.81681228,-89.18945516,14,0
Benton,Indiana,40.60626947,-87.31093999,32,0
Benton,Iowa,42.08011739,-92.06463573,44,1
Benton,Oregon,44.49167306,-123.4316987,57,5
Benton,Minnesota,45.69804958,-93.99514135,181,3
Benton,Arkansas,36.33644656,-94.25680817,700,3
Benton,Washington,46.23946995,-119.5120834,838,63
Benzie,Michigan,44.63899297,-86.01608482,4,0
Bergen,New Jersey,40.96010917,-74.07164325,18376,1595
Berkeley,South Carolina,33.20222596,-79.94654523,242,16
Berkeley,West Virginia,39.46704621,-78.02414609,326,7
Berks,Pennsylvania,40.41570541,-75.92457766,4132,322
Berkshire,Massachusetts,42.37428441,-73.20524838,566,40
Bernalillo,New Mexico,35.05163625,-106.6703554,1524,72
Berrien,Georgia,31.27590016,-83.2252992,48,0
Berrien,Michigan,41.95447397,-86.4131308,643,53
Bertie,North Carolina,36.0688473,-76.96545943,126,4
Bethel,Alaska,60.90980451,-159.8561831,3,0
Bexar,Texas,29.44928723,-98.52019748,2882,75
Bibb,Alabama,32.99642064,-87.1251146,76,1
Bibb,Georgia,32.80904227,-83.70489165,481,29
Bienville,Louisiana,32.34569994,-93.05398492,149,23
Big Horn,Wyoming,44.52405055,-107.9960365,6,0
Big Horn,Montana,45.42335905,-107.492347,31,0
Big Stone,Minnesota,45.42712824,-96.41403739,8,0
Bingham,Idaho,43.2167288,-112.3978437,8,0
Black Hawk,Iowa,42.4704581,-92.30524729,1759,46
Blackford,Indiana,40.47388153,-85.32499702,27,2
Bladen,North Carolina,34.61296243,-78.56180059,106,2
Blaine,Oklahoma,35.87518314,-98.43307003,8,0
Blaine,Idaho,43.4085812,-113.9752658,512,5
Blair,Pennsylvania,40.47961444,-78.34917412,52,1
Blanco,Texas,30.26640707,-98.3999852,11,1
Bleckley,Georgia,32.43829035,-83.33035166,48,0
Bledsoe,Tennessee,35.59942968,-85.20611967,610,1
Blount,Alabama,33.98210918,-86.56790593,63,1
Blount,Tennessee,35.68938198,-83.92847788,93,3
Blue Earth,Minnesota,44.03554215,-94.06699781,148,0
Bolivar,Mississippi,33.79696941,-90.87372121,166,11
Bollinger,Missouri,37.32449052,-90.02725304,7,0
Bon Homme,South Dakota,42.98914167,-97.88592746,8,0
Bond,Illinois,38.88829622,-89.43534887,12,1
Bonner,Idaho,48.29996017,-116.6017932,6,0
Bonneville,Idaho,43.38713372,-111.6161537,51,0
Boone,Nebraska,41.70759415,-98.06737183,6,0
Boone,Arkansas,36.3084504,-93.09374925,7,0
Boone,West Virginia,38.01974191,-81.69888019,9,0
Boone,Iowa,42.03657094,-93.9313999,67,0
Boone,Missouri,38.99186229,-92.30723575,162,2
Boone,Indiana,40.0509304,-86.46841646,318,35
Boone,Illinois,42.32359279,-88.82345779,481,17
Boone,Kentucky,38.97065142,-84.72615357,492,17
Bosque,Texas,31.89978581,-97.63613524,7,0
Bossier,Louisiana,32.67932307,-93.60460152,425,25
Botetourt,Virginia,37.55531756,-79.80982182,34,4
Bottineau,North Dakota,48.79106111,-100.8378166,2,0
Boulder,Colorado,40.09313619,-105.3546767,995,67
Bourbon,Kansas,37.85508555,-94.84865997,7,1
Bourbon,Kentucky,38.2054607,-84.21827874,11,1
Bowie,Texas,33.44626922,-94.41834132,287,6
Bowman,North Dakota,46.11285362,-103.5203343,1,0
Box Butte,Nebraska,42.22079243,-103.0878834,2,0
Boyd,Nebraska,42.8997274,-98.76486568,1,0
Boyd,Kentucky,38.36176608,-82.68652187,40,3
Boyle,Kentucky,37.62680923,-84.8633779,26,0
Bracken,Kentucky,38.69158994,-84.08532444,13,0
Bradford,Pennsylvania,41.78869215,-76.51570822,46,3
Bradford,Florida,29.95079741,-82.16611613,51,2
Bradley,Arkansas,33.46755808,-92.15980837,23,1
Bradley,Tennessee,35.15739424,-84.857186,161,1
Branch,Michigan,41.91600556,-85.05929476,124,2
Brantley,Georgia,31.19576557,-81.97743999,59,2
Braxton,West Virginia,38.70036159,-80.72011184,2,0
Brazoria,Texas,29.18757369,-95.44563172,941,12
Brazos,Texas,30.6636448,-96.30205577,501,19
Breathitt,Kentucky,37.52333168,-83.31959161,3,0
Breckinridge,Kentucky,37.77377239,-86.42885017,17,2
Bremer,Iowa,42.77461496,-92.31795937,69,6
Brevard,Florida,28.29409504,-80.73091022,428,13
Brewster,Texas,29.81008251,-103.2520326,1,0
Briscoe,Texas,34.53026962,-101.2084947,1,0
Bristol,Virginia,36.6163024,-82.16359122,4,0
Bristol,Rhode Island,41.71018079,-71.28652315,224,0
Bristol,Massachusetts,41.79228404,-71.10872211,7453,441
Broadwater,Montana,46.33277565,-111.4955813,4,0
Brooke,West Virginia,40.27367263,-80.57915332,5,0
Brookings,South Dakota,44.36974375,-96.79079945,20,0
Brooks,Texas,27.03103197,-98.21808402,1,0
Brooks,Georgia,30.83922642,-83.58303423,72,8
Broome,New York,42.15903158,-75.81326086,589,44
Broomfield,Colorado,39.95998787,-105.0566324,245,27
Broward,Florida,26.15184651,-80.48725556,7339,318
Brown,Kansas,39.82652589,-95.56421698,6,0
Brown,Illinois,39.96209138,-90.75068024,10,0
Brown,Minnesota,44.24205652,-94.72562874,17,2
Brown,Ohio,38.93416837,-83.86788395,30,1
Brown,Indiana,39.19605589,-86.22868909,33,1
Brown,Texas,31.77430356,-98.99907113,59,10
Brown,South Dakota,45.58994323,-98.35165355,286,1
Brown,Wisconsin,44.4526553,-88.00411844,2350,37
Brule,South Dakota,43.71756379,-99.08118954,2,0
Brunswick,Virginia,36.76366949,-77.8593436,30,1
Brunswick,North Carolina,34.070565,-78.22814204,110,3
Bryan,Oklahoma,33.96472458,-96.25903472,32,1
Bryan,Georgia,32.00979311,-81.44002948,77,5
Buchanan,Virginia,37.26818323,-82.03749726,18,0
Buchanan,Iowa,42.4709188,-91.83510825,33,0
Buchanan,Missouri,39.65816401,-94.80138942,725,2
Buckingham,Virginia,37.57242268,-78.52518834,467,3
Bucks,Pennsylvania,40.33682119,-75.10836643,5137,519
Buena Vista,Virginia,37.73484642,-79.35296097,13,0
Buena Vista,Iowa,42.73545875,-95.15100162,918,1
Buffalo,Wisconsin,44.37835084,-91.75332578,6,1
Buffalo,South Dakota,44.07657829,-99.20814467,22,0
Buffalo,Nebraska,40.85486962,-99.07500296,168,1
Bullitt,Kentucky,37.97162523,-85.68955617,119,4
Bulloch,Georgia,32.39577406,-81.74811421,77,2
Bullock,Alabama,32.10030533,-85.71265535,215,6
Buncombe,North Carolina,35.61113393,-82.53305,361,30
Bureau,Illinois,41.40385234,-89.5283051,17,1
Burke,North Dakota,48.79094471,-102.5182117,5,0
Burke,Georgia,33.05917989,-81.99928721,123,6
Burke,North Carolina,35.74989637,-81.70755735,477,16
Burleigh,North Dakota,46.97847375,-100.4645214,132,0
Burleson,Texas,30.49273808,-96.62158484,26,0
Burlington,New Jersey,39.87681124,-74.66927768,4700,302
Burnet,Texas,30.78801353,-98.181887,45,0
Burnett,Wisconsin,45.86303537,-92.36711412,1,1
Burt,Nebraska,41.85056773,-96.32605633,8,0
Butler,Iowa,42.73172833,-92.79015971,17,1
Butler,Kansas,37.78134351,-96.83878537,37,0
Butler,Missouri,36.71462476,-90.40421163,42,0
Butler,Nebraska,41.22703692,-97.13106306,50,0
Butler,Kentucky,37.20946153,-86.68748787,235,13
Butler,Pennsylvania,40.91152759,-79.91351055,235,12
Butler,Alabama,31.75300095,-86.68057478,419,18
Butler,Ohio,39.44012838,-84.57388716,933,33
Butte,California,39.66727762,-121.6005252,55,1
Butts,Georgia,33.2830945,-83.9543504,237,24
Cabarrus,North Carolina,35.3877799,-80.55267168,511,22
Cabell,West Virginia,38.42424062,-82.23855912,67,0
Caddo,Oklahoma,35.17364557,-98.37534464,167,10
Caddo,Louisiana,32.57991587,-93.88375652,2633,198
Calaveras,California,38.20537103,-120.552913,15,0
Calcasieu,Louisiana,30.22931235,-93.35400434,613,49
Caldwell,Missouri,39.65620858,-93.98308093,6,0
Caldwell,Kentucky,37.14749129,-87.86948214,12,0
Caldwell,Louisiana,32.0902519,-92.11752148,61,0
Caldwell,Texas,29.83668859,-97.61814775,73,0
Caldwell,North Carolina,35.95204977,-81.54799522,161,3
Caledonia,Vermont,44.46548598,-72.10314651,16,0
Calhoun,Illinois,39.16840183,-90.66330078,1,0
Calhoun,West Virginia,38.84315422,-81.11934872,2,0
Calhoun,Iowa,42.38521079,-94.64046046,4,0
Calhoun,South Carolina,33.66926881,-80.77722168,15,1
Calhoun,Texas,28.47048236,-96.61633945,37,3
Calhoun,Florida,30.40666734,-85.19394153,62,4
Calhoun,Mississippi,33.93683395,-89.33686647,67,4
Calhoun,Georgia,31.53169785,-84.62725131,135,7
Calhoun,Alabama,33.77483727,-85.82630386,165,3
Calhoun,Michigan,42.24633834,-85.00493569,392,23
Callahan,Texas,32.29760619,-99.37326312,9,1
Callaway,Missouri,38.83674754,-91.92186505,30,1
Calloway,Kentucky,36.62093411,-88.2731593,53,1
Calumet,Wisconsin,44.0816316,-88.21780273,79,1
Calvert,Maryland,38.53961642,-76.56820632,348,20
Camas,Idaho,43.46665742,-114.8065892,1,0
Cambria,Pennsylvania,40.49527404,-78.71377428,59,2
Camden,North Carolina,36.33804939,-76.15568396,3,0
Camden,Missouri,38.02199522,-92.76083747,38,1
Camden,Georgia,30.92951916,-81.66601818,66,1
Camden,New Jersey,39.80343818,-74.96388753,6645,346
Cameron,Pennsylvania,41.43625568,-78.20376845,2,0
Cameron,Louisiana,29.87592238,-93.19310676,6,0
Cameron,Texas,26.14524221,-97.48140372,799,36
Camp,Texas,32.97195142,-94.97790104,84,0
Campbell,Tennessee,36.40355516,-84.1510856,18,1
Campbell,Virginia,37.20553386,-79.09678609,18,1
Campbell,Wyoming,44.24886082,-105.5474404,31,0
Campbell,Kentucky,38.94384345,-84.37875208,191,12
Canadian,Oklahoma,35.5426055,-97.98465569,133,3
Candler,Georgia,32.40209349,-82.07702563,14,0
Cannon,Tennessee,35.80990797,-86.05738983,32,0
Canyon,Idaho,43.61970148,-116.7095499,310,6
Cape Girardeau,Missouri,37.38489388,-89.6843587,76,2
Cape May,New Jersey,39.15008829,-74.80170244,629,50
Carbon,Montana,45.22850116,-109.0274047,6,0
Carbon,Wyoming,41.69357844,-106.9326084,16,0
Carbon,Pennsylvania,40.91545395,-75.7068525,239,24
Caribou,Idaho,42.77149116,-111.5597683,1,0
Carlisle,Kentucky,36.85372876,-88.9669222,5,1
Carlton,Minnesota,46.59180601,-92.67601019,75,0
Caroline,Virginia,38.02679129,-77.34901405,76,2
Caroline,Maryland,38.87172293,-75.82904158,265,1
Carroll,Missouri,39.42762566,-93.50626255,8,0
Carroll,Iowa,42.03617207,-94.86032705,13,0
Carroll,Kentucky,38.66599534,-85.12601074,14,0
Carroll,Illinois,42.06823429,-89.93395545,15,2
Carroll,Tennessee,35.97366108,-88.45189331,28,1
Carroll,Arkansas,36.3403856,-93.54270261,29,1
Carroll,Ohio,40.5789686,-81.09178213,31,3
Carroll,New Hampshire,43.87498583,-71.20430216,48,0
Carroll,Indiana,40.5807832,-86.56198812,93,3
Carroll,Virginia,36.73066666,-80.73455942,105,1
Carroll,Mississippi,33.44834567,-89.91994479,116,11
Carroll,Georgia,33.58138199,-85.07976677,535,26
Carroll,Maryland,39.56453592,-77.02373735,940,96
Carson,Texas,35.40365929,-101.3542669,6,0
Carson City,Nevada,39.15509045,-119.7480219,99,4
Carter,Missouri,36.94160441,-90.96051322,5,1
Carter,Kentucky,38.31690743,-83.05092385,14,0
Carter,Tennessee,36.28969086,-82.12588974,19,1
Carter,Oklahoma,34.25103751,-97.28552485,45,1
Carteret,North Carolina,34.8932941,-76.54120135,37,9
Carver,Minnesota,44.82017001,-93.8009918,224,2
Cascade,Montana,47.30797024,-111.3467922,17,2
Casey,Kentucky,37.32533118,-84.92726209,5,0
Cass,Iowa,41.33149454,-94.92792482,12,0
Cass,Minnesota,46.95043611,-94.32603968,12,2
Cass,Texas,33.07499881,-94.34646905,30,1
Cass,Nebraska,40.90899107,-96.13971217,53,0
Cass,Illinois,39.96991073,-90.24734436,74,0
Cass,Michigan,41.91522292,-85.99405727,84,3
Cass,Missouri,38.64789422,-94.353399,97,8
Cass,Indiana,40.76135835,-86.34830753,1592,7
Cass,North Dakota,46.93201724,-97.2444719,1783,55
Cassia,Idaho,42.28347888,-113.6012409,85,1
Castro,Texas,34.53016752,-102.2617243,33,1
Caswell,North Carolina,36.39312665,-79.33353281,94,1
Catahoula,Louisiana,31.66778967,-91.84526385,117,3
Catawba,North Carolina,35.66211129,-81.2132617,255,9
Catoosa,Georgia,34.89872298,-85.13757014,145,0
Catron,New Mexico,33.91514144,-108.4046587,2,1
Cattaraugus,New York,42.24778241,-78.67923096,90,0
Cayuga,New York,42.91261714,-76.55731592,96,1
Cecil,Maryland,39.56647682,-75.94627411,381,24
Cedar,Nebraska,42.5988851,-97.25311951,8,0
Cedar,Missouri,37.72391475,-93.85445441,9,0
Cedar,Iowa,41.77233777,-91.13246684,49,1
Central Utah,Utah,39.37231946,-111.5758676,39,0
Centre,Pennsylvania,40.92058903,-77.82200624,154,7
Cerro Gordo,Iowa,43.08177563,-93.2612239,30,1
Chaffee,Colorado,38.74745778,-106.1926573,76,20
Chambers,Texas,29.70972016,-94.67154501,69,0
Chambers,Alabama,32.91360079,-85.39072749,359,26
Champaign,Ohio,40.13923427,-83.76875242,28,1
Champaign,Illinois,40.13919438,-88.20046615,661,7
Chariton,Missouri,39.51499357,-92.9629191,6,0
Charles,Maryland,38.51092331,-76.98580666,1152,75
Charles City,Virginia,37.35358063,-77.05634116,27,2
Charles Mix,South Dakota,43.20660134,-98.58856175,18,0
Charleston,South Carolina,32.82487866,-79.96512315,646,12
Charlevoix,Michigan,45.37790017,-85.19614053,15,1
Charlotte,Virginia,37.01909701,-78.66314092,27,0
Charlotte,Florida,26.90131002,-81.92949121,470,68
Charlottesville,Virginia,38.03527919,-78.48569588,128,3
Charlton,Georgia,30.78371028,-82.13951596,33,1
Chase,Nebraska,40.5237198,-101.6978026,1,0
Chase,Kansas,38.30292938,-96.59563862,4,0
Chatham,Georgia,32.00043026,-81.12489526,522,26
Chatham,North Carolina,35.70394416,-79.25541492,660,27
Chattahoochee,Georgia,32.34341231,-84.78809239,160,0
Chattooga,Georgia,34.47197698,-85.34535662,25,2
Chautauqua,Kansas,37.14994405,-96.2454192,4,0
Chautauqua,New York,42.2276921,-79.36691763,89,4
Chaves,New Mexico,33.36406072,-104.4665365,50,2
Cheatham,Tennessee,36.26136216,-87.08903581,135,0
Cheboygan,Michigan,45.44787015,-84.50122149,21,1
Chelan,Washington,47.87046092,-120.6173956,254,6
Chemung,New York,42.13891056,-76.7638805,137,1
Chenango,New York,42.49430041,-75.60887553,133,0
Cherokee,Kansas,37.16928494,-94.8462897,10,0
Cherokee,North Carolina,35.1349263,-84.05970864,30,1
Cherokee,Oklahoma,35.90692775,-94.99980896,31,1
Cherokee,Iowa,42.73538914,-95.62389402,36,0
Cherokee,Alabama,34.17805983,-85.60638968,38,3
Cherokee,South Carolina,35.05122251,-81.61828622,43,2
Cherokee,Texas,31.837258,-95.16559897,47,2
Cherokee,Georgia,34.24393976,-84.47431861,923,33
Cherry,Nebraska,42.54502621,-101.1244332,1,0
Chesapeake,Virginia,36.67670048,-76.30545744,548,15
Cheshire,New Hampshire,42.92015988,-72.25311043,57,2
Chester,Tennessee,35.42527478,-88.6095842,12,0
Chester,South Carolina,34.69249168,-81.1583216,87,1
Chester,Pennsylvania,39.97291773,-75.74768357,2863,287
Chesterfield,South Carolina,34.64137396,-80.1564014,203,4
Chesterfield,Virginia,37.37373208,-77.5868014,1661,37
Cheyenne,Kansas,39.78580976,-101.7318201,2,0
Cheyenne,Colorado,38.82777431,-102.6032558,5,0
Cheyenne,Nebraska,41.21999357,-102.9941693,9,0
Chickasaw,Iowa,43.06001295,-92.31773347,12,0
Chickasaw,Mississippi,33.91983202,-88.9481545,140,14
Chicot,Arkansas,33.26458973,-91.29539209,16,0
Childress,Texas,34.5293041,-100.2077916,2,0
Chilton,Alabama,32.85044126,-86.7173256,105,1
Chippewa,Michigan,46.29552653,-84.54353449,2,0
Chippewa,Minnesota,45.02343421,-95.56403693,51,1
Chippewa,Wisconsin,45.06939744,-91.28068855,58,0
Chisago,Minnesota,45.5021011,-92.90861945,64,1
Chittenden,Vermont,44.46322849,-73.08359212,457,39
Choctaw,Mississippi,33.34598242,-89.24809382,48,2
Choctaw,Oklahoma,34.02807439,-95.54771129,87,1
Choctaw,Alabama,32.02227341,-88.2656443,153,10
Chowan,North Carolina,36.12908077,-76.60118385,17,0
Christian,Missouri,36.9711783,-93.18537118,27,0
Christian,Illinois,39.54581621,-89.27780482,35,4
Christian,Kentucky,36.89267803,-87.49055367,114,3
Churchill,Nevada,39.58105744,-118.3394607,8,1
Cibola,New Mexico,34.91131525,-107.998876,147,6
Cimarron,Oklahoma,36.74817177,-102.5173885,1,0
Citrus,Florida,28.84804315,-82.47614748,122,12
Clackamas,Oregon,45.18787398,-122.2179634,324,12
Claiborne,Tennessee,36.48319149,-83.65947309,12,0
Claiborne,Louisiana,32.82308512,-92.99526883,66,10
Claiborne,Mississippi,31.97061673,-90.90702196,114,5
Clallam,Washington,48.04754642,-123.9226319,27,0
Clare,Michigan,43.98794227,-84.8481986,19,2
Clarendon,South Carolina,33.66610974,-80.21647898,302,39
Clarion,Pennsylvania,41.19265812,-79.42413524,27,2
Clark,Missouri,40.41040752,-91.73661677,1,0
Clark,South Dakota,44.85834507,-97.72925109,4,0
Clark,Illinois,39.33425789,-87.78705622,11,0
Clark,Kansas,37.23577007,-99.81883015,33,1
Clark,Wisconsin,44.73483377,-90.61207486,35,4
Clark,Arkansas,34.04613432,-93.17484713,41,0
Clark,Kentucky,37.9689263,-84.14615986,43,0
Clark,Ohio,39.91592258,-83.78498252,306,7
Clark,Indiana,38.48015445,-85.70510334,528,41
Clark,Washington,45.77568046,-122.4829204,550,22
Clark,Nevada,36.21458855,-115.0130241,6923,355
Clarke,Virginia,39.11271747,-77.99199425,29,0
Clarke,Iowa,41.02868181,-93.78499767,64,0
Clarke,Alabama,31.68099859,-87.83548597,149,2
Clarke,Mississippi,32.04158545,-88.6889622,155,19
Clarke,Georgia,33.95436462,-83.37124007,296,14
Clatsop,Oregon,45.99712889,-123.660711,45,0
Clay,Illinois,38.75388572,-88.48914513,2,0
Clay,Texas,33.78686685,-98.20771198,4,0
Clay,Arkansas,36.36826212,-90.4148172,5,0
Clay,Kansas,39.34948772,-97.16518128,5,2
Clay,West Virginia,38.46231092,-81.07652217,6,0
Clay,Kentucky,37.16451126,-83.712575,7,1
Clay,North Carolina,35.05704275,-83.74353633,8,0
Clay,Tennessee,36.55151008,-85.53930419,8,0
Clay,South Dakota,42.91296147,-96.97656917,15,0
Clay,Iowa,43.08247182,-95.15096481,21,0
Clay,Nebraska,40.52439441,-98.05126296,24,0
Clay,Alabama,33.26984193,-85.85836077,28,2
Clay,Georgia,31.62221166,-84.97713865,41,2
Clay,Indiana,39.39561833,-87.11723506,52,2
Clay,Mississippi,33.65358105,-88.77784255,118,4
Clay,Missouri,39.31132056,-94.41850862,177,3
Clay,Florida,29.98319144,-81.85609986,390,33
Clay,Minnesota,46.89289518,-96.48761922,435,29
Clayton,Iowa,42.84443388,-91.34133693,34,3
Clayton,Georgia,33.54187245,-84.35594188,1260,51
Clear Creek,Colorado,39.68864463,-105.6463118,17,1
Clearfield,Pennsylvania,41.00110782,-78.47592663,42,0
Clearwater,Minnesota,47.57992111,-95.37790562,3,0
Cleburne,Alabama,33.67679204,-85.52005899,15,1
Cleburne,Arkansas,35.53864922,-92.02640019,76,4
Clermont,Ohio,39.04847534,-84.15375786,216,5
Cleveland,Arkansas,33.89723187,-92.18537045,19,0
Cleveland,North Carolina,35.33553364,-81.55204486,109,2
Cleveland,Oklahoma,35.20413532,-97.32519562,511,37
Clinch,Georgia,30.91395822,-82.70432472,59,2
Clinton,Kentucky,36.72581156,-85.13377529,4,0
Clinton,Missouri,39.6013098,-94.40465394,18,0
Clinton,Ohio,39.41485808,-83.80852286,45,1
Clinton,Pennsylvania,41.23255967,-77.63785995,60,3
Clinton,Iowa,41.89981633,-90.53275096,65,1
Clinton,New York,44.74530905,-73.67875352,97,4
Clinton,Michigan,42.94400871,-84.60145248,141,11
Clinton,Illinois,38.60704876,-89.42385254,188,17
Clinton,Indiana,40.30319754,-86.47277257,240,1
Cloud,Kansas,39.48028352,-97.64925343,5,0
Coahoma,Mississippi,34.22772299,-90.60415045,128,4
Coal,Oklahoma,34.58840127,-96.29798747,3,0
Cobb,Georgia,33.94243204,-84.5761255,3097,186
Cochise,Arizona,31.87934684,-109.7516088,94,5
Cochran,Texas,33.60425307,-102.8284499,1,0
Cocke,Tennessee,35.9278914,-83.11828725,21,0
Coconino,Arizona,35.83883429,-111.7707178,1186,85
Codington,South Dakota,44.97788119,-97.18827677,38,0
Coffee,Tennessee,35.49090731,-86.07311784,74,0
Coffee,Alabama,31.39932826,-85.98901039,239,1
Coffee,Georgia,31.54892966,-82.8549206,285,15
Coffey,Kansas,38.2365018,-95.73379515,50,8
Coke,Texas,31.88911733,-100.5297533,1,0
Colbert,Alabama,34.69847452,-87.80168544,187,2
Cole,Missouri,38.50455671,-92.27860244,61,1
Coleman,Texas,31.76736834,-99.45240766,4,0
Coles,Illinois,39.51949084,-88.22358557,128,16
Colfax,New Mexico,36.60569702,-104.6472674,5,0
Colfax,Nebraska,41.57486951,-97.0868542,624,2
Colleton,South Carolina,32.87582989,-80.67641292,114,14
Collier,Florida,26.11091986,-81.34687065,1679,49
Collin,Texas,33.18820114,-96.57264368,1346,34
Collingsworth,Texas,34.96489496,-100.2700111,5,0
Colonial Heights,Virginia,37.26420587,-77.39609676,96,17
Colorado,Texas,29.622098,-96.5273805,23,0
Colquitt,Georgia,31.18810588,-83.7677946,488,15
Columbia,Washington,46.29442881,-117.9051983,1,0
Columbia,Oregon,45.94464254,-123.0890898,16,0
Columbia,Arkansas,33.21230701,-93.22642793,22,2
Columbia,Wisconsin,43.46492199,-89.33589004,44,1
Columbia,Florida,30.22509788,-82.62160164,153,2
Columbia,Georgia,33.54534185,-82.263524,266,8
Columbia,Pennsylvania,41.04821986,-76.40565017,349,31
Columbia,New York,42.24819348,-73.63089095,399,34
Columbiana,Ohio,40.76932373,-80.78094576,889,52
Columbus,North Carolina,34.26744084,-78.65801424,349,27
Colusa,California,39.17881957,-122.2331726,7,0
Comal,Texas,29.80811278,-98.27647225,108,7
Comanche,Kansas,37.1911452,-99.27113247,2,0
Comanche,Texas,31.94854689,-98.55876441,12,1
Comanche,Oklahoma,34.65973764,-98.47195055,290,3
Concho,Texas,31.32635934,-99.86473038,1,0
Concordia,Louisiana,31.44817835,-91.63814433,94,5
Conecuh,Alabama,31.43401703,-86.99320044,41,1
Conejos,Colorado,37.201606,-106.1917488,2,0
Contra Costa,California,37.91923498,-121.9289527,1513,38
Converse,Wyoming,42.97272268,-105.5081848,24,0
Conway,Arkansas,35.26205537,-92.70506566,14,1
Cook,Georgia,31.16068491,-83.42947229,45,2
Cook,Illinois,41.84144849,-87.81658794,80204,3780
Cooke,Texas,33.63979567,-97.21240912,18,0
Cooper,Missouri,38.844478,-92.80896081,9,0
Coos,New Hampshire,44.69063265,-71.30633239,5,0
Coos,Oregon,43.17406868,-124.0594514,31,0
Coosa,Alabama,32.93690146,-86.24847739,40,1
Copiah,Mississippi,31.86977774,-90.44565118,325,4
Corson,South Dakota,45.70889983,-101.1970473,4,0
Cortland,New York,42.59509207,-76.07048931,41,0
Coryell,Texas,31.39078397,-97.79936155,289,2
Coshocton,Ohio,40.30096166,-81.91729018,40,0
Costilla,Colorado,37.27732493,-105.4276548,6,0
Cottle,Texas,34.07783319,-100.2785062,4,1
Cotton,Oklahoma,34.28845626,-98.37053567,5,2
Cottonwood,Minnesota,44.00715262,-95.18138802,77,0
Covington,Virginia,37.7824656,-79.98631446,4,0
Covington,Alabama,31.2477854,-86.45050893,81,1
Covington,Mississippi,31.63225413,-89.55389939,177,2
Coweta,Georgia,33.35334302,-84.76129976,432,9
Cowley,Kansas,37.23781842,-96.83776647,15,1
Cowlitz,Washington,46.19074721,-122.6782231,76,0
Craig,Virginia,37.48133648,-80.21072274,5,0
Craig,Oklahoma,36.76268118,-95.20916602,15,0
Craighead,Arkansas,35.83018283,-90.63235729,257,0
Crane,Texas,31.43052248,-102.5143314,25,5
Craven,North Carolina,35.11833364,-77.08398081,210,5
Crawford,Kansas,37.50675523,-94.85245778,8,1
Crawford,Missouri,37.97663738,-91.30528104,9,0
Crawford,Illinois,39.0032229,-87.75954624,12,0
Crawford,Indiana,38.28814402,-86.44518825,24,0
Crawford,Wisconsin,43.23870316,-90.93073686,26,0
Crawford,Georgia,32.71391813,-83.98061238,28,0
Crawford,Pennsylvania,41.68447709,-80.10760592,29,0
Crawford,Arkansas,35.58928601,-94.2446814,34,0
Crawford,Michigan,44.68255561,-84.61006219,58,5
Crawford,Ohio,40.85065156,-82.91989099,117,4
Crawford,Iowa,42.03718237,-95.3819718,542,2
Creek,Oklahoma,35.90230551,-96.37086028,97,7
Crenshaw,Alabama,31.72941803,-86.31593104,78,3
Crisp,Georgia,31.92289565,-83.76811843,237,7
Crittenden,Kentucky,37.35839237,-88.0882609,7,1
Crittenden,Arkansas,35.21247318,-90.30839406,413,9
Crockett,Tennessee,35.81830662,-89.14916269,16,2
Crook,Wyoming,44.58855102,-104.5697705,5,0
Crook,Oregon,44.14230227,-120.356297,6,0
Crosby,Texas,33.61431553,-101.3000364,3,1
Cross,Arkansas,35.29631396,-90.77185818,56,0
Crow Wing,Minnesota,46.48096553,-94.06755609,75,4
Crowley,Colorado,38.32608609,-103.7844965,64,1
Cullman,Alabama,34.13020303,-86.86888037,150,1
Culpeper,Virginia,38.48199985,-77.9563087,727,8
Cumberland,Kentucky,36.78926125,-85.39050034,5,0
Cumberland,Illinois,39.27432424,-88.2401158,10,0
Cumberland,Virginia,37.51328851,-78.24398086,39,0
Cumberland,Tennessee,35.95271721,-84.99840585,119,1
Cumberland,Pennsylvania,40.1625372,-77.26130755,654,53
Cumberland,North Carolina,35.04762133,-78.82623165,721,25
Cumberland,Maine,43.8370751,-70.37226999,1226,54
Cumberland,New Jersey,39.37199394,-75.10712559,2431,79
Cuming,Nebraska,41.91637624,-96.78730772,34,0
Currituck,North Carolina,36.36123664,-75.95876401,14,0
Curry,Oregon,42.45911325,-124.157282,7,0
Curry,New Mexico,34.57421077,-103.3468876,56,0
Custer,Colorado,38.10883162,-105.3683478,2,0
Custer,Idaho,44.24186819,-114.2855494,2,0
Custer,Oklahoma,35.63853802,-99.00170785,30,0
Custer,Nebraska,41.39374521,-99.72805369,31,4
Cuyahoga,Ohio,41.424119,-81.65918339,4669,247
Dade,Georgia,34.8549167,-85.50490424,39,1
Dakota,Minnesota,44.67172617,-93.06299363,1388,59
Dakota,Nebraska,42.39040144,-96.56656425,1684,15
Dale,Alabama,31.43037123,-85.61095742,123,0
Dallam,Texas,36.27787176,-102.6020725,27,1
Dallas,Arkansas,33.97042763,-92.65167437,3,0
Dallas,Missouri,37.6811355,-93.02127031,3,0
Dallas,Alabama,32.32688101,-87.1086671,287,3
Dallas,Iowa,41.68560356,-94.04127625,929,24
Dallas,Texas,32.76670599,-96.7779605,10958,249
Dane,Wisconsin,43.06601594,-89.41733797,773,29
Danville,Virginia,36.58022376,-79.40395668,58,2
Dare,North Carolina,35.66520691,-75.71767334,22,3
Darke,Ohio,40.13412966,-84.6194517,184,23
Darlington,South Carolina,34.33358335,-79.96027485,308,10
Dauphin,Pennsylvania,40.41377078,-76.77993242,1385,85
Davidson,North Carolina,35.79115496,-80.21256572,446,13
Davidson,Tennessee,36.17007426,-86.78646056,5429,65
Davie,North Carolina,35.93099927,-80.54496571,105,2
Daviess,Missouri,39.96145298,-93.98519678,4,0
Daviess,Indiana,38.70186039,-87.07185406,95,16
Daviess,Kentucky,37.73028906,-87.0901948,330,6
Davis,Iowa,40.74773536,-92.41005468,27,0
Davis,Utah,40.99001837,-112.1139997,494,2
Davison,South Dakota,43.67490933,-98.14458906,20,0
Dawes,Nebraska,42.71985036,-103.1313774,1,0
Dawson,Texas,32.74255572,-101.9477242,43,1
Dawson,Georgia,34.44244079,-84.16964071,110,1
Dawson,Nebraska,40.87028216,-99.8201461,840,7
Day,South Dakota,45.367281,-97.60737498,13,0
De Soto,Louisiana,32.05457447,-93.74130302,250,17
De Witt,Illinois,40.17514519,-88.90959682,4,0
Deaf Smith,Texas,34.96522957,-102.6054267,166,13
Dearborn,Indiana,39.14647946,-84.97333539,170,21
Decatur,Iowa,40.73742757,-93.78645949,1,0
Decatur,Tennessee,35.60048904,-88.11043779,5,0
Decatur,Georgia,30.87967778,-84.57619536,206,5
Decatur,Indiana,39.30712658,-85.50087166,230,31
Deer Lodge,Montana,46.05953325,-113.073353,3,0
Defiance,Ohio,41.32398837,-84.49076944,34,2
DeKalb,Missouri,39.89201062,-94.40476508,6,0
DeKalb,Tennessee,35.97616272,-85.83689361,38,0
DeKalb,Indiana,41.39804622,-84.99906934,43,1
DeKalb,Alabama,34.45946862,-85.80782906,257,3
DeKalb,Illinois,41.89373302,-88.76958483,435,6
DeKalb,Georgia,33.76944049,-84.22396017,3874,122
Del Norte,California,41.74228275,-123.8974063,47,0
Delaware,Iowa,42.47104597,-91.3664492,19,1
Delaware,New York,42.19837623,-74.96709306,82,4
Delaware,Oklahoma,36.40823634,-94.80325046,100,16
Delaware,Ohio,40.27942393,-83.00457058,344,14
Delaware,Indiana,40.22787247,-85.39732772,387,40
Delaware,Pennsylvania,39.91680171,-75.40243663,6548,576
Delta,Texas,33.38570922,-95.66921122,2,0
Delta,Michigan,45.9048491,-86.9080745,17,2
Delta,Colorado,38.86246243,-107.8631342,72,1
Denton,Texas,33.20521901,-97.11691153,1416,32
Denver,Colorado,39.76018276,-104.8725695,5917,334
Des Moines,Iowa,40.92012606,-91.18326592,66,1
Deschutes,Oregon,43.91570171,-121.2289121,128,0
Desha,Arkansas,33.83011025,-91.25500948,19,0
DeSoto,Florida,27.18677893,-81.80941373,205,7
DeSoto,Mississippi,34.87625235,-89.99091418,559,8
Deuel,South Dakota,44.75994309,-96.66943645,1,0
Dewey,South Dakota,45.15639647,-100.8709139,1,0
Dewey,Oklahoma,35.98772922,-99.00730714,3,0
DeWitt,Texas,29.08101855,-97.3568117,17,1
Dickens,Texas,33.61616822,-100.7788855,1,0
Dickey,North Dakota,46.11017712,-98.5049008,1,0
Dickinson,Kansas,38.86600962,-97.15532383,4,0
Dickinson,Michigan,46.00999672,-87.86961634,5,2
Dickinson,Iowa,43.37787725,-95.1510206,27,0
Dickson,Tennessee,36.14669837,-87.35891709,118,0
Dillon,South Carolina,34.39007791,-79.37741872,170,3
Dimmit,Texas,28.42270064,-99.75645095,1,0
Dinwiddie,Virginia,37.07544585,-77.63451754,84,0
Divide,North Dakota,48.8149387,-103.4873611,1,0
Dixie,Florida,29.60631086,-83.15724673,55,2
Dixon,Nebraska,42.49188363,-96.86782408,29,0
Dodge,Georgia,32.17265114,-83.16948926,52,2
Dodge,Minnesota,44.02238415,-92.86244324,53,0
Dodge,Wisconsin,43.41576662,-88.70928178,383,3
Dodge,Nebraska,41.58071748,-96.65598179,503,1
Dona Ana,New Mexico,32.35275771,-106.8329387,488,3
Doniphan,Kansas,39.79067154,-95.14056866,18,0
Donley,Texas,34.96517499,-100.8140093,26,0
Dooly,Georgia,32.15630737,-83.79746561,185,12
Door,Wisconsin,44.95856458,-87.30002707,38,3
Dorchester,Maryland,38.45413522,-76.02752426,147,3
Dorchester,South Carolina,33.0794369,-80.40502652,165,3
Dougherty,Georgia,31.53328528,-84.21722377,1790,149
Douglas,South Dakota,43.38520741,-98.36978007,3,0
Douglas,Wisconsin,46.43222285,-91.91595768,19,0
Douglas,Illinois,39.76768052,-88.21854195,28,0
Douglas,Oregon,43.27941273,-123.167291,28,0
Douglas,Nevada,38.912862,-119.6171333,35,0
Douglas,Minnesota,45.93348491,-95.45335469,44,0
Douglas,Kansas,38.88503636,-95.2925121,67,0
Douglas,Washington,47.7361335,-119.692937,172,3
Douglas,Georgia,33.70291126,-84.77026156,556,25
Douglas,Colorado,39.33133796,-104.930001,733,46
Douglas,Nebraska,41.29518299,-96.15085305,4640,23
Drew,Arkansas,33.59035001,-91.71777921,20,1
Dubois,Indiana,38.36597551,-86.8792417,205,3
Dubuque,Iowa,42.46815349,-90.88181925,351,21
Dukes and Nantucket,Massachusetts,41.40674725,-70.68763497,54,1
Dunklin,Missouri,36.27167174,-90.09122243,45,2
Dunn,North Dakota,47.35423935,-102.6160468,11,0
Dunn,Wisconsin,44.94562799,-91.8962481,25,0
DuPage,Illinois,41.85116968,-88.08642662,7891,383
Duplin,North Carolina,34.93449805,-77.93140529,890,20
Durham,North Carolina,36.03638492,-78.87608331,1828,49
Dutchess,New York,41.7648606,-73.74356679,3951,142
Duval,Texas,27.68184592,-98.50864568,5,0
Duval,Florida,30.33225875,-81.66976468,1669,51
Dyer,Tennessee,36.05931946,-89.41542855,57,0
Eagle,Colorado,39.62754308,-106.6933637,599,8
Early,Georgia,31.32155345,-84.90255207,247,32
East Baton Rouge,Louisiana,30.53842039,-91.09777565,3773,242
East Carroll,Louisiana,32.73926954,-91.23425694,165,0
East Feliciana,Louisiana,30.84425359,-91.04976723,198,30
Eastland,Texas,32.32743996,-98.83243566,7,0
Eaton,Michigan,42.59599185,-84.83740035,192,6
Eau Claire,Wisconsin,44.726614,-91.28609183,114,0
Echols,Georgia,30.71101099,-82.89687287,125,0
Ector,Texas,31.86898877,-102.5429428,167,5
Eddy,North Dakota,47.71701474,-98.90432337,4,0
Eddy,New Mexico,32.47167456,-104.3053527,23,1
Edgar,Illinois,39.6809186,-87.74759563,1,0
Edgecombe,North Carolina,35.91230639,-77.59436892,210,9
Edgefield,South Carolina,33.77221995,-81.96231108,51,2
Edmonson,Kentucky,37.21218923,-86.23955613,57,11
Edmunds,South Dakota,45.41846445,-99.21545423,3,0
Edwards,Illinois,38.41353228,-88.05720863,2,0
Edwards,Kansas,37.88735543,-99.31263309,5,0
Effingham,Illinois,39.05935711,-88.58969584,7,1
Effingham,Georgia,32.36616021,-81.34280942,75,1
El Dorado,California,38.77965956,-120.5233166,96,0
El Paso,Colorado,38.83240149,-104.5251411,1778,96
El Paso,Texas,31.76980765,-106.2363275,2872,88
Elbert,Colorado,39.28656773,-104.1358721,53,2
Elbert,Georgia,34.11302332,-82.83936148,75,0
Elk,Pennsylvania,41.42822061,-78.64524744,6,0
Elkhart,Indiana,41.59761169,-85.85875695,1435,29
Elko,Nevada,41.14531606,-115.3577619,26,1
Elliott,Kentucky,38.11624059,-83.09771563,1,0
Ellis,Kansas,38.91458712,-99.31751551,9,0
Ellis,Texas,32.34894117,-96.79371841,335,15
Ellsworth,Kansas,38.69677695,-98.20462799,2,0
Elmore,Idaho,43.3507101,-115.4701578,31,2
Elmore,Alabama,32.59785413,-86.14415284,372,9
Emanuel,Georgia,32.59221302,-82.30239915,28,2
Emmet,Iowa,43.37782951,-94.67858943,19,0
Emmet,Michigan,45.52625509,-84.89083249,21,2
Emmons,North Dakota,46.28398398,-100.2389766,4,1
Emporia,Virginia,36.69455571,-77.53406129,86,6
Erath,Texas,32.23602653,-98.21773417,17,1
Erie,Ohio,41.36796058,-82.62904521,182,16
Erie,Pennsylvania,41.99253829,-80.03301954,314,5
Erie,New York,42.76249024,-78.73063652,6234,524
Escambia,Alabama,31.1256789,-87.15918694,75,3
Escambia,Florida,30.67652764,-87.37284571,853,35
Essex,Vermont,44.72736416,-71.73579864,3,0
Essex,New York,44.11630765,-73.77297842,38,0
Essex,Virginia,37.93357639,-76.94230311,48,0
Essex,Massachusetts,42.6687626,-70.94687179,14857,979
Essex,New Jersey,40.78681335,-74.24657979,17813,1687
Estill,Kentucky,37.69241417,-83.95956369,1,0
Etowah,Alabama,34.04567266,-86.04051873,262,12
Evangeline,Louisiana,30.72985248,-92.39915924,81,1
Evans,Georgia,32.15328841,-81.8870105,5,0
Fairbanks North Star,Alaska,64.80726247,-146.5692662,85,2
Fairfax,Virginia,38.83677558,-77.27565836,11596,396
Fairfax City,Virginia,38.85157547,-77.2977964,67,6
Fairfield,South Carolina,34.39287073,-81.1195624,181,17
Fairfield,Ohio,39.75107189,-82.63088163,310,8
Fairfield,Connecticut,41.26809896,-73.3881171,15789,1289
Fall River,South Dakota,43.23929297,-103.5275691,6,0
Falls,Texas,31.25350609,-96.93630086,9,0
Falls Church,Virginia,38.88485255,-77.17560759,55,8
Fannin,Texas,33.59564294,-96.10751083,41,2
Fannin,Georgia,34.86430205,-84.316964,49,1
Faribault,Minnesota,43.67381499,-93.94787458,20,0
Faulk,South Dakota,45.07082625,-99.14535601,1,0
Faulkner,Arkansas,35.14719007,-92.33717519,106,3
Fauquier,Virginia,38.73564842,-77.80647472,329,6
Fayette,Alabama,33.72076938,-87.73886638,16,0
Fayette,Illinois,39.00072038,-89.02452658,21,3
Fayette,Iowa,42.86271799,-91.8441231,27,0
Fayette,Texas,29.87788372,-96.92076062,36,2
Fayette,Ohio,39.56021306,-83.4562016,40,0
Fayette,West Virginia,38.02974928,-81.08286634,52,4
Fayette,Indiana,39.63684962,-85.17797541,79,7
Fayette,Pennsylvania,39.92041012,-79.64291195,95,4
Fayette,Tennessee,35.19615831,-89.41399032,125,2
Fayette,Georgia,33.41357794,-84.49089434,239,13
Fayette,Kentucky,38.0368225,-84.45576892,803,13
Federal Correctional Institution (FCI),Michigan,,,149,4
Fentress,Tennessee,36.38128818,-84.92870012,12,0
Ferry,Washington,48.4711431,-118.5154041,1,0
Fillmore,Nebraska,40.52458567,-97.59646937,7,0
Fillmore,Minnesota,43.67394126,-92.08980382,17,1
Finney,Kansas,38.04340344,-100.7381938,1518,10
Fisher,Texas,32.74281316,-100.4019302,2,1
Flagler,Florida,29.45933576,-81.31508595,191,4
Flathead,Montana,48.29575866,-114.0520569,37,2
Fleming,Kentucky,38.36758311,-83.69657514,2,0
Florence,Wisconsin,45.84963535,-88.39804137,2,0
Florence,South Carolina,34.02361754,-79.70189312,678,38
Floyd,Virginia,36.9302126,-80.36738849,7,0
Floyd,Texas,34.07227468,-101.3031546,15,0
Floyd,Kentucky,37.56213922,-82.74750924,17,0
Floyd,Iowa,43.0600053,-92.78940097,19,1
Floyd,Georgia,34.26268279,-85.21577392,281,15
Floyd,Indiana,38.32117957,-85.90385377,321,40
Fluvanna,Virginia,37.84157909,-78.27715475,92,6
Fond du Lac,Wisconsin,43.75354908,-88.48885325,221,5
Ford,Illinois,40.59706922,-88.22350769,20,1
Ford,Kansas,37.69200114,-99.88825298,1794,8
Forest,Pennsylvania,41.51095103,-79.23229292,7,0
Forest,Wisconsin,45.66678019,-88.77084892,28,2
Forrest,Mississippi,31.18961454,-89.25832496,592,39
Forsyth,Georgia,34.22604035,-84.1231513,534,12
Forsyth,North Carolina,36.12859861,-80.25459052,1517,14
Fort Bend,Texas,29.52704478,-95.77219463,1916,45
Foster,North Dakota,47.4571084,-98.88279923,1,0
Fountain,Indiana,40.12361933,-87.24217689,22,2
Franklin,Florida,29.83791238,-84.82731662,2,0
Franklin,Arkansas,35.51202821,-93.89299569,4,0
Franklin,Nebraska,40.17636348,-98.95299073,6,0
Franklin,Idaho,42.18332217,-111.8149666,9,0
Franklin,Illinois,37.99189086,-88.92567818,12,0
Franklin,Iowa,42.73270384,-93.26256925,15,0
Franklin,Texas,33.17653242,-95.21917243,17,0
Franklin,New York,44.59040891,-74.29926032,23,0
Franklin,Mississippi,31.47786634,-90.89672989,29,2
Franklin,Kansas,38.56443815,-95.28644341,35,0
Franklin,Maine,44.97330019,-70.44381045,36,1
Franklin,Virginia,36.99536167,-79.88023649,36,1
Franklin,Tennessee,35.15634626,-86.09201039,54,1
Franklin,Kentucky,38.2379395,-84.87962551,63,0
Franklin,Vermont,44.85627605,-72.91249563,99,5
Franklin,Georgia,34.37525597,-83.23159927,105,1
Franklin,Indiana,39.4142482,-85.06062647,115,8
Franklin,Missouri,38.41127108,-91.07522826,143,17
Franklin,North Carolina,36.081519,-78.28708884,167,22
Franklin,Massachusetts,42.58119713,-72.58602547,335,47
Franklin,Louisiana,32.13675181,-91.67589857,377,12
Franklin,Alabama,34.44235334,-87.84289505,578,8
Franklin,Washington,46.53351425,-118.9018212,632,20
Franklin,Pennsylvania,39.92956518,-77.72157791,782,37
Franklin,Ohio,39.96995815,-83.01115755,6112,290
Franklin City,Virginia,36.6831435,-76.93859681,42,2
Frederick,Virginia,39.20172582,-78.25974949,378,4
Frederick,Maryland,39.47296601,-77.39999394,2005,109
Fredericksburg,Virginia,38.2977863,-77.4922454,172,0
Freeborn,Minnesota,43.67385583,-93.34884422,130,0
Freestone,Texas,31.70422788,-96.15072516,10,0
Fremont,Idaho,44.22800938,-111.4809943,3,0
Fremont,Iowa,40.7454272,-95.60129045,4,0
Fremont,Colorado,38.47362326,-105.4399667,26,0
Fremont,Wyoming,43.04183996,-108.6296893,285,0
Fresno,California,36.75733899,-119.6466953,1914,37
Frio,Texas,28.86751206,-99.10804207,37,0
Frontier,Nebraska,40.52993007,-100.3924658,1,0
Fulton,Arkansas,36.38177105,-91.81729127,7,0
Fulton,Kentucky,36.55238827,-89.20140068,8,0
Fulton,Illinois,40.47289135,-90.20862357,12,0
Fulton,Pennsylvania,39.92913544,-78.11163677,15,1
Fulton,Ohio,41.60213491,-84.12571393,45,0
Fulton,Indiana,41.0469907,-86.26252745,50,1
Fulton,New York,43.11363907,-74.41798804,213,18
Fulton,Georgia,33.79216944,-84.46319413,4688,244
Furnas,Nebraska,40.17642064,-99.91247454,9,0
Gadsden,Florida,30.57796289,-84.61915825,285,3
Gage,Nebraska,40.26186809,-96.68946704,45,4
Gaines,Texas,32.74055318,-102.6353295,7,0
Galax,Virginia,36.66601852,-80.91703124,131,1
Gallatin,Illinois,37.76430935,-88.22953869,2,0
Gallatin,Kentucky,38.75398691,-84.8558382,46,5
Gallatin,Montana,45.54486106,-111.1692571,155,1
Gallia,Ohio,38.82708533,-82.31647569,8,1
Galveston,Texas,29.40167322,-94.90469073,857,37
Garden,Nebraska,41.61703149,-102.3313973,4,0
Garfield,Oklahoma,36.3791334,-97.78265517,27,1
Garfield,Colorado,39.59921777,-107.902708,150,2
Garland,Arkansas,34.57692074,-93.14921604,138,1
Garrard,Kentucky,37.6388668,-84.53289319,5,0
Garrett,Maryland,39.52786077,-79.27355126,10,0
Garvin,Oklahoma,34.70418038,-97.30811132,18,1
Garza,Texas,33.17969345,-101.2984114,6,0
Gasconade,Missouri,38.43947277,-91.50847147,2,0
Gaston,North Carolina,35.29373559,-81.17477045,297,7
Gates,North Carolina,36.44667547,-76.69749701,24,1
Geary,Kansas,38.99871131,-96.7577178,23,1
Geauga,Ohio,41.49952319,-81.17935342,295,33
Gem,Idaho,44.06482372,-116.398376,17,0
Genesee,New York,43.0022601,-78.19135193,202,4
Genesee,Michigan,43.02244215,-83.70589709,2049,252
Geneva,Alabama,31.09389027,-85.83572839,44,0
Gentry,Missouri,40.21097916,-94.40944419,41,0
George,Mississippi,30.86259065,-88.64436789,28,1
Georgetown,South Carolina,33.43443342,-79.33202141,78,3
Gibson,Indiana,38.30393723,-87.58054938,18,2
Gibson,Tennessee,35.99438059,-88.93358327,63,1
Gila,Arizona,33.80190085,-110.8132779,37,1
Gilchrist,Florida,29.72856978,-82.79880657,15,0
Giles,Virginia,37.31234791,-80.70636931,5,0
Giles,Tennessee,35.20222469,-87.03992678,12,0
Gillespie,Texas,30.31824095,-98.94676915,5,0
Gilmer,West Virginia,38.9251277,-80.85952723,10,0
Gilmer,Georgia,34.69316688,-84.45802506,157,1
Gilpin,Colorado,39.85646523,-105.5252597,4,0
Glacier,Montana,48.70513576,-112.9934235,6,0
Glades,Florida,26.95635849,-81.18996211,64,1
Gladwin,Michigan,43.98901072,-84.38774817,18,1
Glascock,Georgia,33.22879932,-82.61297636,1,0
Glasscock,Texas,31.86942909,-101.5207776,1,0
Glenn,California,39.59875897,-122.3938452,17,0
Gloucester,Virginia,37.40809042,-76.53524337,31,1
Gloucester,New Jersey,39.71581067,-75.13995546,2278,149
Glynn,Georgia,31.23279254,-81.53811412,135,2
Gogebic,Michigan,46.40862701,-89.69377193,5,1
Golden Valley,Montana,46.3816474,-109.1768522,3,0
Goliad,Texas,28.65696592,-97.42760647,7,0
Gonzales,Texas,29.45634206,-97.49424032,143,3
Goochland,Virginia,37.71714806,-77.90381514,103,6
Goodhue,Minnesota,44.40849741,-92.7234195,70,4
Gooding,Idaho,42.96927962,-114.8108306,49,0
Gordon,Georgia,34.50487351,-84.87296253,170,16
Goshen,Wyoming,42.08798185,-104.3534743,5,0
Gosper,Nebraska,40.51481965,-99.83020279,13,0
Gove,Kansas,38.91588178,-100.4829321,1,0
Grady,Oklahoma,35.0167709,-97.88339847,100,3
Grady,Georgia,30.87454847,-84.23418364,117,4
Grafton,New Hampshire,43.93779815,-71.82057197,76,1
Graham,North Carolina,35.3506925,-83.83369267,2,0
Graham,Arizona,32.93166885,-109.8882178,41,1
Grainger,Tennessee,36.27469206,-83.51254721,11,0
Grand,Colorado,40.10603347,-106.1178042,15,0
Grand Forks,North Dakota,47.92093639,-97.45450447,336,3
Grand Isle,Vermont,44.7975824,-73.29679772,7,0
Grand Traverse,Michigan,44.69565625,-85.55585247,27,5
Grant,Oregon,44.49024544,-119.0068631,1,0
Grant,North Dakota,46.35821257,-101.6390013,2,0
Grant,Oklahoma,36.796297,-97.78638765,2,0
Grant,Minnesota,45.93424769,-96.01139609,4,0
Grant,West Virginia,39.10314817,-79.19440518,12,0
Grant,South Dakota,45.1723937,-96.77002276,13,0
Grant,New Mexico,32.73911281,-108.3827845,15,0
Grant,Arkansas,34.29017991,-92.42320562,18,0
Grant,Kansas,37.56227336,-101.3079758,18,1
Grant,Louisiana,31.59882456,-92.56124347,30,1
Grant,Kentucky,38.64962758,-84.62415957,46,4
Grant,Wisconsin,42.8671731,-90.7063218,98,12
Grant,Washington,47.20753737,-119.4500749,211,4
Grant,Indiana,40.51587228,-85.65468702,221,23
Granville,North Carolina,36.30337451,-78.65184241,324,11
Gratiot,Michigan,43.29265605,-84.60505416,76,11
Graves,Kentucky,36.72292505,-88.65143315,166,19
Gray,Kansas,37.73836671,-100.4369088,23,0
Gray,Texas,35.40081878,-100.8129222,100,2
Grays Harbor,Washington,47.14003705,-123.7820567,18,0
Grayson,Virginia,36.65677234,-81.23215889,42,0
Grayson,Kentucky,37.46231118,-86.34248968,127,9
Grayson,Texas,33.62744998,-96.67753461,350,2
Greeley,Nebraska,41.56742671,-98.52150266,2,0
Green,Kentucky,37.26484328,-85.5540745,1,0
Green,Wisconsin,42.6794956,-89.60243287,70,0
Green Lake,Wisconsin,43.80025981,-89.04679553,22,0
Greenbrier,West Virginia,37.9463652,-80.45335881,9,0
Greene,Illinois,39.35907414,-90.388865,6,0
Greene,Iowa,42.03614551,-94.39658081,13,0
Greene,Pennsylvania,39.85746531,-80.22357106,27,0
Greene,Mississippi,31.21444233,-88.63922281,33,1
Greene,Virginia,38.29545894,-78.46525378,34,1
Greene,Tennessee,36.17470125,-82.84691273,52,2
Greene,Arkansas,36.1173546,-90.55832668,66,0
Greene,Georgia,33.5769205,-83.17139104,71,7
Greene,North Carolina,35.48544173,-77.67578087,81,2
Greene,Alabama,32.85504247,-87.95684022,95,4
Greene,Ohio,39.69116283,-83.89032084,102,5
Greene,Missouri,37.2575872,-93.34230916,164,8
Greene,Indiana,39.03630547,-86.96223202,171,25
Greene,New York,42.275797,-74.12384884,241,18
Greenlee,Arizona,33.21498827,-109.2405279,8,0
Greensville,Virginia,36.67878901,-77.56351439,150,7
Greenup,Kentucky,38.54332505,-82.9215658,14,0
Greenville,South Carolina,34.89502264,-82.37295012,1751,57
Greenwood,Kansas,37.8774388,-96.23250453,9,0
Greenwood,South Carolina,34.15272415,-82.12715789,148,1
Greer,Oklahoma,34.93535801,-99.5605612,66,7
Gregg,Texas,32.47940482,-94.81591935,244,7
Gregory,South Dakota,43.19419064,-99.18883902,1,0
Grenada,Mississippi,33.77036166,-89.80245083,100,3
Griggs,North Dakota,47.45785838,-98.23850925,1,0
Grimes,Texas,30.54579585,-95.98902499,226,1
Grundy,Iowa,42.40183723,-92.78829551,20,0
Grundy,Tennessee,35.38433717,-85.72142731,31,1
Grundy,Illinois,41.28569601,-88.41905692,104,2
Guadalupe,New Mexico,34.86319296,-104.790669,20,0
Guadalupe,Texas,29.58165339,-97.94786822,135,0
Guernsey,Ohio,40.05026529,-81.49248905,36,2
Guilford,North Carolina,36.07959451,-79.78824948,1415,71
Gulf,Florida,29.93543004,-85.2427099,2,0
Gunnison,Colorado,38.66611652,-107.0320729,178,6
Guthrie,Iowa,41.68378965,-94.50111014,53,3
Gwinnett,Georgia,33.96044201,-84.02137802,4063,135
Habersham,Georgia,34.63331566,-83.53094677,538,23
Hale,Texas,34.07044901,-101.8268114,60,4
Hale,Alabama,32.76039258,-87.63284988,179,9
Halifax,Virginia,36.76654925,-78.93512622,30,1
Halifax,North Carolina,36.25669272,-77.6556109,197,1
Hall,Texas,34.5307555,-100.6813852,2,0
Hall,Nebraska,40.87257079,-98.50218293,1525,39
Hall,Georgia,34.32207823,-83.81896936,2539,50
Hamblen,Tennessee,36.21990035,-83.26586179,43,2
Hamilton,Illinois,38.08163641,-88.53883373,2,0
Hamilton,New York,43.66146647,-74.49721957,5,0
Hamilton,Texas,31.70470573,-98.11083887,8,1
Hamilton,Kansas,37.99978709,-101.7921066,20,0
Hamilton,Iowa,42.38382428,-93.70197703,45,0
Hamilton,Nebraska,40.87349452,-98.02099117,55,10
Hamilton,Florida,30.49673973,-82.94998918,250,0
Hamilton,Tennessee,35.17670231,-85.16652245,935,16
Hamilton,Indiana,40.07306535,-86.05244729,1180,94
Hamilton,Ohio,39.19673558,-84.54502924,2739,164
Hamlin,South Dakota,44.67385954,-97.18829593,4,0
Hampden,Massachusetts,42.13440424,-72.63235561,6237,608
Hampshire,West Virginia,39.32103553,-78.60826476,31,1
Hampshire,Massachusetts,42.33997957,-72.65898478,891,93
Hampton,South Carolina,32.77419582,-81.13845571,38,1
Hampton,Virginia,37.03513786,-76.35879121,212,3
Hancock,Tennessee,36.52692871,-83.22375847,1,0
Hancock,Kentucky,37.83766422,-86.78280584,7,0
Hancock,Maine,44.59816444,-68.38401854,11,1
Hancock,Iowa,43.08178477,-93.73454884,16,0
Hancock,Illinois,40.40423981,-91.16313899,17,1
Hancock,West Virginia,40.51943859,-80.57461608,19,0
Hancock,Ohio,41.00250487,-83.66838948,51,1
Hancock,Mississippi,30.41830223,-89.48851033,90,12
Hancock,Georgia,33.2721566,-82.99766919,197,25
Hancock,Indiana,39.82304555,-85.77566351,349,28
Hand,South Dakota,44.54708407,-99.00386459,3,0
Hanover,Virginia,37.7583355,-77.49464673,331,24
Hansford,Texas,36.27743284,-101.3545796,20,2
Hanson,South Dakota,43.6746384,-97.78715148,1,0
Haralson,Georgia,33.79602175,-85.21005667,49,4
Hardee,Florida,27.49293939,-81.80956574,111,0
Hardeman,Texas,34.28944521,-99.74632408,2,0
Hardeman,Tennessee,35.20772017,-88.99161161,201,0
Hardin,Illinois,37.51810645,-88.26873022,1,0
Hardin,Iowa,42.38353877,-93.23654611,19,0
Hardin,Tennessee,35.19732531,-88.18593755,22,2
Hardin,Ohio,40.66015414,-83.65929931,64,0
Hardin,Kentucky,37.6976111,-85.96319251,109,2
Hardin,Texas,30.33364686,-94.38931817,138,5
Harding,New Mexico,35.85751555,-103.8220938,1,0
Hardy,West Virginia,39.00683177,-78.85855301,39,0
Harford,Maryland,39.55010644,-76.3077594,901,51
Harlan,Kentucky,36.85699301,-83.21899516,4,0
Harnett,North Carolina,35.36731853,-78.87243571,306,28
Harney,Oregon,43.06422669,-118.9666306,1,0
Harper,Oklahoma,36.78836519,-99.6679804,1,0
Harper,Kansas,37.19175361,-98.07578384,2,0
Harris,Georgia,32.73709786,-84.90538572,111,6
Harris,Texas,29.86,-95.39,13268,241
Harrison,Missouri,40.35570088,-93.99222144,9,0
Harrison,Ohio,40.29380509,-81.09068544,10,0
Harrison,Kentucky,38.44188174,-84.32869741,23,0
Harrison,Iowa,41.68330137,-95.81558439,26,0
Harrison,West Virginia,39.2853852,-80.37919577,40,1
Harrison,Indiana,38.19467379,-86.10948271,196,22
Harrison,Texas,32.54935988,-94.36934071,250,26
Harrison,Mississippi,30.51359752,-89.12467576,265,7
Harrisonburg,Virginia,38.43542574,-78.87536254,809,23
Hart,Kentucky,37.29943898,-85.88461055,23,0
Hart,Georgia,34.34626973,-82.96567682,34,0
Hartford,Connecticut,41.80283011,-72.73103891,10593,1259
Hartley,Texas,35.84008013,-102.6029022,12,2
Harvey,Kansas,38.04293782,-97.42747573,11,0
Haskell,Texas,33.17823584,-99.73037358,3,0
Haskell,Oklahoma,35.222576,-95.11513306,6,0
Haskell,Kansas,37.5620394,-100.8710738,22,0
Hawaii,Hawaii,19.60121157,-155.5210167,81,0
Hawkins,Tennessee,36.44355426,-82.94885298,34,2
Hays,Texas,30.05669873,-98.02944344,371,5
Haywood,Tennessee,35.58332824,-89.28536625,33,2
Haywood,North Carolina,35.55269063,-82.98196486,53,0
Heard,Georgia,33.29686567,-85.12886832,35,2
Hemphill,Texas,35.83764858,-100.2703577,1,0
Hempstead,Arkansas,33.73325583,-93.66935133,20,1
Henderson,Illinois,40.81908672,-90.92491462,8,0
Henderson,Tennessee,35.65581134,-88.38600175,15,0
Henderson,Texas,32.21128872,-95.85846587,63,3
Henderson,Kentucky,37.79344553,-87.57392021,112,3
Henderson,North Carolina,35.33788927,-82.4766782,352,47
Hendricks,Indiana,39.76719009,-86.51037283,1180,74
Hendry,Florida,26.55386945,-81.16469006,476,17
Hennepin,Minnesota,45.00761521,-93.47694895,8738,633
Henrico,Virginia,37.53460572,-77.39326555,1933,134
Henry,Missouri,38.38482826,-93.79293734,12,3
Henry,Ohio,41.3339642,-84.06830637,17,0
Henry,Kentucky,38.44942688,-85.11587507,22,0
Henry,Tennessee,36.33160906,-88.30121797,31,0
Henry,Illinois,41.3533994,-90.13296166,70,0
Henry,Iowa,40.98767962,-91.54436349,72,2
Henry,Alabama,31.51148016,-85.24267944,81,2
Henry,Virginia,36.68542395,-79.87634026,145,3
Henry,Indiana,39.93029017,-85.39625719,184,12
Henry,Georgia,33.4533428,-84.1481466,716,23
Herkimer,New York,43.42034246,-74.96145307,113,3
Hernando,Florida,28.55364461,-82.42700204,120,5
Hertford,North Carolina,36.3607755,-76.98104134,132,3
Hickman,Kentucky,36.6794808,-88.97875928,5,0
Hickman,Tennessee,35.80609681,-87.47643507,58,0
Hidalgo,New Mexico,31.91383467,-108.7151824,1,0
Hidalgo,Texas,26.39418217,-98.18299696,610,11
Highland,Virginia,38.35799465,-79.56124594,3,0
Highland,Ohio,39.1839264,-83.60331456,26,1
Highlands,Florida,27.34254618,-81.34071957,134,9
Hill,Montana,48.62879827,-110.1129252,1,0
Hill,Texas,31.99045053,-97.13423143,24,1
Hillsborough,Florida,27.9276559,-82.32013172,2384,84
Hillsborough,New Hampshire,42.91537785,-71.7200253,2554,155
Hillsdale,Michigan,41.88753639,-84.59312019,170,24
Hinds,Mississippi,32.2656285,-90.44435448,1066,26
Hinsdale,Colorado,37.82247444,-107.3004345,3,0
Hitchcock,Nebraska,40.17609175,-101.0416477,1,0
Hocking,Ohio,39.49537927,-82.47991446,70,5
Hockley,Texas,33.60771256,-102.3431676,27,1
Hodgeman,Kansas,38.08780079,-99.89829881,5,0
Hoke,North Carolina,35.01888303,-79.23651674,255,1
Holmes,Florida,30.86747479,-85.81319222,24,0
Holmes,Ohio,40.56163713,-81.92635677,46,3
Holmes,Mississippi,33.12345854,-90.08923538,441,30
Holt,Nebraska,42.45522056,-98.78402558,1,0
Holt,Missouri,40.09799248,-95.2163888,2,0
Honolulu,Hawaii,21.45803166,-157.9712182,423,11
Hood,Texas,32.42990927,-97.83242024,27,3
Hood River,Oregon,45.51872811,-121.6552036,28,0
Hopewell,Virginia,37.29186313,-77.29754684,98,1
Hopkins,Texas,33.14875072,-95.56351139,27,0
Hopkins,Kentucky,37.30939025,-87.54670406,224,31
Horry,South Carolina,33.9212828,-78.99555293,472,27
Hot Spring,Arkansas,34.31709259,-92.95396325,33,0
Hot Springs,Wyoming,43.71930657,-108.4423174,12,0
Houghton,Michigan,46.89988536,-88.68495385,6,0
Houston,Minnesota,43.67129565,-91.49143057,2,0
Houston,Tennessee,36.28872054,-87.71878828,8,0
Houston,Texas,31.31925973,-95.42226208,127,0
Houston,Alabama,31.15197924,-85.29939599,226,5
Houston,Georgia,32.45802497,-83.66879087,381,18
Howard,Missouri,39.1435761,-92.69756691,3,0
Howard,Texas,32.30621324,-101.4356444,9,1
Howard,Iowa,43.35671042,-92.31702714,12,0
Howard,Arkansas,34.09007427,-93.9934871,26,0
Howard,Nebraska,41.2200529,-98.5166499,42,0
Howard,Indiana,40.48527731,-86.11351892,437,34
Howard,Maryland,39.25305293,-76.93126208,2004,61
Howell,Missouri,36.77383887,-91.88683935,9,0
Hubbard,Minnesota,47.10778564,-94.91693868,3,0
Hudson,New Jersey,40.73766234,-74.07515667,18852,1192
Hudspeth,Texas,31.45628381,-105.388178,2,0
Huerfano,Colorado,37.68473101,-104.9612585,3,0
Hughes,Oklahoma,35.04912569,-96.24921145,3,0
Hughes,South Dakota,44.39091534,-99.99661148,19,0
Humboldt,Iowa,42.7764426,-94.20722537,18,1
Humboldt,Nevada,41.40692186,-118.1109427,78,4
Humboldt,California,40.69923009,-123.876044,103,4
Humphreys,Tennessee,36.03958805,-87.77992872,15,1
Humphreys,Mississippi,33.12825718,-90.52252707,60,7
Hunt,Texas,33.12351514,-96.08551032,91,4
Hunterdon,New Jersey,40.56335249,-74.91284156,1006,61
Huntingdon,Pennsylvania,40.42162652,-77.97673273,232,3
Huntington,Indiana,40.82907273,-85.48822092,34,2
Huron,Michigan,43.83353985,-83.04078453,48,1
Huron,Ohio,41.14651175,-82.59867951,60,1
Hutchinson,South Dakota,43.33449012,-97.75536441,6,0
Hutchinson,Texas,35.84006574,-101.3546643,42,0
Hyde,North Carolina,35.42017674,-76.15180542,1,0
Hyde,South Dakota,44.54747703,-99.48572582,1,0
Iberia,Louisiana,29.86803617,-91.75871777,418,38
Iberville,Louisiana,30.25734305,-91.3499598,579,42
Ida,Iowa,42.38696136,-95.51355387,14,0
Idaho,Idaho,45.84721541,-115.4634436,3,0
Imperial,California,33.0393082,-115.3669042,2025,29
Independence,Arkansas,35.74242707,-91.57001641,33,0
Indian River,Florida,27.69308961,-80.60556721,139,10
Indiana,Pennsylvania,40.65241041,-79.08963285,91,5
Ingham,Michigan,42.59716886,-84.37472069,746,27
Inyo,California,36.51112084,-117.4111978,20,1
Ionia,Michigan,42.94502238,-85.07413319,154,4
Iosco,Michigan,44.35486835,-83.63484895,96,9
Iowa,Wisconsin,43.00050278,-90.13469017,17,0
Iowa,Iowa,41.68630265,-92.0643373,33,0
Iredell,North Carolina,35.80950511,-80.8743128,280,6
Irion,Texas,31.30375559,-100.982439,1,0
Iron,Michigan,46.20974132,-88.53136251,1,0
Iron,Wisconsin,46.26302338,-90.24295041,2,1
Iron,Missouri,37.55487945,-90.7735296,3,0
Iroquois,Illinois,40.74717633,-87.82466784,133,4
Irwin,Georgia,31.60213036,-83.27501387,31,1
Isabella,Michigan,43.64060976,-84.84664923,78,7
Isanti,Minnesota,45.56181234,-93.29487636,35,0
Island,Washington,48.14713305,-122.5216407,181,11
Isle of Wight,Virginia,36.90579348,-76.70842863,133,3
Itasca,Minnesota,47.51009045,-93.63092229,56,10
Itawamba,Mississippi,34.27993475,-88.3606733,90,7
Izard,Arkansas,36.09604046,-91.90847954,17,1
Jack,Texas,33.23377248,-98.17283469,4,0
Jackson,Arkansas,35.59802983,-91.21494602,4,0
Jackson,South Dakota,43.69318385,-101.6255063,4,0
Jackson,Iowa,42.17178824,-90.57354837,13,0
Jackson,Ohio,39.01914254,-82.6181856,14,0
Jackson,Tennessee,36.36380466,-85.67239905,19,0
Jackson,Texas,28.95472367,-96.57749563,19,1
Jackson,Wisconsin,44.31864893,-90.80566792,19,1
Jackson,Oklahoma,34.58781741,-99.41138784,27,3
Jackson,North Carolina,35.28814273,-83.14093385,38,1
Jackson,Minnesota,43.67423373,-95.15398258,40,0
Jackson,Kentucky,37.41866422,-83.99825483,61,13
Jackson,Oregon,42.43201126,-122.7289309,68,0
Jackson,Alabama,34.78144169,-85.99750489,83,3
Jackson,Kansas,39.41673394,-95.79356799,102,1
Jackson,Louisiana,32.30251776,-92.55692092,110,15
Jackson,West Virginia,38.84263974,-81.68148753,137,18
Jackson,Georgia,34.13794553,-83.56814788,199,6
Jackson,Florida,30.7954597,-85.21500423,269,1
Jackson,Illinois,37.78595185,-89.38232563,293,10
Jackson,Mississippi,30.54020656,-88.64184064,309,14
Jackson,Indiana,38.9091582,-86.03851889,394,2
Jackson,Michigan,42.24807035,-84.42258681,458,28
Jackson,Missouri,39.01002188,-94.34724536,656,22
James City,Virginia,37.31156958,-76.76950618,211,15
Jasper,Texas,30.74685667,-94.02667579,29,1
Jasper,Missouri,37.20351921,-94.34050458,39,0
Jasper,Georgia,33.31535543,-83.68844964,40,1
Jasper,South Carolina,32.43171982,-81.02487495,43,2
Jasper,Illinois,39.01054275,-88.15437049,46,7
Jasper,Indiana,41.02078733,-87.11553319,70,1
Jasper,Mississippi,32.01922104,-89.11786866,166,4
Jasper,Iowa,41.68576082,-93.05567785,263,17
Jay,Indiana,40.43781032,-85.00576229,53,0
Jeff Davis,Georgia,31.80405727,-82.6372487,38,1
Jefferson,Montana,46.14907081,-112.094396,3,0
Jefferson,Oklahoma,34.11130184,-97.83182974,4,0
Jefferson,Idaho,43.82078483,-112.3131749,7,0
Jefferson,Nebraska,40.17584531,-97.142601,7,0
Jefferson,Pennsylvania,41.12913106,-78.9986361,14,0
Jefferson,Kansas,39.2347941,-95.38289232,22,0
Jefferson,Tennessee,36.04818632,-83.45148924,28,0
Jefferson,Florida,30.43669112,-83.89442308,29,3
Jefferson,Washington,47.75003077,-123.5609704,31,0
Jefferson,Iowa,41.03192394,-91.94849466,33,0
Jefferson,Mississippi,31.73397872,-91.03764977,42,1
Jefferson,Oregon,44.62806839,-121.17832,45,0
Jefferson,Georgia,33.05867328,-82.41609057,46,1
Jefferson,Indiana,38.78576239,-85.43633383,47,1
Jefferson,Ohio,40.38614126,-80.76259514,67,2
Jefferson,New York,44.04200959,-75.94653457,74,0
Jefferson,Illinois,38.29980057,-88.9240025,101,16
Jefferson,Wisconsin,43.02054068,-88.77529134,114,3
Jefferson,West Virginia,39.30776166,-77.86014147,199,1
Jefferson,Missouri,38.25926778,-90.53870896,395,18
Jefferson,Arkansas,34.26767081,-91.92619839,532,25
Jefferson,Texas,29.8832777,-94.16434171,581,29
Jefferson,Alabama,33.55554728,-86.895063,1884,103
Jefferson,Colorado,39.58635604,-105.2517692,2294,172
Jefferson,Kentucky,38.18664655,-85.65931031,2612,160
Jefferson,Louisiana,29.74075478,-90.11115756,7738,454
Jefferson Davis,Louisiana,30.26896765,-92.81210004,78,7
Jefferson Davis,Mississippi,31.56884708,-89.8267099,81,3
Jenkins,Georgia,32.79248718,-81.96040187,21,1
Jennings,Indiana,38.99588883,-85.62710784,131,4
Jerauld,South Dakota,44.06637798,-98.62965972,38,1
Jerome,Idaho,42.68891267,-114.2655033,175,2
Jersey,Illinois,39.08869046,-90.35393073,24,1
Jessamine,Kentucky,37.87119786,-84.58252003,67,0
Jewell,Kansas,39.78470589,-98.21820662,4,0
Jim Hogg,Texas,27.04453923,-98.6968187,4,0
Jim Wells,Texas,27.73103938,-98.0904705,12,0
Jo Daviess,Illinois,42.36542373,-90.21094405,32,0
Johnson,Kentucky,37.85106355,-82.8264322,5,0
Johnson,Nebraska,40.39257596,-96.26522753,6,0
Johnson,Illinois,37.45939802,-88.88165419,10,0
Johnson,Wyoming,44.04057166,-106.5845174,18,1
Johnson,Tennessee,36.4552395,-81.84886538,19,0
Johnson,Arkansas,35.56759135,-93.46036368,48,0
Johnson,Missouri,38.74719601,-93.80691168,77,0
Johnson,Georgia,32.70211082,-82.66166794,82,2
Johnson,Texas,32.37877812,-97.36615819,176,4
Johnson,Iowa,41.67169354,-91.58754744,616,9
Johnson,Kansas,38.88548175,-94.82250877,865,66
Johnson,Indiana,39.48994426,-86.10149107,1120,110
Johnston,Oklahoma,34.31440473,-96.66011537,3,0
Johnston,North Carolina,35.51745004,-78.36622717,513,23
Jones,North Carolina,35.02254606,-77.35870791,28,3
Jones,Iowa,42.12118609,-91.13139641,37,0
Jones,Georgia,33.02512137,-83.56019163,44,0
Jones,Texas,32.73997145,-99.87861576,637,0
Jones,Mississippi,31.62257767,-89.168969,686,32
Josephine,Oregon,42.3665549,-123.5561938,23,1
Juneau,Wisconsin,43.92456975,-90.11120239,22,1
Juneau,Alaska,58.45031811,-134.200436,33,0
Juniata,Pennsylvania,40.53358749,-77.3997513,95,4
Kalamazoo,Michigan,42.24542231,-85.53038622,850,58
Kalkaska,Michigan,44.68512729,-85.09085699,19,2
Kanabec,Minnesota,45.9459309,-93.29275192,12,1
Kanawha,West Virginia,38.33860077,-81.52857054,230,19
Kandiyohi,Minnesota,45.1526059,-95.00586446,505,1
Kane,Illinois,41.93842729,-88.42861412,6518,192
Kankakee,Illinois,41.13746989,-87.86205334,959,51
Kansas City,Missouri,39.0997,-94.5786,1366,27
Karnes,Texas,28.90705334,-97.85960149,4,0
Kauai,Hawaii,22.03935037,-159.5966786,20,0
Kaufman,Texas,32.5991417,-96.28734728,230,2
Kay,Oklahoma,36.81799745,-97.14421435,57,7
Kearney,Nebraska,40.50663314,-98.94877182,11,0
Kearny,Kansas,38.00017981,-101.321681,45,1
Keith,Nebraska,41.19930341,-101.6620164,2,0
Kemper,Mississippi,32.75462946,-88.64105766,149,11
Kenai Peninsula,Alaska,60.24429722,-151.5388884,60,2
Kendall,Texas,29.94414155,-98.7113588,31,0
Kendall,Illinois,41.59081014,-88.42869583,825,19
Kennebec,Maine,44.40759555,-69.76738544,127,9
Kenosha,Wisconsin,42.57639354,-88.04051686,1217,30
Kent,Maryland,39.24976208,-76.04741541,178,19
Kent,Rhode Island,41.67106337,-71.57641596,1052,0
Kent,Delaware,39.08646628,-75.56884914,1451,66
Kent,Michigan,43.03197711,-85.54934642,3815,93
Kenton,Kentucky,38.93950319,-84.53241199,638,34
Keokuk,Iowa,41.33649833,-92.1785067,14,0
Kern,California,35.34329425,-118.7277796,2418,40
Kerr,Texas,30.06040006,-99.34930144,20,0
Kershaw,South Carolina,34.33988254,-80.58763164,339,14
Ketchikan Gateway,Alaska,55.57445008,-130.975561,16,0
Kewaunee,Wisconsin,44.51727459,-87.61468386,36,1
Kimball,Nebraska,41.19774275,-103.7148131,8,0
Kimble,Texas,30.48678918,-99.74856473,1,0
King,Washington,47.49137892,-121.8346131,8264,573
King and Queen,Virginia,37.71044922,-76.88689628,13,1
King George,Virginia,38.26818502,-77.15852768,70,4
King William,Virginia,37.70965316,-77.09384941,31,0
Kingfisher,Oklahoma,35.94530008,-97.94193268,11,0
Kings,California,36.07409056,-119.8159973,1168,6
Kingsbury,South Dakota,44.36956169,-97.4913945,3,0
Kinney,Texas,29.34967888,-100.4186638,1,0
Kiowa,Kansas,37.55848695,-99.2856537,3,0
Kiowa,Oklahoma,34.91671958,-98.97720696,6,0
Kit Carson,Colorado,39.30497777,-102.6022199,26,3
Kitsap,Washington,47.63479026,-122.6436061,163,2
Kittitas,Washington,47.12521214,-120.679439,89,0
Kittson,Minnesota,48.77754106,-96.78317184,1,0
Klamath,Oregon,42.68762984,-121.6496461,44,0
Kleberg,Texas,27.42435506,-97.69894948,17,1
Klickitat,Washington,45.87325839,-120.7913598,28,3
Knott,Kentucky,37.35388197,-82.94981134,4,0
Knox,Texas,33.60519951,-99.7422906,1,0
Knox,Kentucky,36.89225732,-83.85403396,10,0
Knox,Nebraska,42.63758421,-97.89178836,10,0
Knox,Maine,44.11486325,-69.10529169,21,1
Knox,Ohio,40.39830217,-82.42027563,25,1
Knox,Indiana,38.68861576,-87.4194665,31,0
Knox,Illinois,40.93148779,-90.2133034,101,0
Knox,Tennessee,35.99508821,-83.94635435,436,5
Kodiak Island,Alaska,57.65529415,-153.7493579,1,0
Koochiching,Minnesota,48.24539665,-93.78352843,9,0
Kootenai,Idaho,47.67282258,-116.7020872,73,0
Kosciusko,Indiana,41.24521668,-85.86312322,166,1
Kossuth,Iowa,43.20405458,-94.20691791,13,0
La Crosse,Wisconsin,43.90632465,-91.11451093,58,0
La Paz,Arizona,33.72854224,-113.9810029,91,1
La Plata,Colorado,37.28632032,-107.8429014,82,1
La Salle,Texas,28.34453111,-99.09908775,4,0
Labette,Kansas,37.19113093,-95.29849679,22,0
Lac qui Parle,Minnesota,44.9973857,-96.17488219,3,0
Lackawanna,Pennsylvania,41.43564672,-75.60379201,1556,180
Laclede,Missouri,37.65896829,-92.5888493,7,0
Lafayette,Florida,29.98484137,-83.18166636,8,0
Lafayette,Arkansas,33.24116713,-93.60677071,9,1
Lafayette,Wisconsin,42.66005229,-90.1317729,27,0
Lafayette,Missouri,39.06986886,-93.78076396,76,3
Lafayette,Mississippi,34.35687874,-89.48490961,150,4
Lafayette,Louisiana,30.2049055,-92.06959876,821,27
Lafourche,Louisiana,29.52470226,-90.40976986,878,72
LaGrange,Indiana,41.64232188,-85.42674232,102,2
Lake,Minnesota,47.64270764,-91.44557998,1,0
Lake,Oregon,42.79246693,-120.3850163,2,0
Lake,Montana,47.64514965,-114.0898013,5,0
Lake,Michigan,43.99050893,-85.802173,6,0
Lake,South Dakota,44.02193107,-97.12926365,10,0
Lake,California,39.10124298,-122.7536244,30,0
Lake,Colorado,39.20278823,-106.3555697,32,0
Lake,Florida,28.76202069,-81.7125123,309,15
Lake,Ohio,41.69710807,-81.23676539,318,12
Lake,Tennessee,36.3418017,-89.48921915,835,0
Lake,Indiana,41.41874274,-87.38277575,3806,202
Lake,Illinois,42.3224907,-88.00367925,8511,315
Lamar,Alabama,33.77995024,-88.09668032,26,0
Lamar,Georgia,33.07841647,-84.14263877,73,2
Lamar,Texas,33.66981763,-95.57404777,151,11
Lamar,Mississippi,31.20572971,-89.5077704,248,5
Lamb,Texas,34.06859623,-102.3516289,16,0
Lamoille,Vermont,44.60353043,-72.64356694,29,1
Lampasas,Texas,31.19531316,-98.24206613,9,0
Lancaster,Virginia,37.71889653,-76.46400482,10,0
Lancaster,South Carolina,34.68270843,-80.70513032,166,5
Lancaster,Nebraska,40.78416049,-96.68777155,1262,6
Lancaster,Pennsylvania,40.03904563,-76.24770128,3267,310
Lander,Nevada,39.9332233,-117.0397075,21,0
Lane,Kansas,38.48119447,-100.4660754,4,0
Lane,Oregon,43.93727035,-122.847753,77,3
Langlade,Wisconsin,45.26271619,-89.07483625,3,0
Lanier,Georgia,31.0382857,-83.06472457,24,2
Lapeer,Michigan,43.09052506,-83.22153148,191,30
LaPorte,Indiana,41.54366008,-86.74072188,436,24
Laramie,Wyoming,41.3070252,-104.6887497,188,0
Larimer,Colorado,40.66671597,-105.4625784,606,28
Larue,Kentucky,37.54567114,-85.70138352,8,0
Las Animas,Colorado,37.3153406,-104.0376458,5,0
LaSalle,Louisiana,31.67884782,-92.15907765,53,0
LaSalle,Illinois,41.3442613,-88.88633881,157,14
Lassen,California,40.67311306,-120.5935099,5,0
Latah,Idaho,46.81587887,-116.7113698,7,0
Latimer,Oklahoma,34.87844729,-95.25215049,5,1
Lauderdale,Tennessee,35.75893438,-89.6301591,59,1
Lauderdale,Alabama,34.90171875,-87.65624729,169,2
Lauderdale,Mississippi,32.40419769,-88.66229662,760,68
Laurel,Kentucky,37.10975748,-84.11321779,21,2
Laurens,South Carolina,34.48244419,-82.00490796,69,4
Laurens,Georgia,32.46325233,-82.92221316,108,1
Lavaca,Texas,29.38508402,-96.93186692,14,1
Lawrence,Illinois,38.71987914,-87.72884035,4,0
Lawrence,Kentucky,38.07136018,-82.72882223,4,0
Lawrence,Missouri,37.10626634,-93.83293097,8,0
Lawrence,South Dakota,44.35919441,-103.7929428,11,0
Lawrence,Ohio,38.59743452,-82.53466552,30,0
Lawrence,Tennessee,35.21675201,-87.39787695,33,0
Lawrence,Alabama,34.52041498,-87.31069453,51,0
Lawrence,Pennsylvania,40.99206278,-80.33393706,83,8
Lawrence,Arkansas,36.04188196,-91.10867198,85,6
Lawrence,Mississippi,31.55147224,-90.10841127,108,1
Lawrence,Indiana,38.84112637,-86.48361629,165,24
Le Flore,Oklahoma,34.89851864,-94.70392124,14,1
Le Sueur,Minnesota,44.37136597,-93.72844721,46,1
Lea,New Mexico,32.79215361,-103.4123733,26,0
Leake,Mississippi,32.7536828,-89.52402044,454,12
Leavenworth,Kansas,39.20183497,-95.03620809,1094,7
Lebanon,Pennsylvania,40.36680311,-76.45651841,994,34
Lee,Kentucky,37.59645942,-83.71513901,1,0
Lee,Virginia,36.70586667,-83.12606515,9,0
Lee,Arkansas,34.78498904,-90.78383866,24,1
Lee,Texas,30.31120597,-96.97045773,25,1
Lee,Iowa,40.64181461,-91.48183025,28,0
Lee,Illinois,41.74583951,-89.29977132,82,1
Lee,Mississippi,34.2918775,-88.68149954,185,7
Lee,South Carolina,34.16393091,-80.25690731,221,16
Lee,Georgia,31.7793306,-84.14324253,361,22
Lee,North Carolina,35.47623147,-79.17569362,486,4
Lee,Alabama,32.60154883,-85.35132246,558,34
Lee,Florida,26.58410348,-81.88399313,2087,113
Leelanau,Michigan,44.94430054,-85.80150326,11,0
Leflore,Mississippi,33.55545125,-90.29900733,273,36
Lehigh,Pennsylvania,40.6154815,-75.59435245,3802,239
Lemhi,Idaho,44.9438088,-113.9309747,1,0
Lenawee,Michigan,41.89475156,-84.06603727,175,4
Lenoir,North Carolina,35.2403259,-77.64245615,222,7
Leon,Texas,31.29872538,-95.9936328,10,0
Leon,Florida,30.45955727,-84.27491114,428,7
Leslie,Kentucky,37.09246661,-83.37999606,6,0
Letcher,Kentucky,37.12306748,-82.85346474,3,0
Levy,Florida,29.31829741,-82.74007147,35,1
Lewis,Tennessee,35.52853208,-87.49022694,3,0
Lewis,Kentucky,38.53184419,-83.37735618,7,0
Lewis,Missouri,40.09673161,-91.72070156,7,1
Lewis,West Virginia,38.9947249,-80.49988181,9,1
Lewis,New York,43.7844157,-75.44903992,20,0
Lewis,Washington,46.57756476,-122.3925769,37,3
Lewis and Clark,Montana,47.12610041,-112.394698,16,0
Lexington,Virginia,37.78258621,-79.44262866,7,0
Lexington,South Carolina,33.89665987,-81.27146426,677,34
Liberty,Montana,48.56084317,-111.024307,1,0
Liberty,Georgia,31.82588896,-81.49251135,83,1
Liberty,Texas,30.15152688,-94.81205615,97,3
Liberty,Florida,30.23766008,-84.8829258,218,1
Licking,Ohio,40.09136236,-82.48185785,265,10
Limestone,Texas,31.5454767,-96.58095444,27,1
Limestone,Alabama,34.81185586,-86.98310072,108,0
Lincoln,Nevada,37.64268459,-114.8790388,2,0
Lincoln,Washington,47.57705241,-118.4194388,2,0
Lincoln,Colorado,38.98749519,-103.5136649,3,0
Lincoln,New Mexico,33.74526079,-105.4586166,5,0
Lincoln,West Virginia,38.172154,-82.07017953,5,0
Lincoln,Minnesota,44.41311883,-96.26688165,6,0
Lincoln,Montana,48.54265777,-115.4046155,7,1
Lincoln,Wisconsin,45.33737523,-89.73411273,7,0
Lincoln,Kentucky,37.45475628,-84.6565327,8,1
Lincoln,Wyoming,42.26376367,-110.6563997,15,0
Lincoln,Georgia,33.79201475,-82.45024131,16,1
Lincoln,Oregon,44.64252874,-123.869912,18,0
Lincoln,Maine,44.05996956,-69.54227124,20,0
Lincoln,Oklahoma,35.70270942,-96.8812462,22,2
Lincoln,Tennessee,35.13738622,-86.58910106,29,0
Lincoln,Idaho,43.0012336,-114.1358773,33,0
Lincoln,Nebraska,41.04658298,-100.7475374,48,2
Lincoln,North Carolina,35.48508185,-81.21740317,78,0
Lincoln,Missouri,39.05345619,-90.95588181,118,1
Lincoln,Louisiana,32.6003154,-92.6659741,161,16
Lincoln,South Dakota,43.27841182,-96.7203905,240,0
Lincoln,Mississippi,31.53288662,-90.45391915,278,29
Lincoln,Arkansas,33.95317155,-91.74002806,984,10
Linn,Missouri,39.87001769,-93.10704106,10,1
Linn,Kansas,38.21267844,-94.84254089,11,0
Linn,Oregon,44.48899494,-122.5373154,119,9
Linn,Iowa,42.07923082,-91.59809485,967,79
Lipscomb,Texas,36.27783108,-100.2733151,3,0
Litchfield,Connecticut,41.7937534,-73.2451475,1404,133
Little River,Arkansas,33.70375665,-94.23468591,9,0
Live Oak,Texas,28.35101362,-98.1246786,9,0
Livingston,Missouri,39.78110272,-93.54645978,3,0
Livingston,Kentucky,37.21137452,-88.34797529,9,0
Livingston,Illinois,40.89188292,-88.55784752,36,2
Livingston,New York,42.72596275,-77.77966158,120,7
Livingston,Michigan,42.60302282,-83.91297209,398,26
Livingston,Louisiana,30.44143993,-90.73061664,446,31
Llano,Texas,30.70645047,-98.68475262,3,0
Logan,Arkansas,35.21413234,-93.71951016,10,0
Logan,Illinois,40.12581572,-89.36638784,11,0
Logan,Oklahoma,35.91899576,-97.44352845,19,1
Logan,West Virginia,37.8299889,-81.93528571,19,1
Logan,Ohio,40.38996525,-83.76784341,40,0
Logan,Kentucky,36.85949479,-86.877635,155,4
Logan,Colorado,40.7249637,-103.110817,621,4
Long,Georgia,31.75218791,-81.74952375,16,1
Lonoke,Arkansas,34.75392199,-91.88742357,55,0
Lorain,Ohio,41.29553751,-82.15083537,709,60
Los Alamos,New Mexico,35.86631386,-106.3134985,6,0
Los Angeles,California,34.30828379,-118.2282411,58261,2489
Loudon,Tennessee,35.73939663,-84.31145275,157,0
Loudoun,Virginia,39.08990083,-77.63481877,2659,67
Louisa,Virginia,37.97850256,-77.96274807,81,1
Louisa,Iowa,41.21842119,-91.26102611,346,11
Love,Oklahoma,33.95273467,-97.23906784,16,0
Lowndes,Mississippi,33.47386518,-88.4419153,241,9
Lowndes,Alabama,32.1597283,-86.65158371,259,12
Lowndes,Georgia,30.83568832,-83.27056716,326,4
Lubbock,Texas,33.61008596,-101.8204789,706,50
Lucas,Iowa,41.02958964,-93.32780803,19,1
Lucas,Ohio,41.62101218,-83.65468618,2296,256
Luce,Michigan,46.47227431,-85.54471223,3,0
Lumpkin,Georgia,34.57286511,-84.00425681,101,1
Luna,New Mexico,32.18179341,-107.7508826,10,1
Lunenburg,Virginia,36.94618528,-78.24133319,15,0
Luzerne,Pennsylvania,41.17823008,-75.98447579,2766,155
Lycoming,Pennsylvania,41.34310539,-77.06629984,166,17
Lyman,South Dakota,43.89522709,-99.85201878,15,0
Lynchburg,Virginia,37.40021399,-79.19888138,80,1
Lynn,Texas,33.17657705,-101.8162849,7,1
Lyon,Kentucky,37.02080035,-88.07886257,15,3
Lyon,Iowa,43.38107862,-96.20926845,25,0
Lyon,Nevada,39.01777974,-119.1870479,67,1
Lyon,Minnesota,44.41327865,-95.83806103,71,1
Lyon,Kansas,38.45576156,-96.15275715,377,5
Mackinac,Michigan,46.07028979,-85.04980537,8,0
Macomb,Michigan,42.69158356,-82.92752801,6769,826
Macon,Missouri,39.83049768,-92.56453089,6,0
Macon,Alabama,32.38759944,-85.69267724,87,4
Macon,North Carolina,35.14867843,-83.41696617,89,1
Macon,Georgia,32.35207048,-84.04234127,104,6
Macon,Tennessee,36.53157855,-86.00778595,158,3
Macon,Illinois,39.86064913,-88.96342505,195,19
Macoupin,Illinois,39.26119767,-89.92424028,46,2
Madera,California,37.21513971,-119.7665589,117,3
Madison,Missouri,37.47865134,-90.3467143,3,0
Madison,North Carolina,35.85402722,-82.71346418,4,0
Madison,Montana,45.30080065,-111.9173017,8,1
Madison,Texas,30.96694679,-95.93003775,9,0
Madison,Idaho,43.78141028,-111.6538474,21,0
Madison,Iowa,41.33081904,-94.01554631,29,2
Madison,Arkansas,36.01038185,-93.72524943,30,0
Madison,Virginia,38.41531222,-78.28220331,41,1
Madison,Kentucky,37.71659336,-84.27220275,54,1
Madison,Georgia,34.12920917,-83.21218732,59,1
Madison,Florida,30.44396917,-83.47398594,69,4
Madison,Louisiana,32.36918118,-91.23973355,106,2
Madison,Ohio,39.89381073,-83.40178317,162,7
Madison,Tennessee,35.61181957,-88.84076036,173,2
Madison,New York,42.91653905,-75.67266639,319,10
Madison,Nebraska,41.91676024,-97.6005481,320,3
Madison,Alabama,34.76327133,-86.55069633,346,4
Madison,Indiana,40.16143691,-85.71964711,597,61
Madison,Illinois,38.83042506,-89.90422563,600,64
Madison,Mississippi,32.63389156,-90.03513564,757,27
Magoffin,Kentucky,37.70820545,-83.0657714,2,0
Mahaska,Iowa,41.33521503,-92.64083907,97,12
Mahnomen,Minnesota,47.32557075,-95.80921485,6,1
Mahoning,Ohio,41.01631101,-80.77287029,1463,188
Major,Oklahoma,36.31149996,-98.53467076,6,1
Malheur,Oregon,43.1937027,-117.6227395,32,0
Manassas,Virginia,38.7464321,-77.48509905,1154,12
Manassas Park,Virginia,38.77058531,-77.44399307,332,6
Manatee,Florida,27.47196942,-82.31831044,1110,98
Manistee,Michigan,44.33352407,-86.05626916,11,0
Manitowoc,Wisconsin,44.11946801,-87.80928853,38,1
Marathon,Wisconsin,44.89792533,-89.75863384,55,1
Marengo,Alabama,32.24767634,-87.78796182,174,6
Maricopa,Arizona,33.34835867,-112.4918154,11068,466
Maries,Missouri,38.16193985,-91.92249662,2,0
Marin,California,38.07122463,-122.7210631,506,17
Marinette,Wisconsin,45.38553432,-88.033246,32,2
Marion,Arkansas,36.26844485,-92.68451899,2,0
Marion,Kansas,38.35855394,-97.0985251,5,1
Marion,Missouri,39.80601912,-91.62203062,5,0
Marion,Texas,32.79868409,-94.3566123,17,1
Marion,Kentucky,37.55218078,-85.26898542,25,0
Marion,Iowa,41.33445101,-93.09934783,34,0
Marion,Tennessee,35.12997174,-85.62265895,42,1
Marion,Illinois,38.64963204,-88.91899208,51,0
Marion,West Virginia,39.50984542,-80.24244659,51,2
Marion,Georgia,32.3483402,-84.52733571,59,2
Marion,South Carolina,34.07859748,-79.36400756,72,5
Marion,Mississippi,31.23132643,-89.8209217,116,9
Marion,Alabama,34.13697363,-87.88704173,124,11
Marion,Florida,29.21227113,-82.05803627,257,7
Marion,Oregon,44.90287942,-122.5815117,999,26
Marion,Ohio,40.58610662,-83.15736305,2679,31
Marion,Indiana,39.78163624,-86.13826325,10037,594
Mariposa,California,37.57978556,-119.9073334,16,1
Marlboro,South Carolina,34.59905577,-79.67561152,183,1
Marquette,Wisconsin,43.81911946,-89.40073763,6,1
Marquette,Michigan,46.4338914,-87.64043701,56,11
Marshall,South Dakota,45.75870838,-97.59855639,4,0
Marshall,Illinois,41.0327901,-89.34510444,5,0
Marshall,Oklahoma,34.02311222,-96.76855464,8,0
Marshall,Minnesota,48.35825983,-96.37017407,12,0
Marshall,West Virginia,39.86064362,-80.66591062,30,0
Marshall,Tennessee,35.45798777,-86.76420988,33,1
Marshall,Kentucky,36.8800707,-88.32803576,37,2
Marshall,Mississippi,34.76216286,-89.50299462,85,3
Marshall,Indiana,41.32467367,-86.26185087,147,2
Marshall,Alabama,34.36975964,-86.30486727,705,9
Marshall,Iowa,42.03586837,-92.9990819,901,18
Martin,Kentucky,37.79990579,-82.51247478,3,0
Martin,Texas,32.30600051,-101.9513518,3,1
Martin,Indiana,38.7099921,-86.80373186,12,0
Martin,North Carolina,35.84326734,-77.10860251,74,4
Martin,Minnesota,43.67429718,-94.55099908,132,5
Martin,Florida,27.0772071,-80.43109784,729,10
Martinsville,Virginia,36.68212094,-79.86352771,38,1
Mason,Kentucky,38.59471935,-83.82151043,10,0
Mason,West Virginia,38.77071799,-82.02524219,15,0
Mason,Illinois,40.23917274,-89.91824452,18,0
Mason,Michigan,43.99509218,-86.24988902,32,0
Mason,Texas,30.71780434,-99.22629416,32,0
Mason,Washington,47.35007586,-123.1863685,36,1
Massac,Illinois,37.22078441,-88.71036614,7,0
Matagorda,Texas,28.81955746,-96.01230294,70,5
Matanuska-Susitna,Alaska,62.31305045,-149.5741743,34,1
Mathews,Virginia,37.44164146,-76.34098896,5,0
Maui,Hawaii,20.86399628,-156.5689097,119,6
Maury,Tennessee,35.6187413,-87.07462444,105,0
Maverick,Texas,28.7429195,-100.3157686,120,1
Mayes,Oklahoma,36.30179091,-95.23175116,30,4
McClain,Oklahoma,35.01123903,-97.44572302,106,3
McCook,South Dakota,43.6742571,-97.36863144,6,1
McCormick,South Carolina,33.90161443,-82.30794338,9,1
McCracken,Kentucky,37.05350953,-88.70445755,99,2
McCreary,Kentucky,36.73874143,-84.48102924,13,0
McCulloch,Texas,31.1925468,-99.34682807,3,0
McCurtain,Oklahoma,34.11664328,-94.77222373,75,1
McDonald,Missouri,36.62869595,-94.34867205,22,0
McDonough,Illinois,40.45674722,-90.67775541,94,13
McDowell,West Virginia,37.38002939,-81.65083669,6,0
McDowell,North Carolina,35.67736232,-82.0482425,82,1
McDuffie,Georgia,33.47851918,-82.48252774,69,5
McHenry,North Dakota,48.23104458,-100.6324822,2,1
McHenry,Illinois,42.32451172,-88.45248227,1628,78
McIntosh,North Dakota,46.11182017,-99.44145858,1,0
McIntosh,Oklahoma,35.37235506,-95.66599306,12,1
McIntosh,Georgia,31.49683595,-81.40163426,16,1
McKean,Pennsylvania,41.80938602,-78.56478358,12,1
McKenzie,North Dakota,47.7413337,-103.395905,17,0
McKinley,New Mexico,35.5800772,-108.262245,2515,119
McLean,North Dakota,47.60766714,-101.3182418,7,0
McLean,Kentucky,37.5301951,-87.26803443,22,1
McLean,Illinois,40.48996987,-88.84621113,224,13
McLennan,Texas,31.55255453,-97.20217694,121,4
McLeod,Minnesota,44.82367677,-94.27287017,37,0
McMinn,Tennessee,35.42812616,-84.61520715,144,14
McNairy,Tennessee,35.17468549,-88.5647812,15,0
McPherson,South Dakota,45.76626028,-99.22118798,1,0
McPherson,Kansas,38.39184858,-97.64769869,30,0
Meade,Kentucky,37.96163597,-86.21028219,22,2
Meade,South Dakota,44.56676791,-102.7162741,22,0
Meade,Kansas,37.23859987,-100.364831,31,0
Meagher,Montana,46.59907074,-110.8898557,1,0
Mecklenburg,Virginia,36.67882005,-78.36131056,219,23
Mecklenburg,North Carolina,35.24469268,-80.8317671,4670,97
Mecosta,Michigan,43.64064262,-85.32463223,21,2
Medina,Texas,29.3557301,-99.11030298,74,2
Medina,Ohio,41.11770589,-81.8998621,366,23
Meeker,Minnesota,45.12328869,-94.52839455,45,0
Meigs,Ohio,39.09224872,-82.0305041,6,0
Meigs,Tennessee,35.51558739,-84.81482914,27,0
Menard,Illinois,40.02742725,-89.80246001,20,0
Mendocino,California,39.4381191,-123.3911313,30,0
Menifee,Kentucky,37.94090733,-83.59985712,10,0
Menominee,Wisconsin,45.00422544,-88.70950714,3,0
Menominee,Michigan,45.58038692,-87.55370409,8,0
Merced,California,37.18922369,-120.7209035,310,7
Mercer,North Dakota,47.31213126,-101.8318399,5,0
Mercer,West Virginia,37.40481169,-81.11023142,13,0
Mercer,Kentucky,37.81474237,-84.87488475,14,0
Mercer,Illinois,41.20596782,-90.74290052,17,0
Mercer,Pennsylvania,41.30248872,-80.25816981,107,5
Mercer,Ohio,40.54043046,-84.62912742,220,7
Mercer,New Jersey,40.28047017,-74.70479631,7033,485
Meriwether,Georgia,33.04163534,-84.68859732,95,2
Merrick,Nebraska,41.16624273,-98.0374887,33,0
Merrimack,New Hampshire,43.29662971,-71.6811573,353,17
Mesa,Colorado,39.01787888,-108.469799,56,0
Metcalfe,Kentucky,36.99459295,-85.63123699,7,1
Miami,Kansas,38.56383358,-94.83832189,8,0
Miami,Indiana,40.76940965,-86.04525048,141,1
Miami,Ohio,40.0543329,-84.22871271,362,30
Miami-Dade,Florida,25.6112362,-80.55170587,18456,731
Michigan Department of Corrections (MDOC),Michigan,,,3970,70
Middlesex,Virginia,37.63191998,-76.55064617,15,0
Middlesex,Connecticut,41.45949668,-72.53714864,1161,152
Middlesex,New Jersey,40.43629879,-74.41426991,16066,1004
Middlesex,Massachusetts,42.48607732,-71.39049229,22403,1676
Midland,Michigan,43.64330771,-84.38804374,82,8
Midland,Texas,31.86904128,-102.0315682,137,13
Mifflin,Pennsylvania,40.61116939,-77.61070738,59,1
Milam,Texas,30.7858183,-96.97718698,29,1
Mille Lacs,Minnesota,45.93705297,-93.63236823,22,1
Miller,Missouri,38.21450288,-92.42610898,4,0
Miller,Georgia,31.16568912,-84.73151117,42,0
Miller,Arkansas,33.31403423,-93.89285258,49,1
Mills,Texas,31.49557106,-98.59272068,1,0
Mills,Iowa,41.03299766,-95.61920963,20,0
Milwaukee,Wisconsin,43.00486062,-87.96733172,8108,315
Miner,South Dakota,44.02197882,-97.60992207,2,0
Mineral,Colorado,37.66954283,-106.9281698,2,0
Mineral,Nevada,38.53841696,-118.4344506,4,0
Mineral,West Virginia,39.41561583,-78.94104895,47,1
Mingo,West Virginia,37.73048351,-82.13338365,8,1
Minidoka,Idaho,42.85518524,-113.6357257,58,0
Minnehaha,South Dakota,43.67441641,-96.7910885,3377,49
Missaukee,Michigan,44.33772443,-85.09256478,16,1
Mississippi,Missouri,36.82516239,-89.29505753,59,0
Mississippi,Arkansas,35.76271485,-90.0519437,78,2
Missoula,Montana,47.03728583,-113.9213508,40,1
Mitchell,Texas,32.30623474,-100.9212058,1,0
Mitchell,Iowa,43.35638371,-92.78887719,4,0
Mitchell,Kansas,39.39331582,-98.20906732,4,0
Mitchell,North Carolina,36.01059309,-82.1582442,15,0
Mitchell,Georgia,31.22483255,-84.19381821,415,32
Mobile,Alabama,30.78472347,-88.20842409,2284,118
Moffat,Colorado,40.61810999,-108.2070876,8,0
Mohave,Arizona,35.70471703,-113.7577902,422,47
Moniteau,Missouri,38.63571781,-92.57976951,48,0
Monmouth,New Jersey,40.26549699,-74.22240686,8332,619
Mono,California,37.93899289,-118.8872409,37,1
Monona,Iowa,42.05220391,-95.95743843,25,0
Monongalia,West Virginia,39.63218457,-80.04766838,135,4
Monroe,Arkansas,34.6815935,-91.20540287,6,0
Monroe,West Virginia,37.56274716,-80.54577965,8,0
Monroe,Wisconsin,43.94641218,-90.618819,18,1
Monroe,Kentucky,36.71225341,-85.71596443,21,0
Monroe,Iowa,41.02988815,-92.8690667,38,5
Monroe,Alabama,31.56729412,-87.36995001,45,2
Monroe,Tennessee,35.44550387,-84.24902965,69,2
Monroe,Ohio,39.72984936,-81.08464734,79,14
Monroe,Illinois,38.27594376,-90.17761038,97,12
Monroe,Florida,25.20904673,-81.07812416,109,4
Monroe,Georgia,33.014289,-83.92097166,124,11
Monroe,Indiana,39.16130004,-86.52414358,170,12
Monroe,Mississippi,33.89236763,-88.4808438,267,25
Monroe,Michigan,41.92734151,-83.53749864,473,20
Monroe,Pennsylvania,41.05934058,-75.34031025,1326,102
Monroe,New York,43.14638895,-77.69322942,3048,216
Montague,Texas,33.67521893,-97.72500958,9,1
Montcalm,Michigan,43.31082541,-85.15252824,67,1
Monterey,California,36.21862405,-121.2413397,586,10
Montezuma,Colorado,37.33859579,-108.5958857,46,3
Montgomery,Arkansas,34.53704874,-93.65824478,2,0
Montgomery,Iowa,41.03018714,-95.15642896,8,1
Montgomery,Missouri,38.94022054,-91.47000721,9,0
Montgomery,Georgia,32.17201038,-82.53527476,13,0
Montgomery,Kansas,37.19236568,-95.74329258,20,2
Montgomery,Kentucky,38.03253032,-83.9145241,25,0
Montgomery,Illinois,39.23198845,-89.47809254,40,1
Montgomery,Virginia,37.17746986,-80.37868691,80,1
Montgomery,Mississippi,33.49419589,-89.61729103,86,1
Montgomery,New York,42.90123494,-74.44011632,94,4
Montgomery,North Carolina,35.33155144,-79.90416657,162,5
Montgomery,Indiana,40.04034823,-86.89335024,244,17
Montgomery,Tennessee,36.49609412,-87.38550661,283,3
Montgomery,Ohio,39.75394919,-84.29050975,695,16
Montgomery,Texas,30.30079133,-95.50572772,1033,26
Montgomery,Alabama,32.2206831,-86.20969272,1823,43
Montgomery,Pennsylvania,40.21053671,-75.36652296,7242,702
Montgomery,Maryland,39.13676329,-77.20358245,11924,633
Montmorency,Michigan,45.0275929,-84.12696227,5,0
Montour,Pennsylvania,41.03023987,-76.66345939,53,0
Montrose,Colorado,38.40214114,-108.2639022,181,12
Moody,South Dakota,44.02266214,-96.67081159,19,0
Moore,Tennessee,35.27724699,-86.36230578,5,0
Moore,North Carolina,35.30885257,-79.48474178,235,10
Moore,Texas,35.83769242,-101.8930281,840,13
Morehouse,Louisiana,32.81686191,-91.80421614,131,5
Morgan,Kentucky,37.92465657,-83.25558245,3,0
Morgan,Ohio,39.62081738,-81.85308173,5,0
Morgan,Missouri,38.4181765,-92.88791859,9,0
Morgan,Tennessee,36.13248031,-84.64880098,17,0
Morgan,West Virginia,39.55439028,-78.26311676,19,0
Morgan,Georgia,33.59232073,-83.49129491,38,0
Morgan,Illinois,39.71654544,-90.20255104,39,1
Morgan,Indiana,39.47899078,-86.44573375,283,24
Morgan,Alabama,34.45500589,-86.85475946,298,1
Morgan,Colorado,40.2627981,-103.8093302,635,45
Morrill,Nebraska,41.71711774,-103.0061405,11,0
Morris,Kansas,38.68827511,-96.65128437,5,0
Morris,Texas,33.11304005,-94.73255695,25,0
Morris,New Jersey,40.86095313,-74.5455371,6540,619
Morrison,Minnesota,46.01265363,-94.27341528,48,0
Morrow,Oregon,45.41846568,-119.584546,12,0
Morrow,Ohio,40.5236356,-82.7892599,107,1
Morton,Kansas,37.19141121,-101.7992519,6,0
Morton,North Dakota,46.71681782,-101.2822377,60,2
Motley,Texas,34.07408766,-100.779722,1,0
Moultrie,Illinois,39.64187451,-88.62099969,12,0
Mountrail,North Dakota,48.20197971,-102.3555315,41,0
Mower,Minnesota,43.67142874,-92.75234549,366,2
Muhlenberg,Kentucky,37.21425819,-87.14632053,479,8
Multnomah,Oregon,45.54747959,-122.4169351,1194,62
Murray,Oklahoma,34.48116015,-97.06826283,5,0
Murray,Minnesota,44.02216709,-95.76328482,39,0
Murray,Georgia,34.78897608,-84.74993177,99,1
Muscatine,Iowa,41.48370744,-91.1121697,563,41
Muscogee,Georgia,32.50931999,-84.87142262,673,18
Muskegon,Michigan,43.29123859,-86.15176712,657,37
Muskingum,Ohio,39.96575964,-81.94363275,52,1
Muskogee,Oklahoma,35.61318461,-95.37802952,60,6
Musselshell,Montana,46.49684637,-108.39498,1,0
Nacogdoches,Texas,31.62017125,-94.61803994,294,21
Nance,Nebraska,41.39750195,-97.99327291,4,0
Napa,California,38.50735751,-122.332839,124,3
Nash,North Carolina,35.96575634,-77.98422508,213,4
Nassau,Florida,30.61037141,-81.80297522,81,1
Nassau,New York,40.74066522,-73.58941873,40644,2130
Natchitoches,Louisiana,31.72321584,-93.09816516,173,13
Natrona,Wyoming,42.96180148,-106.797885,79,0
Navajo,Arizona,35.3997715,-110.3218983,1994,67
Navarro,Texas,32.04620681,-96.47428766,58,2
Nelson,North Dakota,47.9226426,-98.19038437,1,0
Nelson,Virginia,37.78790447,-78.88498513,17,0
Nelson,Kentucky,37.80335779,-85.4657193,44,1
Nemaha,Nebraska,40.38514847,-95.85433992,4,0
Nemaha,Kansas,39.78345387,-96.01392079,19,0
Neosho,Kansas,37.55862897,-95.30670046,2,0
Neshoba,Mississippi,32.75339664,-89.11726492,722,44
Ness,Kansas,38.47974157,-99.91547333,3,0
Nevada,Arkansas,33.66340119,-93.30632432,7,0
Nevada,California,39.30394768,-120.7627281,48,1
New Castle,Delaware,39.57992638,-75.64054974,3903,173
New Hanover,North Carolina,34.25758282,-77.87075626,225,5
New Haven,Connecticut,41.4080325,-72.93620426,11548,990
New Kent,Virginia,37.50694406,-76.99828634,38,1
New London,Connecticut,41.48896435,-72.10430976,1100,92
New Madrid,Missouri,36.59666326,-89.66070007,21,0
New York City,New York,40.7672726,-73.97152637,204872,21688
Newaygo,Michigan,43.554374,-85.80070107,108,0
Newberry,South Carolina,34.28629098,-81.59935761,63,1
Newport,Rhode Island,41.5642026,-71.26569799,244,0
Newport News,Virginia,37.08166899,-76.51754109,292,10
Newton,Arkansas,35.91947491,-93.21612969,3,0
Newton,Texas,30.78548982,-93.74408813,5,0
Newton,Missouri,36.90519407,-94.3394104,21,1
Newton,Indiana,40.95610449,-87.39635768,78,10
Newton,Mississippi,32.40021118,-89.11843336,283,4
Newton,Georgia,33.55514538,-83.8454714,376,11
Nez Perce,Idaho,46.32638236,-116.7500975,82,19
Niagara,New York,43.19898042,-78.74777412,1067,65
Nicholas,Kentucky,38.33342292,-84.01889177,3,0
Nicholas,West Virginia,38.29617706,-80.79759588,9,1
Nicollet,Minnesota,44.35291112,-94.24710352,88,10
Niobrara,Wyoming,43.05607708,-104.4758896,2,0
Noble,Ohio,39.76818851,-81.45937183,6,0
Noble,Oklahoma,36.38953329,-97.22928674,7,0
Noble,Indiana,41.39672484,-85.41966713,251,21
Nobles,Minnesota,43.67434621,-95.75329576,1558,5
Nodaway,Missouri,40.36079813,-94.88133008,14,0
Nolan,Texas,32.30365282,-100.4060208,3,0
Nome,Alaska,64.90320724,-164.0353804,3,0
Norfolk,Virginia,36.89934014,-76.26420872,539,6
Norfolk,Massachusetts,42.16073095,-71.20530408,8613,850
Norman,Minnesota,47.32628443,-96.45620947,14,0
North Slope,Alaska,69.31479216,-153.4836093,1,0
Northampton,North Carolina,36.41736238,-77.39769443,165,14
Northampton,Virginia,37.34062933,-75.87751591,245,23
Northampton,Pennsylvania,40.75182733,-75.30471829,3120,220
Northumberland,Virginia,37.89202088,-76.41949732,25,1
Northumberland,Pennsylvania,40.84785433,-76.70798222,199,3
Northwest Arctic,Alaska,67.04919196,-159.7503946,2,0
Norton,Kansas,39.78443827,-99.90286639,2,0
Norton,Virginia,36.93357076,-82.62750411,2,0
Nottoway,Virginia,37.1435975,-78.05065922,40,0
Nowata,Oklahoma,36.79843529,-95.61902331,23,0
Noxubee,Mississippi,33.11009499,-88.56949061,193,6
Nuckolls,Nebraska,40.17637905,-98.04743961,1,0
Nueces,Texas,27.736286,-97.5433285,280,3
Nye,Nevada,38.04264256,-116.4722702,64,2
O'Brien,Iowa,43.08310673,-95.62474482,36,0
Oakland,Michigan,42.66090111,-83.38595416,8425,1003
Obion,Tennessee,36.35732446,-89.14921589,43,3
Ocean,New Jersey,39.8895449,-74.28089251,8853,755
Oceana,Michigan,43.64124435,-86.26726673,92,2
Ochiltree,Texas,36.27829105,-100.8158184,50,2
Oconee,South Carolina,34.75225169,-83.06742317,55,0
Oconee,Georgia,33.83749973,-83.43679568,119,9
Oconto,Wisconsin,45.02715345,-88.26807503,39,0
Ogemaw,Michigan,44.33481032,-84.12725175,22,1
Oglala Lakota,South Dakota,43.33749164,-102.5555498,32,0
Ogle,Illinois,42.04165196,-89.32184679,214,3
Oglethorpe,Georgia,33.8786296,-83.08278123,63,7
Ohio,Indiana,38.955305,-84.96515993,13,0
Ohio,West Virginia,40.0955451,-80.62203992,47,1
Ohio,Kentucky,37.47751843,-86.85368087,148,0
Okaloosa,Florida,30.69143028,-86.59267105,236,6
Okanogan,Washington,48.54855019,-119.7387224,52,1
Okeechobee,Florida,27.3863362,-80.88944347,97,0
Okfuskee,Oklahoma,35.46485198,-96.32639984,5,0
Oklahoma,Oklahoma,35.55140095,-97.40716948,1309,62
Okmulgee,Oklahoma,35.64661916,-95.96432828,25,0
Oktibbeha,Mississippi,33.42491685,-88.87905132,267,14
Oldham,Texas,35.40425596,-102.6027606,4,1
Oldham,Kentucky,38.39791089,-85.448222,103,5
Oliver,North Dakota,47.11530482,-101.3406158,1,0
Olmsted,Minnesota,44.00374114,-92.40209944,654,11
Oneida,Wisconsin,45.70677897,-89.51944105,11,0
Oneida,New York,43.24375382,-75.43710392,1058,49
Onondaga,New York,43.00491923,-76.19971155,2256,139
Onslow,North Carolina,34.72607366,-77.42908179,114,2
Ontario,New York,42.85145728,-77.30874425,215,9
Orange,Vermont,44.00470222,-72.37640104,9,0
Orange,Texas,30.11879481,-93.89412775,98,2
Orange,Virginia,38.24530219,-78.015604,111,1
Orange,Indiana,38.5411892,-86.49523093,131,22
Orange,North Carolina,36.06092947,-79.12167935,364,40
Orange,Florida,28.51367621,-81.31799498,2121,41
Orange,California,33.70147516,-117.7645998,6678,158
Orange,New York,41.40337468,-74.30240757,10460,444
Orangeburg,South Carolina,33.4391073,-80.79886287,210,3
Oregon,Missouri,36.68710164,-91.4033755,2,0
Orleans,Vermont,44.82964024,-72.24562697,10,0
Orleans,New York,43.2516977,-78.2320066,246,37
Orleans,Louisiana,30.06971951,-89.92660315,7174,509
Osage,Missouri,38.46036182,-91.8613635,5,0
Osage,Kansas,38.65235984,-95.72707998,8,0
Osage,Oklahoma,36.62888819,-96.39635704,96,8
Osborne,Kansas,39.3503437,-98.76753828,2,0
Osceola,Michigan,43.98992088,-85.32566756,12,0
Osceola,Iowa,43.37824276,-95.62422844,34,0
Osceola,Florida,28.06312234,-81.14882926,715,20
Oscoda,Michigan,44.68192279,-84.12939244,5,1
Oswego,New York,43.42778894,-76.14635194,112,3
Otero,Colorado,37.9014485,-103.7173385,20,1
Otero,New Mexico,32.61348406,-105.7417604,22,3
Otoe,Nebraska,40.64843556,-96.13374142,7,0
Otsego,New York,42.63492579,-75.03151402,73,5
Otsego,Michigan,45.02085831,-84.59898295,102,10
Ottawa,Kansas,39.13237408,-97.65020313,4,0
Ottawa,Oklahoma,36.83532655,-94.81011909,35,2
Ottawa,Ohio,41.53781826,-83.0940185,102,17
Ottawa,Michigan,42.95996803,-85.9969107,797,36
Otter Tail,Minnesota,46.40846929,-95.70835255,71,0
Ouachita,Arkansas,33.58839816,-92.87795984,10,0
Ouachita,Louisiana,32.47645559,-92.15704172,1312,48
Ouray,Colorado,38.14717457,-107.7675136,8,1
Out of GA,Georgia,,,2183,31
Out of HI,Hawaii,,,10,0
Out of IL,Illinois,,,120,1
Out of MI,Michigan,,,45,0
Out of TN,Tennessee,,,426,4
Outagamie,Wisconsin,44.41578887,-88.46565023,239,8
Overton,Tennessee,36.34117832,-85.28989535,32,0
Owen,Kentucky,38.51679143,-84.82404619,3,0
Owen,Indiana,39.31145587,-86.83900724,34,1
Owsley,Kentucky,37.42823949,-83.68811419,2,0
Owyhee,Idaho,42.58016894,-116.1693871,8,0
Oxford,Maine,44.49952995,-70.75682123,33,0
Ozaukee,Wisconsin,43.38352225,-87.94625009,170,13
Pacific,Washington,46.55418369,-123.7285716,9,1
Page,Iowa,40.7393172,-95.1497813,14,0
Page,Virginia,38.61807452,-78.48797204,231,24
Palm Beach,Florida,26.64676272,-80.46536002,6477,359
Palo Alto,Iowa,43.08193849,-94.67824621,7,0
Palo Pinto,Texas,32.75310985,-98.31319001,13,2
Pamlico,North Carolina,35.15253315,-76.66559823,10,0
Panola,Mississippi,34.36398677,-89.95064249,85,3
Panola,Texas,32.1639596,-94.30552481,199,23
Park,Wyoming,44.52157546,-109.5852825,2,0
Park,Montana,45.48965095,-110.5264394,8,0
