county,state,Lat,Long_,Confirmed,Deaths
New York City,New York,40.7672726,-73.97152637,191600,20576
Cook,Illinois,41.84144849,-87.81658794,61212,2814
Nassau,New York,40.74066522,-73.58941873,39033,2034
Suffolk,New York,40.88320119,-72.8012172,37942,1733
Los Angeles,California,34.30828379,-118.2282411,37360,1793
Westchester,New York,41.16278376,-73.75741653,32097,1275
Philadelphia,Pennsylvania,40.00338507,-75.1379271,19606,1031
Wayne,Michigan,42.28098405,-83.281255,19016,2212
Middlesex,Massachusetts,42.48607732,-71.39049229,18883,1370
Hudson,New Jersey,40.73766234,-74.07515667,18048,1045
Bergen,New Jersey,40.96010917,-74.07164325,17246,1450
Suffolk,Massachusetts,42.3279514,-71.07850442,16346,778
Essex,New Jersey,40.78681335,-74.24657979,16151,1534
Miami-Dade,Florida,25.6112362,-80.55170587,15366,559
Passaic,New Jersey,41.03238628,-74.29954144,15031,831
Union,New Jersey,40.65835409,-74.30680092,14569,946
Middlesex,New Jersey,40.43629879,-74.41426991,14514,872
Fairfield,Connecticut,41.26809896,-73.3881171,14140,1125
Rockland,New York,41.15027894,-74.02560498,12688,602
Essex,Massachusetts,42.6687626,-70.94687179,12314,766
Prince George's,Maryland,38.83070039,-76.8496441,11031,420
New Haven,Connecticut,41.4080325,-72.93620426,10075,800
Orange,New York,41.40337468,-74.30240757,9879,408
Harris,Texas,29.86,-95.39,9126,204
Providence,Rhode Island,41.87064746,-71.57753536,9112,0
Worcester,Massachusetts,42.35026951,-71.90493363,9067,554
Hartford,Connecticut,41.80283011,-72.73103891,8299,1044
Marion,Indiana,39.78163624,-86.13826325,8151,474
Oakland,Michigan,42.66090111,-83.38595416,8023,910
Montgomery,Maryland,39.13676329,-77.20358245,7988,461
Ocean,New Jersey,39.8895449,-74.28089251,7878,617
King,Washington,47.49137892,-121.8346131,7426,526
Norfolk,Massachusetts,42.16073095,-71.20530408,7412,719
Fairfax,Virginia,38.83677558,-77.27565836,7386,278
Monmouth,New Jersey,40.26549699,-74.22240686,7297,503
Dallas,Texas,32.76670599,-96.7779605,7250,170
Maricopa,Arizona,33.34835867,-112.4918154,7096,319
Washington,D.C.,38.90417773,-77.01655992,7042,375
Plymouth,Massachusetts,41.94070556,-70.80802823,6987,455
Jefferson,Louisiana,29.74075478,-90.11115756,6982,427
Orleans,Louisiana,30.06971951,-89.92660315,6781,495
Lake,Illinois,42.3224907,-88.00367925,6382,209
Macomb,Michigan,42.69158356,-82.92752801,6304,739
Broward,Florida,26.15184651,-80.48725556,6201,278
Morris,New Jersey,40.86095313,-74.5455371,6012,561
Montgomery,Pennsylvania,40.21053671,-75.36652296,5797,614
DuPage,Illinois,41.85116968,-88.08642662,5780,293
Bristol,Massachusetts,41.79228404,-71.10872211,5748,313
Mercer,New Jersey,40.28047017,-74.70479631,5719,396
San Diego,California,33.03484597,-116.7365326,5662,209
Riverside,California,33.74314981,-115.9933578,5618,242
Delaware,Pennsylvania,39.91680171,-75.40243663,5555,478
Camden,New Jersey,39.80343818,-74.96388753,5381,268
Clark,Nevada,36.21458855,-115.0130241,5298,293
Hampden,Massachusetts,42.13440424,-72.63235561,5133,506
Hennepin,Minnesota,45.00761521,-93.47694895,4930,454
Erie,New York,42.76249024,-78.73063652,4867,420
Milwaukee,Wisconsin,43.00486062,-87.96733172,4759,252
Baltimore,Maryland,39.45784712,-76.62911955,4549,240
Denver,Colorado,39.76018276,-104.8725695,4548,261
Palm Beach,Florida,26.64676272,-80.46536002,4440,275
Franklin,Ohio,39.96995815,-83.01115755,4420,169
Bucks,Pennsylvania,40.33682119,-75.10836643,4391,421
Will,Illinois,41.44619267,-87.97862712,4312,240
Tarrant,Texas,32.77143818,-97.29101614,4266,120
Kane,Illinois,41.93842729,-88.42861412,4263,109
St. Louis,Missouri,38.6377004,-90.4458375,4236,329
Orange,California,33.70147516,-117.7645998,4222,86
Somerset,New Jersey,40.56465737,-74.61683016,4212,363
Burlington,New Jersey,39.87681124,-74.66927768,3875,239
Davidson,Tennessee,36.17007426,-86.78646056,3872,41
Salt Lake,Utah,40.66616532,-111.9216011,3785,53
Fulton,Georgia,33.79216944,-84.46319413,3749,165
Baltimore City,Maryland,39.30211911,-76.61151012,3719,200
Shelby,Tennessee,35.1864775,-89.89692423,3681,85
Sussex,Delaware,38.66143781,-75.39031349,3658,112
Arapahoe,Colorado,39.64977461,-104.3353617,3652,244
Berks,Pennsylvania,40.41570541,-75.92457766,3643,208
Prince William,Virginia,38.70916224,-77.48713689,3563,69
Dutchess,New York,41.7648606,-73.74356679,3527,120
San Bernardino,California,34.84060306,-116.1774685,3463,155
Lehigh,Pennsylvania,40.6154815,-75.59435245,3440,139
Cuyahoga,Ohio,41.424119,-81.65918339,3223,163
Minnehaha,South Dakota,43.67441641,-96.7910885,3119,39
East Baton Rouge,Louisiana,30.53842039,-91.09777565,3009,208
Polk,Iowa,41.68679484,-93.57767461,2845,78
Lake,Indiana,41.41874274,-87.38277575,2812,140
Anne Arundel,Maryland,39.00670238,-76.60329337,2801,141
DeKalb,Georgia,33.76944049,-84.22396017,2800,81
Snohomish,Washington,48.04615983,-121.7170703,2773,125
Kent,Michigan,43.03197711,-85.54934642,2766,54
New Castle,Delaware,39.57992638,-75.64054974,2667,121
Northampton,Pennsylvania,40.75182733,-75.30471829,2659,196
Gwinnett,Georgia,33.96044201,-84.02137802,2597,102
Adams,Colorado,39.87432092,-104.3362578,2575,102
Luzerne,Pennsylvania,41.17823008,-75.98447579,2513,127
Mecklenburg,North Carolina,35.24469268,-80.8317671,2504,63
Lancaster,Pennsylvania,40.03904563,-76.24770128,2470,253
Marion,Ohio,40.58610662,-83.15736305,2449,15
Travis,Texas,30.33432034,-97.7853562,2425,77
Santa Clara,California,37.23104908,-121.6970462,2418,135
Cobb,Georgia,33.94243204,-84.5761255,2407,132
Alameda,California,37.64629437,-121.8929271,2351,83
Douglas,Nebraska,41.29518299,-96.15085305,2305,14
Weld,Colorado,40.55499405,-104.3929621,2281,123
Michigan Department of Corrections (MDOC),Michigan,,,2227,56
Yakima,Washington,46.45738486,-120.7380126,2217,74
Monroe,New York,43.14638895,-77.69322942,2192,167
Woodbury,Iowa,42.38979414,-96.0459439,2157,16
Hall,Georgia,34.32207823,-83.81896936,2146,40
Bexar,Texas,29.44928723,-98.52019748,2120,62
Chester,Pennsylvania,39.97291773,-75.74768357,2100,220
Potter,Texas,35.40133773,-101.893964,2080,23
Brown,Wisconsin,44.4526553,-88.00411844,2070,22
San Francisco,California,37.75215114,-122.4385672,2054,36
Pickaway,Ohio,39.64170392,-83.0243386,2011,25
Hamilton,Ohio,39.19673558,-84.54502924,2007,111
Lucas,Ohio,41.62101218,-83.65468618,1945,203
Jefferson,Kentucky,38.18664655,-85.65931031,1865,117
Caddo,Louisiana,32.57991587,-93.88375652,1864,155
McKinley,New Mexico,35.5800772,-108.262245,1864,73
Genesee,Michigan,43.02244215,-83.70589709,1845,230
Gloucester,New Jersey,39.71581067,-75.13995546,1811,113
Jefferson,Colorado,39.58635604,-105.2517692,1800,122
Pima,Arizona,32.0971334,-111.7890033,1781,157
Hillsborough,New Hampshire,42.91537785,-71.7200253,1723,54
Atlantic,New Jersey,39.47538693,-74.65848483,1716,110
Mobile,Alabama,30.78472347,-88.20842409,1681,100
Stearns,Minnesota,45.55192576,-94.61078221,1675,10
Dougherty,Georgia,31.53328528,-84.21722377,1662,134
El Paso,Texas,31.76980765,-106.2363275,1655,45
Pierce,Washington,47.03892768,-122.1405958,1654,62
St. Louis City,Missouri,38.63555736,-90.24349225,1631,96
Orange,Florida,28.51367621,-81.31799498,1629,38
San Mateo,California,37.4228808,-122.3275546,1602,66
Allegheny,Pennsylvania,40.46809875,-79.98167747,1595,143
Cumberland,New Jersey,39.37199394,-75.10712559,1592,49
Hillsborough,Florida,27.9276559,-82.32013172,1585,51
Albany,New York,42.60060306,-73.97723916,1572,68
Black Hawk,Iowa,42.4704581,-92.30524729,1571,29
Arlington,Virginia,38.8767675,-77.10139853,1560,74
Out of GA,Georgia,,,1557,25
Cass,Indiana,40.76135835,-86.34830753,1553,5
Ulster,New York,41.89027881,-74.26252104,1537,64
St. Tammany,Louisiana,30.40942847,-89.95642711,1528,142
Fort Bend,Texas,29.52704478,-95.77219463,1510,40
Kern,California,35.34329425,-118.7277796,1473,25
Utah,Utah,40.1166722,-111.6657662,1471,11
Onondaga,New York,43.00491923,-76.19971155,1469,90
Alexandria,Virginia,38.814003,-77.08183073,1460,34
Dakota,Nebraska,42.39040144,-96.56656425,1454,3
Winnebago,Illinois,42.33641854,-89.16085327,1436,34
Loudoun,Virginia,39.08990083,-77.63481877,1430,48
Tulare,California,36.22026558,-118.8020203,1426,67
Hall,Nebraska,40.87257079,-98.50218293,1424,28
Santa Barbara,California,34.65329488,-120.0188492,1418,11
Ramsey,Minnesota,45.01625271,-93.09872295,1416,67
Frederick,Maryland,39.47296601,-77.39999394,1402,89
Lee,Florida,26.58410348,-81.88399313,1401,79
Trousdale,Tennessee,36.39026213,-86.16087954,1382,4
Nobles,Minnesota,43.67434621,-95.75329576,1353,2
Howard,Maryland,39.25305293,-76.93126208,1352,43
Lackawanna,Pennsylvania,41.43564672,-75.60379201,1327,147
San Juan,New Mexico,36.50838318,-108.320437,1316,85
Ford,Kansas,37.69200114,-99.88825298,1311,8
Jefferson,Alabama,33.55554728,-86.895063,1299,73
El Paso,Colorado,38.83240149,-104.5251411,1291,83
Duval,Florida,30.33225875,-81.66976468,1259,34
Monroe,Pennsylvania,41.05934058,-75.34031025,1248,70
Washtenaw,Michigan,42.253105,-83.83853204,1241,88
Navajo,Arizona,35.3997715,-110.3218983,1238,48
Finney,Kansas,38.04340344,-100.7381938,1234,5
Litchfield,Connecticut,41.7937534,-73.2451475,1234,116
Henrico,Virginia,37.53460572,-77.39326555,1226,113
Richland,South Carolina,34.01791263,-80.90267209,1222,60
Sacramento,California,38.45106826,-121.3425374,1222,54
Sullivan,New York,41.71579493,-74.76394559,1217,25
Mahoning,Ohio,41.01631101,-80.77287029,1199,146
Wake,North Carolina,35.78879266,-78.65249174,1199,28
Bernalillo,New Mexico,35.05163625,-106.6703554,1194,56
Washoe,Nevada,40.66562265,-119.6631594,1190,46
Kent,Delaware,39.08646628,-75.56884914,1176,52
Fresno,California,36.75733899,-119.6466953,1156,16
McHenry,Illinois,42.32451172,-88.45248227,1156,62
Wyandotte,Kansas,39.11727348,-94.76378225,1153,70
Barnstable,Massachusetts,41.72980578,-70.28854339,1147,90
Putnam,New York,41.42630093,-73.74965532,1127,57
Contra Costa,California,37.91923498,-121.9289527,1121,33
Cass,North Dakota,46.93201724,-97.2444719,1106,26
Rockingham,New Hampshire,42.98499744,-71.12883377,1095,53
Warren,New Jersey,40.85951833,-74.99556527,1077,118
Oklahoma,Oklahoma,35.55140095,-97.40716948,1070,46
Greenville,South Carolina,34.89502264,-82.37295012,1058,46
Sussex,New Jersey,41.13891592,-74.69118243,1053,137
Denton,Texas,33.20521901,-97.11691153,1040,28
Hendricks,Indiana,39.76719009,-86.51037283,1020,60
Collin,Texas,33.18820114,-96.57264368,1008,31
Pinellas,Florida,27.93130349,-82.72239666,1008,67
Racine,Wisconsin,42.74753117,-88.05941254,1004,18
Clayton,Georgia,33.54187245,-84.35594188,1002,38
Hamilton,Indiana,40.07306535,-86.05244729,1001,90
Summit,Ohio,41.12464734,-81.53123079,995,110
Allen,Indiana,41.09194313,-85.06800636,985,61
Durham,North Carolina,36.03638492,-78.87608331,980,37
Johnson,Indiana,39.48994426,-86.10149107,980,94
Multnomah,Oregon,45.54747959,-122.4169351,979,55
Chesterfield,Virginia,37.37373208,-77.5868014,978,29
Apache,Arizona,35.39465006,-109.4892383,962,20
Leavenworth,Kansas,39.20183497,-95.03620809,958,6
Lincoln,Arkansas,33.95317155,-91.74002806,955,8
St. Joseph,Indiana,41.61756781,-86.29040834,947,28
Dauphin,Pennsylvania,40.41377078,-76.77993242,938,39
Ouachita,Louisiana,32.47645559,-92.15704172,931,31
Collier,Florida,26.11091986,-81.34687065,923,37
Saginaw,Michigan,43.33433923,-84.0513121,903,97
Middlesex,Connecticut,41.45949668,-72.53714864,898,124
Linn,Iowa,42.07923082,-91.59809485,892,70
Kent,Rhode Island,41.67106337,-71.57641596,883,0
Lebanon,Pennsylvania,40.36680311,-76.45651841,873,19
Kansas City,Missouri,39.0997,-94.5786,863,18
New London,Connecticut,41.48896435,-72.10430976,860,65
Rutherford,Tennessee,35.84591405,-86.4107263,847,19
Charles,Maryland,38.51092331,-76.98580666,844,62
Coconino,Arizona,35.83883429,-111.7707178,839,64
Boulder,Colorado,40.09313619,-105.3546767,835,59
York,Pennsylvania,39.9210089,-76.73040131,835,15
Manatee,Florida,27.47196942,-82.31831044,834,81
St. John the Baptist,Louisiana,30.12597499,-90.4753503,829,77
Marion,Oregon,44.90287942,-122.5815117,824,23
Cumberland,Maine,43.8370751,-70.37226999,821,35
Kenosha,Wisconsin,42.57639354,-88.04051686,820,18
Wayne,North Carolina,35.36438125,-78.00027268,819,15
Montgomery,Alabama,32.2206831,-86.20969272,816,20
Dawson,Nebraska,40.87028216,-99.8201461,804,0
Wicomico,Maryland,38.37301947,-75.62705831,801,20
Montgomery,Texas,30.30079133,-95.50572772,798,18
Hunterdon,New Jersey,40.56335249,-74.91284156,795,49
Lancaster,Nebraska,40.78416049,-96.68777155,791,1
Imperial,California,33.0393082,-115.3669042,786,15
St. Clair,Illinois,38.46996033,-89.93063427,783,65
Marshall,Iowa,42.03586837,-92.9990819,778,5
Guilford,North Carolina,36.07959451,-79.78824948,776,47
Tulsa,Oklahoma,36.11939621,-95.94013939,776,37
Warren,Kentucky,36.99903045,-86.42672751,776,2
Ada,Idaho,43.4526575,-116.2415516,773,22
Dallas,Iowa,41.68560356,-94.04127625,773,10
Anoka,Minnesota,45.27476015,-93.24604565,770,40
Niagara,New York,43.19898042,-78.74777412,770,50
Hinds,Mississippi,32.2656285,-90.44435448,768,22
Ventura,California,34.44465746,-119.0910613,764,25
Seward,Kansas,37.19324632,-100.8507201,758,1
Ascension,Louisiana,30.20406249,-90.9132841,752,49
Hampshire,Massachusetts,42.33997957,-72.65898478,751,69
Oneida,New York,43.24375382,-75.43710392,751,31
Richmond City,Virginia,37.53255773,-77.47966921,741,18
Lafourche,Louisiana,29.52470226,-90.40976986,738,63
Sumner,Tennessee,36.46824103,-86.45917204,737,41
Polk,Florida,27.95027105,-81.69732947,722,41
Brazoria,Texas,29.18757369,-95.44563172,721,9
Tangipahoa,Louisiana,30.62888673,-90.40664996,719,31
Kalamazoo,Michigan,42.24542231,-85.53038622,708,42
Cherokee,Georgia,34.24393976,-84.47431861,700,24
Galveston,Texas,29.40167322,-94.90469073,696,31
St. Charles,Missouri,38.77875681,-90.66662425,688,52
Pulaski,Arkansas,34.77054088,-92.31355101,683,23
Escambia,Florida,30.67652764,-87.37284571,682,20
Harford,Maryland,39.55010644,-76.3077594,678,33
Pinal,Arizona,32.90525627,-111.3449483,678,31
San Joaquin,California,37.93433732,-121.2730061,670,31
Accomack,Virginia,37.76707161,-75.63234615,668,9
Dakota,Minnesota,44.67172617,-93.06299363,666,18
Texas,Oklahoma,36.74777635,-101.4889765,658,4
Kankakee,Illinois,41.13746989,-87.86205334,657,31
Ingham,Michigan,42.59716886,-84.37472069,643,21
Johnson,Kansas,38.88548175,-94.82250877,642,56
Elkhart,Indiana,41.59761169,-85.85875695,638,23
Douglas,Colorado,39.33133796,-104.930001,637,38
Tolland,Connecticut,41.85853803,-72.3308481,636,51
Carroll,Maryland,39.56453592,-77.02373735,633,66
Harrisonburg,Virginia,38.43542574,-78.87536254,631,21
Henry,Georgia,33.4533428,-84.1481466,630,18
Washington,Oregon,45.55972701,-123.0955257,628,15
Benton,Washington,46.23946995,-119.5120834,627,55
Forsyth,North Carolina,36.12859861,-80.25459052,627,7
Marshall,Alabama,34.36975964,-86.30486727,624,9
Cameron,Texas,26.14524221,-97.48140372,619,27
Lubbock,Texas,33.61008596,-101.8204789,616,50
Osceola,Florida,28.06312234,-81.14882926,616,17
Schenectady,New York,42.81668777,-74.05278291,613,28
St. Charles,Louisiana,29.90709658,-90.35555967,613,41
Bledsoe,Tennessee,35.59942968,-85.20611967,607,1
Franklin,Pennsylvania,39.92956518,-77.72157791,601,13
Randall,Texas,34.96585996,-101.8971322,593,4
Volusia,Florida,29.05858895,-81.18263252,591,30
Lorain,Ohio,41.29553751,-82.15083537,589,57
Butler,Ohio,39.44012838,-84.57388716,578,16
Lafayette,Louisiana,30.2049055,-92.06959876,578,23
Lauderdale,Mississippi,32.40419769,-88.66229662,578,45
Manassas,Virginia,38.7464321,-77.48509905,574,5
Eagle,Colorado,39.62754308,-106.6933637,570,8
Rock Island,Illinois,41.46613806,-90.57042164,570,18
Johnson,Iowa,41.67169354,-91.58754744,567,7
Terrebonne,Louisiana,29.37343766,-90.82626855,567,43
Stanislaus,California,37.55862499,-120.9970722,559,24
Morgan,Colorado,40.2627981,-103.8093302,557,29
Stark,Ohio,40.81482476,-81.36437305,553,74
Fayette,Kentucky,38.0368225,-84.45576892,550,12
Moore,Texas,35.83769242,-101.8930281,544,11
Kendall,Illinois,41.59081014,-88.42869583,543,17
Virginia Beach,Virginia,36.73285734,-76.04566934,539,19
Madison,Indiana,40.16143691,-85.71964711,538,57
Sedgwick,Kansas,37.6842718,-97.4608198,534,20
Robeson,North Carolina,34.64244496,-79.1025053,531,12
Madison,Mississippi,32.63389156,-90.03513564,526,17
Rowan,North Carolina,35.64003916,-80.52446628,525,26
Iberville,Louisiana,30.25734305,-91.3499598,524,38
Muscatine,Iowa,41.48370744,-91.1121697,524,32
Scott,Mississippi,32.4067041,-89.53789439,521,6
Dane,Wisconsin,43.06601594,-89.41733797,519,25
Florence,South Carolina,34.02361754,-79.70189312,519,27
Beaver,Pennsylvania,40.6825484,-80.34921611,518,83
Ottawa,Michigan,42.95996803,-85.9969107,518,24
Cumberland,Pennsylvania,40.1625372,-77.26130755,515,48
Calcasieu,Louisiana,30.22931235,-93.35400434,514,40
Schuylkill,Pennsylvania,40.70497338,-76.2150785,512,15
St. Bernard,Louisiana,29.87761636,-89.51887093,511,18
Lexington,South Carolina,33.89665987,-81.27146426,509,26
Blaine,Idaho,43.4085812,-113.9752658,508,5
Colfax,Nebraska,41.57486951,-97.0868542,508,0
Buchanan,Missouri,39.65816401,-94.80138942,506,2
Charleston,South Carolina,32.82487866,-79.96512315,506,10
Chatham,North Carolina,35.70394416,-79.25541492,504,24
Berrien,Michigan,41.95447397,-86.4131308,500,28
Cape May,New Jersey,39.15008829,-74.80170244,500,41
Montgomery,Ohio,39.75394919,-84.29050975,500,13
Sarasota,Florida,27.18546175,-82.33174248,498,58
Berkshire,Massachusetts,42.37428441,-73.20524838,495,37
Richmond,Georgia,33.35777107,-82.07026432,490,17
Sandoval,New Mexico,35.68862401,-106.8687803,488,23
Larimer,Colorado,40.66671597,-105.4625784,485,21
Logan,Colorado,40.7249637,-103.110817,485,3
Madison,Illinois,38.83042506,-89.90422563,481,39
Williamson,Tennessee,35.89099229,-86.89281867,471,10
Webb,Texas,27.7610369,-99.33237355,469,17
Muskegon,Michigan,43.29123859,-86.15176712,468,23
Waukesha,Wisconsin,43.01833055,-88.30431188,467,23
Cleveland,Oklahoma,35.20413532,-97.32519562,466,36
Muhlenberg,Kentucky,37.21425819,-87.14632053,465,7
Cumberland,North Carolina,35.04762133,-78.82623165,463,12
Williamson,Texas,30.64655664,-97.6004854,463,19
Pike,Pennsylvania,41.33155042,-75.03208106,460,22
Stafford,Virginia,38.41758738,-77.45917053,458,4
Salem,New Jersey,39.58719656,-75.3469663,457,19
Lee,Alabama,32.60154883,-85.35132246,448,31
Platte,Nebraska,41.57246836,-97.52144359,448,0
Trumbull,Ohio,41.31735028,-80.76109643,447,38
Kenton,Kentucky,38.93950319,-84.53241199,444,30
Franklin,Washington,46.53351425,-118.9018212,441,17
Douglas,Georgia,33.70291126,-84.77026156,438,15
Randolph,North Carolina,35.71015088,-79.80570339,438,6
Rensselaer,New York,42.71348136,-73.51089874,438,23
Rapides,Louisiana,31.19778499,-92.52997303,437,14
Jefferson,Texas,29.8832777,-94.16434171,436,26
Olmsted,Minnesota,44.00374114,-92.40209944,435,9
Chittenden,Vermont,44.46322849,-73.08359212,434,37
Jackson,Missouri,39.01002188,-94.34724536,432,16
Seminole,Florida,28.7158582,-81.24060348,431,12
Hidalgo,Texas,26.39418217,-98.18299696,425,10
Skagit,Washington,48.48171488,-121.766131,425,14
Washington,Rhode Island,41.45961631,-71.61435303,425,0
Muscogee,Georgia,32.50931999,-84.87142262,424,15
Saratoga,New York,43.10904162,-73.86653895,423,11
Westmoreland,Pennsylvania,40.3137798,-79.46615476,423,32
Rock,Wisconsin,42.67151616,-89.071479,422,14
Monroe,Michigan,41.92734151,-83.53749864,420,18
Forrest,Mississippi,31.18961454,-89.25832496,416,26
Jackson,Michigan,42.24807035,-84.42258681,416,26
Columbiana,Ohio,40.76932373,-80.78094576,415,43
Honolulu,Hawaii,21.45803166,-157.9712182,415,11
Sumter,Georgia,32.03650571,-84.19821492,415,39
Habersham,Georgia,34.63331566,-83.53094677,414,16
Broome,New York,42.15903158,-75.81326086,413,28
Saline,Nebraska,40.52418865,-97.14085859,413,0
Buckingham,Virginia,37.57242268,-78.52518834,411,2
Solano,California,38.26827353,-121.9357113,410,16
Carroll,Georgia,33.58138199,-85.07976677,409,20
Bartholomew,Indiana,39.20744865,-85.89558181,408,30
St. Clair,Michigan,42.92655373,-82.67937954,408,30
Kandiyohi,Minnesota,45.1526059,-95.00586446,405,1
Walker,Texas,30.73872995,-95.57440968,405,19
Wilkes,North Carolina,36.2084135,-81.16232895,405,1
Tipton,Tennessee,35.501942,-89.73694895,403,2
Lake,Tennessee,36.3418017,-89.48921915,401,0
Clark,Indiana,38.48015445,-85.70510334,400,30
Summit,Utah,40.86688146,-110.9535882,400,0
Forsyth,Georgia,34.22604035,-84.1231513,398,11
Shelby,Alabama,33.26879845,-86.66232561,398,19
Neshoba,Mississippi,32.75339664,-89.11726492,397,21
Spokane,Washington,47.62113146,-117.4046494,396,30
Bibb,Georgia,32.80904227,-83.70489165,394,15
Mitchell,Georgia,31.22483255,-84.19381821,388,32
Porter,Indiana,41.45986947,-87.06848888,388,10
Rockingham,Virginia,38.51006137,-78.87260325,387,2
Clark,Washington,45.77568046,-122.4829204,386,22
Bartow,Georgia,34.23732119,-84.83887523,385,35
DeSoto,Mississippi,34.87625235,-89.99091418,384,5
Livingston,Michigan,42.60302282,-83.91297209,383,25
Spartanburg,South Carolina,34.92960077,-81.99225984,383,13
Chesapeake,Virginia,36.67670048,-76.30545744,380,10
Cabarrus,North Carolina,35.3877799,-80.55267168,372,20
Kings,California,36.07409056,-119.8159973,372,2
Charlotte,Florida,26.90131002,-81.92949121,370,41
Duplin,North Carolina,34.93449805,-77.93140529,368,11
Champaign,Illinois,40.13919438,-88.20046615,366,7
Culpeper,Virginia,38.48199985,-77.9563087,365,5
Sonoma,California,38.52746429,-122.8862506,364,4
Davis,Utah,40.99001837,-112.1139997,363,2
Washington,Louisiana,30.85288548,-90.03866652,363,32
Yuma,Arizona,32.76895712,-113.9066674,363,4
Jefferson,Arkansas,34.26767081,-91.92619839,362,19
Wapello,Iowa,41.03064984,-92.40954728,360,2
Brevard,Florida,28.29409504,-80.73091022,359,10
Tallapoosa,Alabama,32.86698258,-85.79833053,357,57
Chatham,Georgia,32.00043026,-81.12489526,356,14
LaPorte,Indiana,41.54366008,-86.74072188,355,14
Tama,Iowa,42.07991767,-92.53266945,354,16
Iberia,Louisiana,29.86803617,-91.75871777,353,32
Leake,Mississippi,32.7536828,-89.52402044,352,6
Union,North Carolina,34.98960527,-80.52955873,351,17
Norfolk,Virginia,36.89934014,-76.26420872,350,5
Crawford,Iowa,42.03718237,-95.3819718,348,1
Whatcom,Washington,48.82227976,-121.7490018,347,35
Tuscaloosa,Alabama,33.28726072,-87.52556818,345,8
Lee,Georgia,31.7793306,-84.14324253,344,23
Livingston,Louisiana,30.44143993,-90.73061664,344,24
Bossier,Louisiana,32.67932307,-93.60460152,342,23
Hamilton,Tennessee,35.17670231,-85.16652245,342,13
Out of TN,Tennessee,,,340,4
Columbia,New York,42.24819348,-73.63089095,338,26
Columbia,Pennsylvania,41.04821986,-76.40565017,336,33
St. Francis,Arkansas,35.02201976,-90.74828138,335,0
Washington,Maryland,39.60835778,-77.82002295,332,9
Sarpy,Nebraska,41.11314181,-96.11156432,331,1
Alachua,Florida,29.67866525,-82.35928158,329,7
Franklin,Alabama,34.44235334,-87.84289505,329,4
Chambers,Alabama,32.91360079,-85.39072749,328,22
Miami,Ohio,40.0543329,-84.22871271,327,30
Jefferson,Missouri,38.25926778,-90.53870896,326,14
Washington,Minnesota,45.03864533,-92.88429635,326,18
Monterey,California,36.21862405,-121.2413397,322,8
Jackson,Indiana,38.9091582,-86.03851889,320,1
Jones,Mississippi,31.62257767,-89.168969,319,8
Belmont,Ohio,40.01625942,-80.9924051,318,8
Twin Falls,Idaho,42.35440512,-114.6685381,318,14
Wilson,Tennessee,36.15496772,-86.29775884,318,8
Boone,Kentucky,38.97065142,-84.72615357,316,8
St. Lucie,Florida,27.37763908,-80.47106649,316,27
Grand Forks,North Dakota,47.92093639,-97.45450447,315,3
Pasco,Florida,28.30810945,-82.40227529,314,9
Clay,Florida,29.98319144,-81.85609986,313,25
Houston,Georgia,32.45802497,-83.66879087,313,16
Sumter,South Carolina,33.91826534,-80.37942316,313,16
Brazos,Texas,30.6636448,-96.30205577,312,18
Lyon,Kansas,38.45576156,-96.15275715,310,3
Cecil,Maryland,39.56647682,-75.94627411,308,17
Lee,North Carolina,35.47623147,-79.17569362,308,3
Louisa,Iowa,41.21842119,-91.26102611,306,3
St. Mary's,Maryland,38.30058422,-76.6062928,306,10
Franklin,Massachusetts,42.58119713,-72.58602547,304,44
Sangamon,Illinois,39.75836914,-89.65872023,304,25
Spotsylvania,Virginia,38.18574462,-77.655399,304,4
Windham,Connecticut,41.82972709,-71.98182316,304,12
Knox,Tennessee,35.99508821,-83.94635435,303,5
Washington,Oklahoma,36.71380786,-95.90514104,302,30
Scott,Iowa,41.63935978,-90.61959493,301,8
Marin,California,38.07122463,-122.7210631,299,14
Floyd,Indiana,38.32117957,-85.90385377,297,37
Shenandoah,Virginia,38.85905135,-78.56813762,297,11
Martin,Florida,27.0772071,-80.43109784,296,6
Calhoun,Michigan,42.24633834,-85.00493569,295,18
Horry,South Carolina,33.9212828,-78.99555293,293,18
Beaufort,South Carolina,32.39226291,-80.72619758,291,12
Clay,Minnesota,46.89289518,-96.48761922,291,19
Tippecanoe,Indiana,40.38872739,-86.89413959,291,2
Portage,Ohio,41.16793482,-81.19735782,290,51
York,South Carolina,34.97281497,-81.18085944,290,5
Holmes,Mississippi,33.12345854,-90.08923538,288,20
York,Maine,43.47808377,-70.71052375,288,8
Daviess,Kentucky,37.73028906,-87.0901948,287,4
Hancock,Indiana,39.82304555,-85.77566351,287,23
Coweta,Georgia,33.35334302,-84.76129976,285,4
Howard,Indiana,40.48527731,-86.11351892,285,11
Baldwin,Georgia,33.06882326,-83.24701748,284,12
Jackson,Mississippi,30.54020656,-88.64184064,284,13
Thomas,Georgia,30.86392347,-83.91847289,283,29
Boone,Illinois,42.32359279,-88.82345779,282,14
Dona Ana,New Mexico,32.35275771,-106.8329387,282,2
Rankin,Mississippi,32.26469147,-89.94537876,282,6
St. James,Louisiana,30.02531716,-90.80212061,282,23
Clackamas,Oregon,45.18787398,-122.2179634,281,9
Henderson,North Carolina,35.33788927,-82.4766782,280,38
Shelby,Indiana,39.52305623,-85.7915857,280,20
Merrimack,New Hampshire,43.29662971,-71.6811573,278,10
Canyon,Idaho,43.61970148,-116.7095499,277,6
Walworth,Wisconsin,42.66858202,-88.54163073,277,12
Leon,Florida,30.45955727,-84.27491114,276,6
Madison,Alabama,34.76327133,-86.55069633,275,4
Clarendon,South Carolina,33.66610974,-80.21647898,274,32
Davidson,North Carolina,35.79115496,-80.21256572,274,10
Robertson,Tennessee,36.52454807,-86.87346725,274,0
St. Martin,Louisiana,30.13112107,-91.61403569,272,22
Butler,Alabama,31.75300095,-86.68057478,271,9
Madison,Nebraska,41.91676024,-97.6005481,270,3
Orange,North Carolina,36.06092947,-79.12167935,269,36
St. Mary,Louisiana,29.69262097,-91.44702164,269,29
Warren,Ohio,39.42581994,-84.16557457,269,14
Franklin,Louisiana,32.13675181,-91.67589857,268,8
Kershaw,South Carolina,34.33988254,-80.58763164,265,12
Delaware,Indiana,40.22787247,-85.39732772,261,20
Newton,Georgia,33.55514538,-83.8454714,261,10
Suffolk,Virginia,36.70155394,-76.63603554,260,22
Yavapai,Arizona,34.59933926,-112.5538588,260,5
Barrow,Georgia,33.99148694,-83.71436292,258,8
Dubuque,Iowa,42.46815349,-90.88181925,258,10
Madison,New York,42.91653905,-75.67266639,258,8
Tuscarawas,Ohio,40.44214695,-81.47226262,258,1
Upson,Georgia,32.87920671,-84.30024826,258,29
Delaware,Ohio,40.27942393,-83.00457058,257,5
Boone,Indiana,40.0509304,-86.46841646,256,32
Baldwin,Alabama,30.72774991,-87.72207058,254,8
Adams,Nebraska,40.5244942,-98.50117804,251,3
Bedford,Tennessee,35.51123746,-86.45549096,251,4
Sumter,Florida,28.70181754,-82.0794267,251,16
Lake,Florida,28.76202069,-81.7125123,250,14
Mohave,Arizona,35.70471703,-113.7577902,250,27
Rockdale,Georgia,33.65145002,-84.02202167,249,7
Bell,Texas,31.03736027,-97.4785025,248,3
Ellis,Texas,32.34894117,-96.79371841,247,12
Saline,Missouri,39.13734288,-93.20259964,247,0
Colquitt,Georgia,31.18810588,-83.7677946,246,11
San Luis Obispo,California,35.38822029,-120.4039028,243,1
Jasper,Iowa,41.68576082,-93.05567785,242,12
Paulding,Georgia,33.91969522,-84.86848792,242,10
Morgan,Indiana,39.47899078,-86.44573375,241,17
Wood,Ohio,41.36224827,-83.62285108,241,42
Harnett,North Carolina,35.36731853,-78.87243571,240,17
DeKalb,Illinois,41.89373302,-88.76958483,239,2
Spalding,Georgia,33.26310031,-84.28013991,239,15
Columbus,North Carolina,34.26744084,-78.65801424,238,18
Calvert,Maryland,38.53961642,-76.56820632,237,13
Dodge,Nebraska,41.58071748,-96.65598179,236,0
Randolph,Illinois,38.05095369,-89.82512254,236,3
Union,Louisiana,32.83121059,-92.3749373,236,14
Bay,Michigan,43.70639106,-83.98731479,234,15
Johnston,North Carolina,35.51745004,-78.36622717,234,19
Attala,Mississippi,33.08658803,-89.57838564,233,7
Early,Georgia,31.32155345,-84.90255207,233,28
Nacogdoches,Texas,31.62017125,-94.61803994,233,17
Steuben,New York,42.2689144,-77.3829924,233,39
Putnam,Tennessee,36.14005459,-85.50646123,232,5
Sampson,North Carolina,34.98820368,-78.36914061,232,1
Nueces,Texas,27.736286,-97.5433285,231,3
St. Johns,Florida,29.90096506,-81.43589967,231,5
Crittenden,Arkansas,35.21247318,-90.30839406,230,7
St. Landry,Louisiana,30.59724262,-92.00135806,230,51
Strafford,New Hampshire,43.291833,-71.02336013,230,11
Ashtabula,Ohio,41.70860332,-80.74830218,229,26
Assumption,Louisiana,29.89946234,-91.06461642,229,11
Wilson,North Carolina,35.70625477,-77.917978,229,9
Warren,New York,43.56173026,-73.8433699,228,26
Coryell,Texas,31.39078397,-97.79936155,224,2
Scott,Minnesota,44.6490231,-93.53340251,223,1
Shiawassee,Michigan,42.953928,-84.14585902,223,19
Monroe,Mississippi,33.89236763,-88.4808438,222,23
Portsmouth,Virginia,36.85914825,-76.35971629,222,10
Rice,Minnesota,44.3543376,-93.29658715,221,2
Weber-Morgan,Utah,41.27116049,-111.9145117,221,3
Fremont,Wyoming,43.04183996,-108.6296893,220,0
Geauga,Ohio,41.49952319,-81.17935342,220,24
Marion,Florida,29.21227113,-82.05803627,220,5
Hays,Texas,30.05669873,-98.02944344,219,3
Lake,Ohio,41.69710807,-81.23676539,219,8
De Soto,Louisiana,32.05457447,-93.74130302,218,15
Washington,New York,43.31153794,-73.43043448,218,13
Butler,Kentucky,37.20946153,-86.68748787,217,6
Decatur,Indiana,39.30712658,-85.50087166,217,31
Taylor,Texas,32.30163422,-99.89007449,217,6
Comanche,Oklahoma,34.65973764,-98.47195055,215,3
Hanover,Virginia,37.7583355,-77.49464673,215,19
Harrison,Mississippi,30.51359752,-89.12467576,215,6
Hopkins,Kentucky,37.30939025,-87.54670406,215,27
Darlington,South Carolina,34.33358335,-79.96027485,212,5
Gadsden,Florida,30.57796289,-84.61915825,212,1
Medina,Ohio,41.11770589,-81.8998621,212,18
Fauquier,Virginia,38.73564842,-77.80647472,211,5
Greene,New York,42.275797,-74.12384884,211,14
Carbon,Pennsylvania,40.91545395,-75.7068525,210,17
Broomfield,Colorado,39.95998787,-105.0566324,209,22
Frederick,Virginia,39.20172582,-78.25974949,209,3
Southwest Utah,Utah,37.85447192,-111.4418764,209,3
Huntingdon,Pennsylvania,40.42162652,-77.97673273,208,0
Berkeley,West Virginia,39.46704621,-78.02414609,207,6
Anderson,South Carolina,34.51828081,-82.63959517,206,8
Fayette,Georgia,33.41357794,-84.49089434,206,11
Kanawha,West Virginia,38.33860077,-81.52857054,206,15
Columbia,Georgia,33.54534185,-82.263524,205,6
Hendry,Florida,26.55386945,-81.16469006,205,12
Montgomery,Tennessee,36.49609412,-87.38550661,204,2
Richmond,Virginia,37.937575,-76.72920628,204,4
Alamance,North Carolina,36.0434701,-79.39976137,203,9
Berkeley,South Carolina,33.20222596,-79.94654523,203,15
Fairfield,Ohio,39.75107189,-82.63088163,203,3
Butler,Pennsylvania,40.91152759,-79.91351055,202,6
Etowah,Alabama,34.04567266,-86.04051873,202,10
Lincoln,Mississippi,31.53288662,-90.45391915,202,18
Lowndes,Georgia,30.83568832,-83.27056716,202,4
Pitt,North Carolina,35.59535426,-77.37353178,202,2
Pueblo,Colorado,38.17359144,-104.5127437,202,13
Gaston,North Carolina,35.29373559,-81.17477045,201,6
Lincoln,South Dakota,43.27841182,-96.7203905,201,0
Vanderburgh,Indiana,38.02658833,-87.58763124,201,2
Caroline,Maryland,38.87172293,-75.82904158,200,0
Harrison,Texas,32.54935988,-94.36934071,200,19
Leflore,Mississippi,33.55545125,-90.29900733,200,22
Merced,California,37.18922369,-120.7209035,200,6
Wasatch,Utah,40.33110236,-111.1691419,200,1
Wayne,Ohio,40.82925852,-81.88844833,200,48
Anchorage,Alaska,61.14998174,-149.1426986,199,4
Liberty,Florida,30.23766008,-84.8829258,199,0
Terrell,Georgia,31.77527543,-84.44069698,199,24
Troup,Georgia,33.03349196,-85.02812115,199,6
Butts,Georgia,33.2830945,-83.9543504,197,17
Newport,Rhode Island,41.5642026,-71.26569799,197,0
Northampton,Virginia,37.34062933,-75.87751591,196,8
Clarke,Georgia,33.95436462,-83.37124007,195,13
Copiah,Mississippi,31.86977774,-90.44565118,195,2
Pearl River,Mississippi,30.77090935,-89.58677275,195,26
Vance,North Carolina,36.36880673,-78.40670845,195,17
Worth,Georgia,31.55162306,-83.85090513,195,17
Brown,South Dakota,45.58994323,-98.35165355,194,0
Plaquemines,Louisiana,29.42245447,-89.60322085,194,16
Crisp,Georgia,31.92289565,-83.76811843,193,7
Acadia,Louisiana,30.2950649,-92.41419698,192,11
Coffee,Georgia,31.54892966,-82.8549206,192,12
DeKalb,Alabama,34.45946862,-85.80782906,192,2
St. Lawrence,New York,44.4976179,-75.06550039,192,2
Burke,North Carolina,35.74989637,-81.70755735,191,14
Granville,North Carolina,36.30337451,-78.65184241,190,6
Smith,Texas,32.37474036,-95.2717568,189,3
Elmore,Alabama,32.59785413,-86.14415284,188,6
Newport News,Virginia,37.08166899,-76.51754109,187,10
Newton,Mississippi,32.40021118,-89.11843336,186,2
Adams,Pennsylvania,39.87140411,-77.21610347,185,6
Grant,Washington,47.20753737,-119.4500749,185,3
Shawnee,Kansas,39.04100763,-95.7557264,185,5
Licking,Ohio,40.09136236,-82.48185785,184,7
West Feliciana,Louisiana,30.87882871,-91.4148538,184,8
Hardeman,Tennessee,35.20772017,-88.99161161,183,0
Manassas Park,Virginia,38.77058531,-77.44399307,183,3
Yolo,California,38.68278902,-121.9018288,183,22
Gunnison,Colorado,38.66611652,-107.0320729,182,6
Santa Rosa,Florida,30.6934145,-87.02458128,182,9
Summit,Colorado,39.63803232,-106.1150762,182,1
Yazoo,Mississippi,32.77890365,-90.39656148,182,2
Iredell,North Carolina,35.80950511,-80.8743128,181,6
Jackson,Illinois,37.78595185,-89.38232563,181,10
Laramie,Wyoming,41.3070252,-104.6887497,181,0
Washington,Texas,30.21498498,-96.40946246,181,22
Floyd,Georgia,34.26268279,-85.21577392,180,13
Lapeer,Michigan,43.09052506,-83.22153148,180,30
Whitfield,Georgia,34.80987459,-84.96093476,180,6
James City,Virginia,37.31156958,-76.76950618,179,15
Genesee,New York,43.0022601,-78.19135193,178,4
White,Indiana,40.74911165,-86.86492015,178,4
Williamsburg,South Carolina,33.62190129,-79.72767442,178,9
Okaloosa,Florida,30.69143028,-86.59267105,177,5
San Juan,Utah,37.62762978,-109.8033714,177,4
East Feliciana,Louisiana,30.84425359,-91.04976723,176,22
Island,Washington,48.14713305,-122.5216407,176,10
Pike,Mississippi,31.17507789,-90.40392572,176,11
Tift,Georgia,31.45743864,-83.5236119,176,11
Panola,Texas,32.1639596,-94.30552481,175,15
Allegan,Michigan,42.59147037,-85.89102866,174,2
Placer,California,39.06167234,-120.7240569,174,8
Lamar,Mississippi,31.20572971,-89.5077704,173,4
Shelby,Texas,31.79211404,-94.14550696,173,5
Bristol,Rhode Island,41.71018079,-71.28652315,172,0
Chelan,Washington,47.87046092,-120.6173956,172,6
Adams,Mississippi,31.47669768,-91.35326037,171,15
Ware,Georgia,31.05449097,-82.42224148,171,12
Gregg,Texas,32.47940482,-94.81591935,170,0
Washington,Iowa,41.33577126,-91.71725711,170,8
Ogle,Illinois,42.04165196,-89.32184679,169,2
Randolph,Georgia,31.76622818,-84.75732369,169,21
Edgecombe,North Carolina,35.91230639,-77.59436892,167,7
Harrison,Indiana,38.19467379,-86.10948271,167,15
Montgomery,Indiana,40.04034823,-86.89335024,167,10
Hillsdale,Michigan,41.88753639,-84.59312019,166,23
Tuscola,Michigan,43.46606813,-83.41897025,166,18
Allen,Ohio,40.77285242,-84.10802343,165,30
Coffee,Alabama,31.39932826,-85.98901039,164,1
Mecklenburg,Virginia,36.67882005,-78.36131056,164,16
Moore,North Carolina,35.30885257,-79.48474178,164,10
Macon,Illinois,39.86064913,-88.96342505,163,17
Orleans,New York,43.2516977,-78.2320066,163,21
Pointe Coupee,Louisiana,30.71409502,-91.60209535,163,20
Clinton,Illinois,38.60704876,-89.42385254,162,14
Eaton,Michigan,42.59599185,-84.83740035,162,6
Madison,Tennessee,35.61181957,-88.84076036,162,2
Grant,Indiana,40.51587228,-85.65468702,161,18
Allegany,Maryland,39.62357628,-78.69280486,160,13
Kitsap,Washington,47.63479026,-122.6436061,159,2
Hampton,Virginia,37.03513786,-76.35879121,158,3
Lee,South Carolina,34.16393091,-80.25690731,158,11
McLean,Illinois,40.48996987,-88.84621113,158,4
Page,Virginia,38.61807452,-78.48797204,158,16
Walton,Georgia,33.78017694,-83.73552314,158,8
Dearborn,Indiana,39.14647946,-84.97333539,157,18
Dooly,Georgia,32.15630737,-83.79746561,157,12
Santa Cruz,California,37.05580291,-122.0066524,157,2
Flagler,Florida,29.45933576,-81.31508595,156,4
Peoria,Illinois,40.78702156,-89.76078901,155,6
Richland,Ohio,40.77180308,-82.5379961,155,2
Greene,Indiana,39.03630547,-86.96223202,154,20
Victoria,Texas,28.79780988,-96.96813006,154,6
Rutherford,North Carolina,35.40114178,-81.92112099,153,7
Suwannee,Florida,30.19746066,-82.9909967,153,18
Buncombe,North Carolina,35.61113393,-82.53305,152,4
Graves,Kentucky,36.72292505,-88.65143315,152,18
Wright,Minnesota,45.17297924,-93.96234781,152,1
Aiken,South Carolina,33.54338026,-81.63645384,150,7
Pottawattamie,Iowa,41.33640314,-95.53907776,150,2
Clermont,Ohio,39.04847534,-84.15375786,149,4
Gallatin,Montana,45.54486106,-111.1692571,149,1
Hancock,Georgia,33.2721566,-82.99766919,149,4
Nash,North Carolina,35.96575634,-77.98422508,149,3
Fulton,New York,43.11363907,-74.41798804,148,14
Hoke,North Carolina,35.01888303,-79.23651674,148,0
Noble,Indiana,41.39672484,-85.41966713,148,20
Warrick,Indiana,38.08922676,-87.2716085,148,24
West Baton Rouge,Louisiana,30.46058217,-91.30989571,148,30
Kaufman,Texas,32.5991417,-96.28734728,147,1
Lenoir,North Carolina,35.2403259,-77.64245615,147,5
Lycoming,Pennsylvania,41.34310539,-77.06629984,146,7
Dallas,Alabama,32.32688101,-87.1086671,145,3
Benton,Arkansas,36.33644656,-94.25680817,144,0
Hamilton,Florida,30.49673973,-82.94998918,144,0
Monroe,Indiana,39.16130004,-86.52414358,144,9
Sherburne,Minnesota,45.44447208,-93.77617511,144,1
Washington,Arkansas,35.976844,-94.21800746,141,5
Grayson,Texas,33.62744998,-96.67753461,140,0
Washington,Wisconsin,43.36863664,-88.22974712,140,4
Angelina,Texas,31.25457347,-94.60901487,139,1
Northumberland,Pennsylvania,40.84785433,-76.70798222,139,0
Ontario,New York,42.85145728,-77.30874425,139,9
Clark,Ohio,39.91592258,-83.78498252,138,3
Kent,Maryland,39.24976208,-76.04741541,138,14
Rockwall,Texas,32.89779518,-96.40771592,138,5
Tompkins,New York,42.44945765,-76.47229843,138,0
Craighead,Arkansas,35.83018283,-90.63235729,137,0
Albemarle,Virginia,38.02080697,-78.55481085,136,4
Buffalo,Nebraska,40.85486962,-99.07500296,136,1
Jackson,West Virginia,38.84263974,-81.68148753,136,17
Stephenson,Illinois,42.35129217,-89.662598,136,0
Wagoner,Oklahoma,35.96024096,-95.51911308,136,17
Worcester,Maryland,38.21274277,-75.33200012,136,5
Montrose,Colorado,38.40214114,-108.2639022,135,11
Outagamie,Wisconsin,44.41578887,-88.46565023,135,4
Southampton,Virginia,36.72231125,-77.10642712,135,2
Chemung,New York,42.13891056,-76.7638805,134,1
Erie,Pennsylvania,41.99253829,-80.03301954,134,3
Franklin,Missouri,38.41127108,-91.07522826,134,14
Lenawee,Michigan,41.89475156,-84.06603727,134,3
Noxubee,Mississippi,33.11009499,-88.56949061,134,2
Lawrence,Indiana,38.84112637,-86.48361629,133,21
Warren,Mississippi,32.35810271,-90.83352619,133,4
Bastrop,Texas,30.10370699,-97.31206354,132,2
Clinton,Michigan,42.94400871,-84.60145248,132,10
Houston,Alabama,31.15197924,-85.29939599,132,4
Campbell,Kentucky,38.94384345,-84.37875208,131,10
Sioux,Iowa,43.08221074,-96.1767568,131,0
Bolivar,Mississippi,33.79696941,-90.87372121,130,10
Bowie,Texas,33.44626922,-94.41834132,130,3
Calhoun,Alabama,33.77483727,-85.82630386,130,3
Miami,Indiana,40.76940965,-86.04525048,130,1
Washington,Pennsylvania,40.19208869,-80.24582867,130,4
Centre,Pennsylvania,40.92058903,-77.82200624,129,6
Garland,Arkansas,34.57692074,-93.14921604,129,1
Northampton,North Carolina,36.41736238,-77.39769443,129,10
Lowndes,Alabama,32.1597283,-86.65158371,128,9
Putnam,Florida,29.60779729,-81.74230285,128,3
Gordon,Georgia,34.50487351,-84.87296253,127,15
Jackson,Georgia,34.13794553,-83.56814788,127,3
New Hanover,North Carolina,34.25758282,-77.87075626,127,3
Clinton,Indiana,40.30319754,-86.47277257,126,1
Jackson,Florida,30.7954597,-85.21500423,126,0
Walker,Alabama,33.80270512,-87.30027177,126,0
Douglas,Washington,47.7361335,-119.692937,125,3
Dillon,South Carolina,34.39007791,-79.37741872,124,0
Fond du Lac,Wisconsin,43.75354908,-88.48885325,124,3
Sumter,Alabama,32.59117397,-88.19916205,124,4
Calhoun,Georgia,31.53169785,-84.62725131,123,7
Henry,Indiana,39.93029017,-85.39625719,123,3
Johnson,Texas,32.37877812,-97.36615819,123,4
McMinn,Tennessee,35.42812616,-84.61520715,123,12
Thurston,Washington,46.9291895,-122.8290656,123,1
Benton,Minnesota,45.69804958,-93.99514135,122,2
Santa Fe,New Mexico,35.50708973,-105.9774716,122,3
Union,Illinois,37.47119609,-89.25548938,122,4
Franklin,North Carolina,36.081519,-78.28708884,121,22
LaSalle,Illinois,41.3442613,-88.88633881,121,8
Mercer,Ohio,40.54043046,-84.62912742,121,1
Androscoggin,Maine,44.1664747,-70.20380627,120,2
Deaf Smith,Texas,34.96522957,-102.6054267,120,6
Fairfield,South Carolina,34.39287073,-81.1195624,120,8
Kennebec,Maine,44.40759555,-69.76738544,120,8
Midland,Texas,31.86904128,-102.0315682,120,12
Orange,Indiana,38.5411892,-86.49523093,120,19
Ozaukee,Wisconsin,43.38352225,-87.94625009,120,11
Roanoke City,Virginia,37.27791025,-79.96189766,120,8
Lincoln,Louisiana,32.6003154,-92.6659741,119,13
Randolph,Alabama,33.29526734,-85.45708831,119,7
Ionia,Michigan,42.94502238,-85.07413319,118,3
Whiteside,Illinois,41.75509713,-89.91556058,118,8
Hardin,Texas,30.33364686,-94.38931817,117,4
Martin,Minnesota,43.67429718,-94.55099908,117,5
Maui,Hawaii,20.86399628,-156.5689097,117,6
Putnam,Indiana,39.66437981,-86.84517605,117,5
Winnebago,Wisconsin,44.06886922,-88.64477096,117,1
Allamakee,Iowa,43.28383218,-91.37860922,116,4
Canadian,Oklahoma,35.5426055,-97.98465569,116,3
Clay,Missouri,39.31132056,-94.41850862,116,1
Decatur,Georgia,30.87967778,-84.57619536,116,3
Federal Correctional Institution (FCI),Michigan,,,116,3
Washington,Ohio,39.45690571,-81.49121382,116,17
Chenango,New York,42.49430041,-75.60887553,115,0
Isle of Wight,Virginia,36.90579348,-76.70842863,115,3
Monongalia,West Virginia,39.63218457,-80.04766838,115,5
Saluda,South Carolina,34.00795823,-81.72713237,115,0
Chickasaw,Mississippi,33.91983202,-88.9481545,114,12
Iroquois,Illinois,40.74717633,-87.82466784,114,3
Garfield,Colorado,39.59921777,-107.902708,113,2
Lauderdale,Alabama,34.90171875,-87.65624729,113,2
Ohio,Kentucky,37.47751843,-86.85368087,113,0
Washington,Mississippi,33.28392041,-90.94196237,113,4
Webster,Louisiana,32.70847669,-93.33121835,113,5
Burke,Georgia,33.05917989,-81.99928721,112,3
Burleigh,North Dakota,46.97847375,-100.4645214,112,0
Caddo,Oklahoma,35.17364557,-98.37534464,112,10
Jennings,Indiana,38.99588883,-85.62710784,112,4
Jones,Texas,32.73997145,-99.87861576,112,0
Lowndes,Mississippi,33.47386518,-88.4419153,112,4
Orangeburg,South Carolina,33.4391073,-80.79886287,112,2
Queen Anne's,Maryland,39.06198912,-76.03530977,112,9
Richmond,North Carolina,35.00417719,-79.74491009,112,2
Tioga,New York,42.16852837,-76.30835812,112,20
Carver,Minnesota,44.82017001,-93.8009918,111,2
Darke,Ohio,40.13412966,-84.6194517,111,16
Dorchester,Maryland,38.45413522,-76.02752426,111,2
Dorchester,South Carolina,33.0794369,-80.40502652,111,3
Lamar,Texas,33.66981763,-95.57404777,111,4
Smith,Mississippi,32.01744532,-89.50644846,111,7
Autauga,Alabama,32.53952745,-86.64408227,110,4
Carroll,Mississippi,33.44834567,-89.91994479,110,6
Citrus,Florida,28.84804315,-82.47614748,110,11
Jasper,Mississippi,32.01922104,-89.11786866,110,3
Linn,Oregon,44.48899494,-122.5373154,110,8
Morgan,Alabama,34.45500589,-86.85475946,110,1
Van Buren,Michigan,42.25190229,-86.01939087,110,5
Ector,Texas,31.86898877,-102.5429428,109,4
Guadalupe,Texas,29.58165339,-97.94786822,109,0
Lancaster,South Carolina,34.68270843,-80.70513032,109,5
Appling,Georgia,31.74847232,-82.28909114,108,10
Columbia,Florida,30.22509788,-82.62160164,108,2
Hernando,Florida,28.55364461,-82.42700204,108,5
Wayne,Pennsylvania,41.64938475,-75.29956506,108,7
Gilmer,Georgia,34.69316688,-84.45802506,107,0
Halifax,North Carolina,36.25669272,-77.6556109,107,1
Lafayette,Mississippi,34.35687874,-89.48490961,107,3
Livingston,New York,42.72596275,-77.77966158,107,7
Ripley,Indiana,39.10235626,-85.26212744,107,6
Union,Arkansas,33.16887091,-92.59746952,107,4
Franklin,Indiana,39.4142482,-85.06062647,106,7
Pike,Alabama,31.80396383,-85.9408295,106,0
Richland,Louisiana,32.41391005,-91.76634876,106,1
Vigo,Indiana,39.42944561,-87.39169027,106,6
Walla Walla,Washington,46.23040051,-118.4775539,106,2
Warren,Illinois,40.84925021,-90.6147432,106,0
Covington,Mississippi,31.63225413,-89.55389939,105,0
Greene,Missouri,37.2575872,-93.34230916,105,8
Catahoula,Louisiana,31.66778967,-91.84526385,104,3
Highlands,Florida,27.34254618,-81.34071957,104,8
Indian River,Florida,27.69308961,-80.60556721,104,9
Grayson,Kentucky,37.46231118,-86.34248968,103,8
Lincoln,Missouri,39.05345619,-90.95588181,103,1
Marengo,Alabama,32.24767634,-87.78796182,102,6
Oktibbeha,Mississippi,33.42491685,-88.87905132,102,6
Cibola,New Mexico,34.91131525,-107.998876,101,4
Kemper,Mississippi,32.75462946,-88.64105766,101,7
Marion,Alabama,34.13697363,-87.88704173,101,9
Natchitoches,Louisiana,31.72321584,-93.09816516,101,12
St. Louis,Minnesota,47.6048407,-92.46879855,101,12
Boone,Missouri,38.99186229,-92.30723575,100,1
Russell,Alabama,32.28725256,-85.18415324,100,0
Steele,Minnesota,44.02240351,-93.22627088,100,0
Teton,Wyoming,43.93522482,-110.5890801,100,0
Allen,Louisiana,30.65385745,-92.82442028,99,10
Franklin,Vermont,44.85627605,-72.91249563,99,5
Otsego,Michigan,45.02085831,-84.59898295,99,10
Clarke,Mississippi,32.04158545,-88.6889622,98,12
Jefferson,Illinois,38.29980057,-88.9240025,98,17
Jefferson,West Virginia,39.30776166,-77.86014147,98,1
Madison,Ohio,39.89381073,-83.40178317,98,5
Stephens,Georgia,34.55151201,-83.29405315,98,2
Yadkin,North Carolina,36.16222629,-80.66239436,98,1
Erie,Ohio,41.36796058,-82.62904521,97,3
McLennan,Texas,31.55255453,-97.20217694,97,4
Morrow,Ohio,40.5236356,-82.7892599,97,1
Out of MI,Michigan,,,97,0
Catawba,North Carolina,35.66211129,-81.2132617,96,2
Titus,Texas,33.21339719,-94.96797273,96,1
Warren,Virginia,38.90847745,-78.20280433,96,2
Wayne,West Virginia,38.14901357,-82.42287994,96,9
Branch,Michigan,41.91600556,-85.05929476,95,2
Christian,Kentucky,36.89267803,-87.49055367,95,3
Delaware,Oklahoma,36.40823634,-94.80325046,95,16
Deschutes,Oregon,43.91570171,-121.2289121,95,0
Jerome,Idaho,42.68891267,-114.2655033,95,2
Monroe,Florida,25.20904673,-81.07812416,95,3
Monroe,Georgia,33.014289,-83.92097166,95,5
Wilcox,Georgia,31.97496928,-83.43438555,95,12
Chesterfield,South Carolina,34.64137396,-80.1564014,94,1
Crawford,Ohio,40.85065156,-82.91989099,94,2
Juniata,Pennsylvania,40.53358749,-77.3997513,94,1
Laurens,Georgia,32.46325233,-82.92221316,94,1
Bullitt,Kentucky,37.97162523,-85.68955617,93,4
Dodge,Wisconsin,43.41576662,-88.70928178,93,1
Penobscot,Maine,45.40194593,-68.65020455,93,1
Scott,Indiana,38.68672078,-85.74627859,93,2
Tooele,Utah,40.44862644,-113.1295715,93,0
Umatilla,Oregon,45.59073056,-118.7353826,93,2
Wilcox,Alabama,31.98773215,-87.30891118,93,5
Adair,Kentucky,37.10459774,-85.28129668,92,14
Polk,Oregon,44.90322804,-123.4128888,92,9
Wayne,New York,43.15494365,-77.02976528,92,2
Alpena,Michigan,45.03477666,-83.62212411,91,9
Clinton,New York,44.74530905,-73.67875352,91,4
Dickson,Tennessee,36.14669837,-87.35891709,91,0
Faulkner,Arkansas,35.14719007,-92.33717519,91,3
Gray,Texas,35.40081878,-100.8129222,91,0
Herkimer,New York,43.42034246,-74.96145307,91,3
Mercer,Pennsylvania,41.30248872,-80.25816981,91,2
Osage,Oklahoma,36.62888819,-96.39635704,91,8
Pickens,South Carolina,34.88807695,-82.72791551,91,3
Grady,Georgia,30.87454847,-84.23418364,90,4
Macon,Georgia,32.35207048,-84.04234127,90,5
Napa,California,38.50735751,-122.332839,90,3
St. Clair,Alabama,33.71902176,-86.31029372,90,1
Avoyelles,Louisiana,31.07796211,-92.00079449,89,9
Fredericksburg,Virginia,38.2977863,-77.4922454,89,0
Lee,Mississippi,34.2918775,-88.68149954,89,4
White,Georgia,34.64624278,-83.74905525,89,2
Cheatham,Tennessee,36.26136216,-87.08903581,88,0
Cumberland,Tennessee,35.95271721,-84.99840585,88,1
Fayette,Pennsylvania,39.92041012,-79.64291195,88,4
Fayette,Tennessee,35.19615831,-89.41399032,88,2
Bear River,Utah,41.52106798,-113.0832816,87,1
Colbert,Alabama,34.69847452,-87.80168544,87,2
Goochland,Virginia,37.71714806,-77.90381514,87,5
Henderson,Kentucky,37.79344553,-87.57392021,87,3
Logan,Kentucky,36.85949479,-86.877635,87,1
Marion,Mississippi,31.23132643,-89.8209217,87,7
Orange,Texas,30.11879481,-93.89412775,87,2
Pasquotank,North Carolina,36.26723798,-76.25134778,87,5
Knox,Illinois,40.93148779,-90.2133034,86,0
McClain,Oklahoma,35.01123903,-97.44572302,86,2
Monroe,Illinois,38.27594376,-90.17761038,86,11
Scott,Missouri,37.05588075,-89.56474493,86,6
Tom Green,Texas,31.40464436,-100.462443,86,1
Dubois,Indiana,38.36597551,-86.8792417,85,2
Morehouse,Louisiana,32.81686191,-91.80421614,85,5
Poweshiek,Iowa,41.68625425,-92.53155731,85,8
Yellowstone,Montana,45.93955949,-108.2691486,85,2
Bertie,North Carolina,36.0688473,-76.96545943,84,3
Choctaw,Alabama,32.02227341,-88.2656443,84,3
Craven,North Carolina,35.11833364,-77.08398081,84,4
Dawson,Georgia,34.44244079,-84.16964071,84,1
Fairbanks North Star,Alaska,64.80726247,-146.5692662,84,2
Hale,Alabama,32.76039258,-87.63284988,84,2
Indiana,Pennsylvania,40.65241041,-79.08963285,84,6
Roanoke,Virginia,37.26865804,-80.06396753,84,3
St. Joseph,Michigan,41.91441767,-85.52797979,84,1
Bay,Florida,30.26548745,-85.62122584,83,3
Creek,Oklahoma,35.90230551,-96.37086028,83,7
Oswego,New York,43.42778894,-76.14635194,83,3
Out of IL,Illinois,,,83,1
Pine,Minnesota,46.12105238,-92.74070188,83,0
Susquehanna,Pennsylvania,41.82147784,-75.80071959,83,14
Augusta,Virginia,38.16404586,-79.12461614,82,1
Bienville,Louisiana,32.34569994,-93.05398492,82,20
Buena Vista,Iowa,42.73545875,-95.15100162,82,0
Lumpkin,Georgia,34.57286511,-84.00425681,82,1
Plymouth,Iowa,42.737633,-96.21366621,82,0
Bradley,Tennessee,35.15739424,-84.857186,81,1
Fluvanna,Virginia,37.84157909,-78.27715475,81,6
Greene,Alabama,32.85504247,-87.95684022,81,4
Macon,Tennessee,36.53157855,-86.00778595,81,3
McCracken,Kentucky,37.05350953,-88.70445755,81,2
Saline,Arkansas,34.64916145,-92.67583224,81,1
Turner,Georgia,31.71612656,-83.62069378,81,12
Oconee,Georgia,33.83749973,-83.43679568,80,2
Putnam,Ohio,41.02094889,-84.1336111,80,13
Sussex,Virginia,36.92432914,-77.25791182,80,1
Winchester,Virginia,39.17054517,-78.17325058,80,1
Winn,Louisiana,31.94449367,-92.63789413,80,2
Barbour,Alabama,31.868263,-85.3871286,79,1
Blue Earth,Minnesota,44.03554215,-94.06699781,79,0
Clay,Mississippi,33.65358105,-88.77784255,79,3
Hancock,Mississippi,30.41830223,-89.48851033,79,10
Nez Perce,Idaho,46.32638236,-116.7500975,79,19
Polk,Georgia,34.00267074,-85.18677781,79,0
Caldwell,North Carolina,35.95204977,-81.54799522,78,2
Carroll,Indiana,40.5807832,-86.56198812,78,2
Talladega,Alabama,33.37823223,-86.16886178,78,2
Wichita,Texas,33.98842886,-98.7041034,78,2
Wilkinson,Mississippi,31.16078225,-91.31018819,78,9
Wyoming,New York,42.70145109,-78.22199579,78,5
Chilton,Alabama,32.85044126,-86.7173256,77,1
Galax,Virginia,36.66601852,-80.91703124,77,0
Lawrence,Mississippi,31.55147224,-90.10841127,77,0
Pickens,Alabama,33.28094866,-88.08818103,77,3
Putnam,Georgia,33.32056115,-83.37552891,77,7
Sauk,Wisconsin,43.42574087,-89.94966132,77,3
Walton,Florida,30.64204028,-86.16935664,77,2
Windham,Vermont,42.986982,-72.71268875,77,3
Coahoma,Mississippi,34.22772299,-90.60415045,76,3
Colonial Heights,Virginia,37.26420587,-77.39609676,76,7
Glynn,Georgia,31.23279254,-81.53811412,76,1
Hawaii,Hawaii,19.60121157,-155.5210167,76,0
Houston,Texas,31.31925973,-95.42226208,76,0
Blount,Tennessee,35.68938198,-83.92847788,75,3
Gonzales,Texas,29.45634206,-97.49424032,75,2
Greene,Ohio,39.69116283,-83.89032084,75,5
Harris,Georgia,32.73709786,-84.90538572,75,3
Itawamba,Mississippi,34.27993475,-88.3606733,75,7
Liberty,Texas,30.15152688,-94.81205615,75,2
Montgomery,New York,42.90123494,-74.44011632,75,1
Shelby,Kentucky,38.21476019,-85.194223,75,3
Simpson,Mississippi,31.91282117,-89.91716179,75,0
Story,Iowa,42.03621213,-93.46499005,75,1
Surry,North Carolina,36.41689489,-80.69102283,75,1
Winona,Minnesota,43.98772283,-91.78081305,75,15
Winston,Mississippi,33.08747908,-89.03391385,75,0
Adair,Oklahoma,35.88494195,-94.65859267,74,3
Clarke,Alabama,31.68099859,-87.83548597,74,2
Lee,Illinois,41.74583951,-89.29977132,74,1
Maverick,Texas,28.7429195,-100.3157686,74,0
Walker,Georgia,34.73376362,-85.30165174,74,0
Coles,Illinois,39.51949084,-88.22358557,73,4
Grundy,Illinois,41.28569601,-88.41905692,73,1
Hardin,Kentucky,37.6976111,-85.96319251,73,2
Lawrence,Arkansas,36.04188196,-91.10867198,73,4
Lynchburg,Virginia,37.40021399,-79.19888138,73,1
Marlboro,South Carolina,34.59905577,-79.67561152,73,0
Prince Edward,Virginia,37.22554789,-78.43597949,73,2
Cass,Missouri,38.64789422,-94.353399,72,8
Catoosa,Georgia,34.89872298,-85.13757014,72,0
Cleburne,Arkansas,35.53864922,-92.02640019,72,4
Grant,Wisconsin,42.8671731,-90.7063218,72,10
Humboldt,California,40.69923009,-123.876044,72,0
Lawrence,Pennsylvania,40.99206278,-80.33393706,72,7
Meriwether,Georgia,33.04163534,-84.68859732,72,1
Rogers,Oklahoma,36.37004357,-95.60406759,72,5
Santa Cruz,Arizona,31.52508998,-110.8479088,72,0
Charlottesville,Virginia,38.03527919,-78.48569588,71,2
Humboldt,Nevada,41.40692186,-118.1109427,71,3
Jefferson,New York,44.04200959,-75.94653457,71,0
Johnson,Georgia,32.70211082,-82.66166794,71,2
Johnson,Missouri,38.74719601,-93.80691168,71,0
Montgomery,Mississippi,33.49419589,-89.61729103,71,1
Newton,Indiana,40.95610449,-87.39635768,71,9
Wabash,Indiana,40.84704239,-85.79328272,71,2
Yalobusha,Mississippi,34.02824175,-89.7076205,71,0
Bladen,North Carolina,34.61296243,-78.56180059,70,2
Carson City,Nevada,39.15509045,-119.7480219,70,2
Comal,Texas,29.80811278,-98.27647225,70,6
Madera,California,37.21513971,-119.7665589,70,2
Midland,Michigan,43.64330771,-84.38804374,70,8
Onslow,North Carolina,34.72607366,-77.42908179,70,2
Peach,Georgia,32.56934316,-83.82937,70,2
Pettis,Missouri,38.72798918,-93.28471706,70,1
Pierce,Georgia,31.35928155,-82.21598442,70,4
Chaffee,Colorado,38.74745778,-106.1926573,69,17
Cullman,Alabama,34.13020303,-86.86888037,69,0
Greenwood,South Carolina,34.15272415,-82.12715789,69,1
Jefferson Davis,Louisiana,30.26896765,-92.81210004,69,6
Sunflower,Mississippi,33.60192578,-90.58882684,69,3
Tippah,Mississippi,34.76872156,-88.90988194,69,11
Cowlitz,Washington,46.19074721,-122.6782231,68,0
Delaware,New York,42.19837623,-74.96709306,68,4
Jackson,Louisiana,32.30251776,-92.55692092,68,9
Jefferson Davis,Mississippi,31.56884708,-89.8267099,68,2
La Plata,Colorado,37.28632032,-107.8429014,68,1
Lafayette,Missouri,39.06986886,-93.78076396,68,3
Pemiscot,Missouri,36.2130572,-89.78742322,68,3
Sevier,Tennessee,35.78077323,-83.52244332,68,2
Sheboygan,Wisconsin,43.72099677,-87.94579284,68,3
Talbot,Maryland,38.76618159,-76.10882561,68,1
Otsego,New York,42.63492579,-75.03151402,67,4
Carlton,Minnesota,46.59180601,-92.67601019,66,0
Evangeline,Louisiana,30.72985248,-92.39915924,66,1
Greer,Oklahoma,34.93535801,-99.5605612,66,7
Hunt,Texas,33.12351514,-96.08551032,66,3
Marshall,Mississippi,34.76216286,-89.50299462,66,3
Montgomery,Virginia,37.17746986,-80.37868691,66,1
Warren,Iowa,41.33559454,-93.56007641,66,0
Washington,Tennessee,36.29472368,-82.4945472,66,0
Cattaraugus,New York,42.24778241,-78.67923096,65,0
Eau Claire,Wisconsin,44.726614,-91.28609183,65,0
Grimes,Texas,30.54579585,-95.98902499,65,1
Kootenai,Idaho,47.67282258,-116.7020872,65,0
Matagorda,Texas,28.81955746,-96.01230294,65,5
Nassau,Florida,30.61037141,-81.80297522,65,1
Ottawa,Ohio,41.53781826,-83.0940185,65,3
Steuben,Indiana,41.64423868,-85.00101094,65,2
Bremer,Iowa,42.77461496,-92.31795937,64,5
El Dorado,California,38.77965956,-120.5233166,64,0
Grady,Oklahoma,35.0167709,-97.88339847,64,2
Henry,Illinois,41.3533994,-90.13296166,64,0
Lane,Oregon,43.93727035,-122.847753,64,2
Limestone,Alabama,34.81185586,-86.98310072,64,0
Valencia,New Mexico,34.71669834,-106.8103733,64,1
Brooks,Georgia,30.83922642,-83.58303423,63,9
Cass,Illinois,39.96991073,-90.24734436,63,0
Cayuga,New York,42.91261714,-76.55731592,63,1
Jackson,Alabama,34.78144169,-85.99750489,63,2
Pope,Arkansas,35.44871474,-93.03212219,63,0
Washington,Georgia,32.96711864,-82.79357039,63,1
Wayne,Tennessee,35.23868267,-87.78644456,63,0
Addison,Vermont,44.03217337,-73.14130877,62,2
Isabella,Michigan,43.64060976,-84.84664923,62,7
Madison,Florida,30.44396917,-83.47398594,62,3
Tazewell,Illinois,40.50716185,-89.51404662,62,3
York,Virginia,37.24374789,-76.54412815,62,3
Bryan,Georgia,32.00979311,-81.44002948,61,4
Daviess,Indiana,38.70186039,-87.07185406,61,15
DeSoto,Florida,27.18677893,-81.80941373,61,6
Freeborn,Minnesota,43.67385583,-93.34884422,61,0
Grafton,New Hampshire,43.93779815,-71.82057197,61,1
Maury,Tennessee,35.6187413,-87.07462444,61,0
McDonough,Illinois,40.45674722,-90.67775541,61,2
Mississippi,Arkansas,35.76271485,-90.0519437,61,0
Stark,North Dakota,46.80851182,-102.6576326,61,2
Wayne,Indiana,39.8633444,-85.01044989,61,5
Bennington,Vermont,43.03519828,-73.09048868,60,1
Clinton,Iowa,41.89981633,-90.53275096,60,1
Coffee,Tennessee,35.49090731,-86.07311784,60,0
Dale,Alabama,31.43037123,-85.61095742,60,0
Douglas,Kansas,38.88503636,-95.2925121,60,0
Murray,Georgia,34.78897608,-84.74993177,60,1
Riley,Kansas,39.28935726,-96.73420026,60,1
San Benito,California,36.60308176,-121.069975,60,2
Union,Mississippi,34.49162015,-89.00776006,60,4
Union,South Dakota,42.83112163,-96.6557828,60,0
Washington,Alabama,31.4092794,-88.20689944,60,5
Bacon,Georgia,31.55456473,-82.45936528,59,2
Hocking,Ohio,39.49537927,-82.47991446,59,2
Jefferson,Ohio,40.38614126,-80.76259514,59,2
Louisa,Virginia,37.97850256,-77.96274807,59,0
Routt,Colorado,40.48596505,-106.9905548,59,6
Armstrong,Pennsylvania,40.81665618,-79.46290811,58,5
Calhoun,Mississippi,33.93683395,-89.33686647,58,4
Claiborne,Louisiana,32.82308512,-92.99526883,58,10
Gibson,Tennessee,35.99438059,-88.93358327,58,1
Grenada,Mississippi,33.77036166,-89.80245083,58,2
Iosco,Michigan,44.35486835,-83.63484895,58,8
Jefferson,Wisconsin,43.02054068,-88.77529134,58,2
Nye,Nevada,38.04264256,-116.4722702,58,0
Petersburg,Virginia,37.20530399,-77.39368102,58,2
Ross,Ohio,39.33705391,-83.06000914,58,1
Covington,Alabama,31.2477854,-86.45050893,57,1
Crawford,Michigan,44.68255561,-84.61006219,57,4
Greene,Georgia,33.5769205,-83.17139104,57,6
Jackson,Kentucky,37.41866422,-83.99825483,57,12
Kosciusko,Indiana,41.24521668,-85.86312322,57,1
Laurens,South Carolina,34.48244419,-82.00490796,57,3
Mifflin,Pennsylvania,40.61116939,-77.61070738,57,0
Parker,Texas,32.77757172,-97.80500621,57,0
Sullivan,Tennessee,36.51240691,-82.30412917,57,2
Yamhill,Oregon,45.23330449,-123.3086963,57,7
Barry,Michigan,42.59513984,-85.30834519,56,1
Cabell,West Virginia,38.42424062,-82.23855912,56,0
Calumet,Wisconsin,44.0816316,-88.21780273,56,1
Cole,Missouri,38.50455671,-92.27860244,56,1
Concordia,Louisiana,31.44817835,-91.63814433,56,4
Montgomery,North Carolina,35.33155144,-79.90416657,56,3
Mower,Minnesota,43.67142874,-92.75234549,56,0
Pitkin,Colorado,39.21720112,-106.9310027,56,2
Pottawatomie,Oklahoma,35.20614018,-96.94923008,56,4
Sandusky,Ohio,41.35624126,-83.137872,56,8
Tate,Mississippi,34.65133709,-89.94485778,56,0
Brunswick,North Carolina,34.070565,-78.22814204,55,2
Delta,Colorado,38.86246243,-107.8631342,55,1
Macon,Alabama,32.38759944,-85.69267724,55,2
McDuffie,Georgia,33.47851918,-82.48252774,55,4
Oglethorpe,Georgia,33.8786296,-83.08278123,55,4
Oldham,Kentucky,38.39791089,-85.448222,55,0
Polk,Minnesota,47.77372465,-96.40134647,55,2
Somerset,Maryland,38.1163542,-75.75118623,55,0
Anderson,Texas,31.81534745,-95.65354823,54,0
Auglaize,Ohio,40.55998859,-84.2242143,54,3
Cape Girardeau,Missouri,37.38489388,-89.6843587,54,2
Cleveland,North Carolina,35.33553364,-81.55204486,54,2
Cottonwood,Minnesota,44.00715262,-95.18138802,54,0
Platte,Missouri,39.38154439,-94.77068479,54,0
Cambria,Pennsylvania,40.49527404,-78.71377428,53,1
Cass,Michigan,41.91522292,-85.99405727,53,2
Crenshaw,Alabama,31.72941803,-86.31593104,53,1
Monroe,Ohio,39.72984936,-81.08464734,53,1
Montcalm,Michigan,43.31082541,-85.15252824,53,1
Natrona,Wyoming,42.96180148,-106.797885,53,0
Orange,Virginia,38.24530219,-78.015604,53,0
Chambers,Texas,29.70972016,-94.67154501,52,0
Georgetown,South Carolina,33.43443342,-79.33202141,52,3
Hickman,Tennessee,35.80609681,-87.47643507,52,0
Marquette,Michigan,46.4338914,-87.64043701,52,10
Todd,Minnesota,46.06996226,-94.89785296,52,0
Williamson,Illinois,37.73033511,-88.92994027,52,1
Beauregard,Louisiana,30.64836518,-93.34173616,51,4
Belknap,New Hampshire,43.51637314,-71.41684235,51,0
Benton,Oregon,44.49167306,-123.4316987,51,5
Brown,Texas,31.77430356,-98.99907113,51,7
Colleton,South Carolina,32.87582989,-80.67641292,51,4
Hertford,North Carolina,36.3607755,-76.98104134,51,1
Kittitas,Washington,47.12521214,-120.679439,51,0
Marion,South Carolina,34.07859748,-79.36400756,51,4
Scotts Bluff,Nebraska,41.85070896,-103.7080986,51,0
Stoddard,Missouri,36.85571651,-89.9444155,51,0
Adams,Washington,46.98299757,-118.5601734,50,0
Bibb,Alabama,32.99642064,-87.1251146,50,1
Caldwell,Louisiana,32.0902519,-92.11752148,50,0
Coffey,Kansas,38.2365018,-95.73379515,50,8
Edmonson,Kentucky,37.21218923,-86.23955613,50,6
Emporia,Virginia,36.69455571,-77.53406129,50,3
Greensville,Virginia,36.67878901,-77.56351439,50,7
Jackson,Oregon,42.43201126,-122.7289309,50,0
Jessamine,Kentucky,37.87119786,-84.58252003,50,0
Mesa,Colorado,39.01787888,-108.469799,50,0
Montour,Pennsylvania,41.03023987,-76.66345939,50,1
Panola,Mississippi,34.36398677,-89.95064249,50,2
Scotland,North Carolina,34.8386299,-79.4757978,50,0
Seneca,New York,42.78081007,-76.82497064,50,0
Waldo,Maine,44.4858305,-69.12061935,50,14
Washington,Indiana,38.60219804,-86.1049363,50,1
Bradford,Florida,29.95079741,-82.16611613,49,2
Claiborne,Mississippi,31.97061673,-90.90702196,49,0
Hopewell,Virginia,37.29186313,-77.29754684,49,0
Kay,Oklahoma,36.81799745,-97.14421435,49,7
LaGrange,Indiana,41.64232188,-85.42674232,49,2
Medina,Texas,29.3557301,-99.11030298,49,2
Mississippi,Missouri,36.82516239,-89.29505753,49,0
Pennington,South Dakota,44.0025835,-102.8240777,49,1
Prince George,Virginia,37.18497668,-77.22922187,49,0
Pulaski,Kentucky,37.10466131,-84.57629079,49,2
Rutland,Vermont,43.57723578,-73.03741676,49,1
Socorro,New Mexico,34.00715494,-106.9298354,49,4
Washington,Virginia,36.72341572,-81.95666289,49,3
Chautauqua,New York,42.2276921,-79.36691763,48,4
Hamilton,Nebraska,40.87349452,-98.02099117,48,7
Henderson,Texas,32.21128872,-95.85846587,48,0
Loudon,Tennessee,35.73939663,-84.31145275,48,0
Marion,Illinois,38.64963204,-88.91899208,48,0
Camden,Georgia,30.92951916,-81.66601818,47,1
Cheshire,New Hampshire,42.92015988,-72.25311043,47,2
Fairfax City,Virginia,38.85157547,-77.2977964,47,3
King George,Virginia,38.26818502,-77.15852768,47,4
Lyon,Nevada,39.01777974,-119.1870479,47,0
Marion,West Virginia,39.50984542,-80.24244659,47,2
Oceana,Michigan,43.64124435,-86.26726673,47,2
Polk,Texas,30.79472531,-94.8276624,47,0
Schoharie,New York,42.58831742,-74.4433903,47,0
Williams,Ohio,41.56052014,-84.58429552,47,1
Windsor,Vermont,43.58010937,-72.58595157,47,2
Wood,West Virginia,39.20967886,-81.5162836,47,2
Amite,Mississippi,31.17467303,-90.80501621,46,0
Anson,North Carolina,34.97403241,-80.09953279,46,0
Calloway,Kentucky,36.62093411,-88.2731593,46,1
Cochise,Arizona,31.87934684,-109.7516088,46,1
Davie,North Carolina,35.93099927,-80.54496571,46,2
Elbert,Georgia,34.11302332,-82.83936148,46,0
Greene,Tennessee,36.17470125,-82.84691273,46,2
Jasper,Illinois,39.01054275,-88.15437049,46,8
Liberty,Georgia,31.82588896,-81.49251135,46,0
Perry,Missouri,37.70660776,-89.82741088,46,0
Union,Pennsylvania,40.96188846,-77.05996014,46,1
Walthall,Mississippi,31.14971548,-90.10446654,46,0
Ben Hill,Georgia,31.76095874,-83.22145359,45,1
Blount,Alabama,33.98210918,-86.56790593,45,0
Bulloch,Georgia,32.39577406,-81.74811421,45,2
Carroll,Virginia,36.73066666,-80.73455942,45,0
Hancock,Ohio,41.00250487,-83.66838948,45,1
Lincoln,North Carolina,35.48508185,-81.21740317,45,0
Lonoke,Arkansas,34.75392199,-91.88742357,45,0
Payne,Oklahoma,36.07695283,-96.97584944,45,1
Rockingham,North Carolina,36.39593137,-79.77504841,45,2
Wilkinson,Georgia,32.80291082,-83.17140684,45,3
Allegany,New York,42.25748406,-78.02750466,44,0
Danville,Virginia,36.58022376,-79.40395668,44,1
Dyer,Tennessee,36.05931946,-89.41542855,44,0
Elbert,Colorado,39.28656773,-104.1358721,44,2
Greene,North Carolina,35.48544173,-77.67578087,44,1
Henry,Iowa,40.98767962,-91.54436349,44,1
Humphreys,Mississippi,33.12825718,-90.52252707,44,5
La Crosse,Wisconsin,43.90632465,-91.11451093,44,0
Lauderdale,Tennessee,35.75893438,-89.6301591,44,0
Moniteau,Missouri,38.63571781,-92.57976951,44,0
Pender,North Carolina,34.52265624,-77.90352133,44,1
Pike,Georgia,33.09310242,-84.38790389,44,2
Toombs,Georgia,32.12059861,-82.32957247,44,4
Tunica,Mississippi,34.64967704,-90.37481167,44,2
Vermilion,Louisiana,29.83517605,-92.30292538,44,3
Banks,Georgia,34.35607081,-83.49644388,43,0
Caswell,North Carolina,36.39312665,-79.33353281,43,1
Clinton,Pennsylvania,41.23255967,-77.63785995,43,0
Edgefield,South Carolina,33.77221995,-81.96231108,43,2
Franklin,Tennessee,35.15634626,-86.09201039,43,1
Hale,Texas,34.07044901,-101.8268114,43,4
Itasca,Minnesota,47.51009045,-93.63092229,43,4
Jasper,Indiana,41.02078733,-87.11553319,43,1
Lincoln,Nebraska,41.04658298,-100.7475374,43,1
Madison,Kentucky,37.71659336,-84.27220275,43,1
Williamsburg,Virginia,37.28131268,-76.70905141,43,3
Adams,Illinois,39.98815591,-91.18786813,42,1
Caroline,Virginia,38.02679129,-77.34901405,42,2
Cedar,Iowa,41.77233777,-91.13246684,42,1
Effingham,Georgia,32.36616021,-81.34280942,42,1
Falls Church,Virginia,38.88485255,-77.17560759,42,4
Fulton,Indiana,41.0469907,-86.26252745,42,1
Gage,Nebraska,40.26186809,-96.68946704,42,3
Gratiot,Michigan,43.29265605,-84.60505416,42,4
Miller,Arkansas,33.31403423,-93.89285258,42,1
Red River,Louisiana,32.09530039,-93.34213308,42,6
Rusk,Texas,32.10773545,-94.76176432,42,1
Westmoreland,Virginia,38.11021557,-76.80213247,42,0
Wharton,Texas,29.27765923,-96.22319248,42,0
Boone,Iowa,42.03657094,-93.9313999,41,0
Bradford,Pennsylvania,41.78869215,-76.51570822,41,2
Carroll,New Hampshire,43.87498583,-71.20430216,41,0
Chester,South Carolina,34.69249168,-81.1583216,41,0
Clinch,Georgia,30.91395822,-82.70432472,41,1
Green,Wisconsin,42.6794956,-89.60243287,41,0
Huron,Michigan,43.83353985,-83.04078453,41,1
Klamath,Oregon,42.68762984,-121.6496461,41,0
Lamar,Georgia,33.07841647,-84.14263877,41,1
Macoupin,Illinois,39.26119767,-89.92424028,41,1
Monroe,Tennessee,35.44550387,-84.24902965,41,1
Nevada,California,39.30394768,-120.7627281,41,1
Newaygo,Michigan,43.554374,-85.80070107,41,0
Oconee,South Carolina,34.75225169,-83.06742317,41,0
Reno,Kansas,37.95230263,-98.08607292,41,0
St. Helena,Louisiana,30.82210324,-90.71013176,41,1
Barnwell,South Carolina,33.26679302,-81.43584352,40,1
Bedford,Virginia,37.3080028,-79.5281964,40,1
Curry,New Mexico,34.57421077,-103.3468876,40,0
Fayette,Indiana,39.63684962,-85.17797541,40,4
Huron,Ohio,41.14651175,-82.59867951,40,1
Marshall,Indiana,41.32467367,-86.26185087,40,1
Mountrail,North Dakota,48.20197971,-102.3555315,40,0
Ochiltree,Texas,36.27829105,-100.8158184,40,2
Perry,Pennsylvania,40.40206612,-77.26297447,40,1
Pulaski,Illinois,37.22631423,-89.13085001,40,0
Rush,Indiana,39.62002287,-85.4655599,40,2
Seminole,Georgia,30.93464824,-84.86823924,40,2
Yankton,South Dakota,43.00924485,-97.39467635,40,0
Alamosa,Colorado,37.57250606,-105.7885451,39,2
Chippewa,Wisconsin,45.06939744,-91.28068855,39,0
Clinton,Ohio,39.41485808,-83.80852286,39,0
Crowley,Colorado,38.32608609,-103.7844965,39,1
Dodge,Georgia,32.17265114,-83.16948926,39,2
Escambia,Alabama,31.1256789,-87.15918694,39,3
Hardee,Florida,27.49293939,-81.80956574,39,0
Henry,Alabama,31.51148016,-85.24267944,39,1
Marion,Georgia,32.3483402,-84.52733571,39,1
Missoula,Montana,47.03728583,-113.9213508,39,1
Morton,North Dakota,46.71681782,-101.2822377,39,2
St. Croix,Wisconsin,45.03437474,-92.45000068,39,0
Waller,Texas,30.01058447,-95.99011759,39,0
Allen,Kentucky,36.75197631,-86.19457544,38,1
Boyd,Kentucky,38.36176608,-82.68652187,38,3
Brantley,Georgia,31.19576557,-81.97743999,38,2
Calhoun,Florida,30.40666734,-85.19394153,38,1
Dawson,Texas,32.74255572,-101.9477242,38,1
Fayette,West Virginia,38.02974928,-81.08286634,38,0
Miller,Georgia,31.16568912,-84.73151117,38,0
Navarro,Texas,32.04620681,-96.47428766,38,2
Ohio,West Virginia,40.0955451,-80.62203992,38,1
Perry,Illinois,38.08510853,-89.36856219,38,0
Pittsburg,Oklahoma,34.92065823,-95.7513432,38,3
Sanilac,Michigan,43.42406072,-82.82055898,38,5
Washington,Vermont,44.27343241,-72.61604978,38,1
Clatsop,Oregon,45.99712889,-123.660711,37,0
Des Moines,Iowa,40.92012606,-91.18326592,37,1
Dukes and Nantucket,Massachusetts,41.40674725,-70.68763497,37,1
Flathead,Montana,48.29575866,-114.0520569,37,2
Guthrie,Iowa,41.68378965,-94.50111014,37,2
La Paz,Arizona,33.72854224,-113.9810029,37,1
LaSalle,Louisiana,31.67884782,-92.15907765,37,0
Montgomery,Illinois,39.23198845,-89.47809254,37,1
Okanogan,Washington,48.54855019,-119.7387224,37,1
Sharp,Arkansas,36.16258158,-91.47819342,37,2
Simpson,Kentucky,36.74058474,-86.58047435,37,2
Stewart,Georgia,32.07996777,-84.83208037,37,0
Sutter,California,39.03417539,-121.6945899,37,2
Wayne,Mississippi,31.64135687,-88.69573913,37,0
Anderson,Tennessee,36.12684348,-84.19965764,36,1
Benton,Iowa,42.08011739,-92.06463573,36,1
Caldwell,Texas,29.83668859,-97.61814775,36,0
Calhoun,Texas,28.47048236,-96.61633945,36,3
Camden,Missouri,38.02199522,-92.76083747,36,1
Carteret,North Carolina,34.8932941,-76.54120135,36,3
Columbia,Wisconsin,43.46492199,-89.33589004,36,1
Dinwiddie,Virginia,37.07544585,-77.63451754,36,0
Fannin,Georgia,34.86430205,-84.316964,36,1
Jones,Iowa,42.12118609,-91.13139641,36,0
Kearny,Kansas,38.00017981,-101.321681,36,0
Otter Tail,Minnesota,46.40846929,-95.70835255,36,0
Perry,Mississippi,31.17161885,-88.99281835,36,2
Prentiss,Mississippi,34.61810501,-88.51986294,36,3
Pulaski,Georgia,32.23334561,-83.4754996,36,1
Pulaski,Missouri,37.82462075,-92.20783203,36,1
Union,Georgia,34.82995757,-83.98967069,36,1
Watonwan,Minnesota,43.97823903,-94.61413846,36,0
White,Arkansas,35.25688493,-91.74908296,36,1
Wilson,Texas,29.1732598,-98.08693082,36,4
Wise,Texas,33.21570665,-97.65460265,36,2
Bullock,Alabama,32.10030533,-85.71265535,35,1
Clark,Arkansas,34.04613432,-93.17484713,35,0
Cross,Arkansas,35.29631396,-90.77185818,35,0
Frio,Texas,28.86751206,-99.10804207,35,0
Harrison,West Virginia,39.2853852,-80.37919577,35,1
Howard,Nebraska,41.2200529,-98.5166499,35,0
Jackson,Minnesota,43.67423373,-95.15398258,35,0
Jefferson,Mississippi,31.73397872,-91.03764977,35,0
Johnson,Arkansas,35.56759135,-93.46036368,35,0
Marshall,Kentucky,36.8800707,-88.32803576,35,2
Martin,North Carolina,35.84326734,-77.10860251,35,4
Morgan,Illinois,39.71654544,-90.20255104,35,1
Pickens,Georgia,34.46589159,-84.46406611,35,3
Red River,Texas,33.61886692,-95.04841765,35,0
Abbeville,South Carolina,34.22333378,-82.46170658,34,0
Barren,Kentucky,36.96469836,-85.93338945,34,0
Blair,Pennsylvania,40.47961444,-78.34917412,34,0
Bleckley,Georgia,32.43829035,-83.33035166,34,0
Cherokee,Texas,31.837258,-95.16559897,34,1
Coosa,Alabama,32.93690146,-86.24847739,34,1
Cortland,New York,42.59509207,-76.07048931,34,0
Dodge,Minnesota,44.02238415,-92.86244324,34,0
Fulton,Ohio,41.60213491,-84.12571393,34,0
Haralson,Georgia,33.79602175,-85.21005667,34,2
Henry,Virginia,36.68542395,-79.87634026,34,2
Jefferson,Indiana,38.78576239,-85.43633383,34,1
Le Sueur,Minnesota,44.37136597,-93.72844721,34,1
Lewis,Washington,46.57756476,-122.3925769,34,3
Muskingum,Ohio,39.96575964,-81.94363275,34,0
Okeechobee,Florida,27.3863362,-80.88944347,34,0
Ottawa,Oklahoma,36.83532655,-94.81011909,34,2
Pulaski,Indiana,41.04166107,-86.69890683,34,0
Scott,Kentucky,38.29622293,-84.5816631,34,0
Shelby,Ohio,40.33163494,-84.20258189,34,1
Sullivan,Missouri,40.2099105,-93.11150106,34,0
Baker,Georgia,31.32669878,-84.44218806,33,2
Becker,Minnesota,46.93479392,-95.67158144,33,0
Bonneville,Idaho,43.38713372,-111.6161537,33,0
Clearfield,Pennsylvania,41.00110782,-78.47592663,33,0
Door,Wisconsin,44.95856458,-87.30002707,33,3
Franklin,Maine,44.97330019,-70.44381045,33,1
Mono,California,37.93899289,-118.8872409,33,1
Morgan,Georgia,33.59232073,-83.49129491,33,0
Nicollet,Minnesota,44.35291112,-94.24710352,33,2
Shasta,California,40.76391419,-122.0396884,33,4
Snyder,Pennsylvania,40.77129231,-77.06840691,33,2
St. Francois,Missouri,37.81214171,-90.47598685,33,2
Staunton,Virginia,38.15965544,-79.05979937,33,0
Winston,Alabama,34.15030532,-87.37325922,33,1
Bedford,Pennsylvania,40.00522157,-78.48998442,32,1
Cook,Georgia,31.16068491,-83.42947229,32,2
East Carroll,Louisiana,32.73926954,-91.23425694,32,0
Essex,New York,44.11630765,-73.77297842,32,0
Franklin,Kansas,38.56443815,-95.28644341,32,0
Goodhue,Minnesota,44.40849741,-92.7234195,32,0
Grant,Kentucky,38.64962758,-84.62415957,32,3
Marathon,Wisconsin,44.89792533,-89.75863384,32,1
Meeker,Minnesota,45.12328869,-94.52839455,32,0
Nelson,Kentucky,37.80335779,-85.4657193,32,0
Person,North Carolina,36.38989032,-78.97217358,32,1
Polk,North Carolina,35.27820615,-82.16812354,32,3
Salem,Virginia,37.2836193,-80.06219455,32,0
Somerset,Pennsylvania,39.97172723,-79.02699593,32,1
Stanly,North Carolina,35.31647813,-80.25093221,32,4
Webster,Kentucky,37.52168356,-87.67989953,32,0
Allendale,South Carolina,32.98837386,-81.35321066,31,3
Elmore,Idaho,43.3507101,-115.4701578,31,2
Essex,Virginia,37.93357639,-76.94230311,31,0
Franklin,Georgia,34.37525597,-83.23159927,31,1
Hawkins,Tennessee,36.44355426,-82.94885298,31,2
Marion,Tennessee,35.12997174,-85.62265895,31,1
Mason,Texas,30.71780434,-99.22629416,31,0
Murray,Minnesota,44.02216709,-95.76328482,31,0
Newberry,South Carolina,34.28629098,-81.59935761,31,1
Rio Arriba,New Mexico,36.51072137,-106.6931674,31,0
Shawano,Wisconsin,44.78902246,-88.76443896,31,0
Teller,Colorado,38.88133511,-105.1614893,31,2
Union,Ohio,40.30016061,-83.37239023,31,0
Union,South Carolina,34.68835752,-81.61730349,31,0
Wakulla,Florida,30.16548905,-84.39895211,31,1
Arenac,Michigan,44.0636262,-83.89277559,30,1
Atascosa,Texas,28.89333001,-98.52730485,30,1
Barton,Kansas,38.47889676,-98.75636726,30,1
Beadle,South Dakota,44.41464384,-98.27858469,30,2
Botetourt,Virginia,37.55531756,-79.80982182,30,3
Brown,Indiana,39.19605589,-86.22868909,30,1
Chaves,New Mexico,33.36406072,-104.4665365,30,2
Chisago,Minnesota,45.5021011,-92.90861945,30,1
Christian,Illinois,39.54581621,-89.27780482,30,4
Coos,Oregon,43.17406868,-124.0594514,30,0
Fayette,Ohio,39.56021306,-83.4562016,30,0
Franklin,Virginia,36.99536167,-79.88023649,30,1
Grundy,Tennessee,35.38433717,-85.72142731,30,1
Hardin,Ohio,40.66015414,-83.65929931,30,0
Jefferson,Washington,47.75003077,-123.5609704,30,0
Jones,Georgia,33.02512137,-83.56019163,30,0
Kewaunee,Wisconsin,44.51727459,-87.61468386,30,1
Mason,Washington,47.35007586,-123.1863685,30,1
McDowell,North Carolina,35.67736232,-82.0482425,30,1
Oconto,Wisconsin,45.02715345,-88.26807503,30,0
Randolph,Indiana,40.15734772,-85.01139319,30,3
Butler,Nebraska,41.22703692,-97.13106306,29,0
Campbell,Wyoming,44.24886082,-105.5474404,29,0
Central Utah,Utah,39.37231946,-111.5758676,29,0
Cherokee,Oklahoma,35.90692775,-94.99980896,29,1
Clay,Georgia,31.62221166,-84.97713865,29,3
Clay,Indiana,39.39561833,-87.11723506,29,1
Custer,Nebraska,41.39374521,-99.72805369,29,3
DeKalb,Tennessee,35.97616272,-85.83689361,29,0
Fayette,Texas,29.87788372,-96.92076062,29,2
Hampton,South Carolina,32.77419582,-81.13845571,29,0
Haywood,Tennessee,35.58332824,-89.28536625,29,1
Hot Spring,Arkansas,34.31709259,-92.95396325,29,0
Jasper,Missouri,37.20351921,-94.34050458,29,0
Juneau,Alaska,58.45031811,-134.200436,29,0
Lawrence,Alabama,34.52041498,-87.31069453,29,0
Lincoln,Idaho,43.0012336,-114.1358773,29,0
Madison,Georgia,34.12920917,-83.21218732,29,1
Muskogee,Oklahoma,35.61318461,-95.37802952,29,6
Pawnee,Oklahoma,36.31743373,-96.7033176,29,2
Putnam,West Virginia,38.50782345,-81.9082131,29,0
Sabine,Louisiana,31.56388699,-93.55433981,29,0
Telfair,Georgia,31.92829517,-82.93491155,29,1
Toole,Montana,48.65577551,-111.6942414,29,6
Vermilion,Illinois,40.18417171,-87.73384359,29,1
Wyandot,Ohio,40.84339621,-83.30734173,29,2
Wyoming,Pennsylvania,41.51955538,-76.01074915,29,4
York,Nebraska,40.87272618,-97.59710186,29,0
Burnet,Texas,30.78801353,-98.181887,28,0
Butler,Missouri,36.71462476,-90.40421163,28,0
Chippewa,Minnesota,45.02343421,-95.56403693,28,0
Clayton,Iowa,42.84443388,-91.34133693,28,3
Gloucester,Virginia,37.40809042,-76.53524337,28,1
Iowa,Iowa,41.68630265,-92.0643373,28,0
Jay,Indiana,40.43781032,-85.00576229,28,0
Jefferson,Florida,30.43669112,-83.89442308,28,2
Mayes,Oklahoma,36.30179091,-95.23175116,28,4
Merrick,Nebraska,41.16624273,-98.0374887,28,0
Pike,Kentucky,37.47088263,-82.39487445,28,2
Preble,Ohio,39.7420247,-84.64787018,28,1
Talbot,Georgia,32.69642758,-84.53351366,28,1
Van Buren,Arkansas,35.58095779,-92.51295036,28,2
Wabaunsee,Kansas,38.95471985,-96.20350509,28,0
Ward,North Dakota,48.22390169,-101.5436763,28,1
Warren,Missouri,38.76529479,-91.16124662,28,0
Warren,North Carolina,36.39728256,-78.10652228,28,0
Whitley,Indiana,41.13863784,-85.50791236,28,2
Wilkes,Georgia,33.78290391,-82.74286107,28,1
Beaufort,North Carolina,35.48531943,-76.84325809,27,0
Cherokee,Alabama,34.17805983,-85.60638968,27,0
Cherokee,North Carolina,35.1349263,-84.05970864,27,1
Clay,Alabama,33.26984193,-85.85836077,27,2
Franklin City,Virginia,36.6831435,-76.93859681,27,1
Greene,Pennsylvania,39.85746531,-80.22357106,27,1
Halifax,Virginia,36.76654925,-78.93512622,27,0
Lamoille,Vermont,44.60353043,-72.64356694,27,1
Lawrence,Ohio,38.59743452,-82.53466552,27,0
Mineral,West Virginia,39.41561583,-78.94104895,27,0
Montezuma,Colorado,37.33859579,-108.5958857,27,3
Owen,Indiana,39.31145587,-86.83900724,27,1
Sevier,Arkansas,33.99780401,-94.2424869,27,1
Starke,Indiana,41.27890281,-86.64686895,27,2
Ashe,North Carolina,36.43296207,-81.49862729,26,0
Baker,Florida,30.33060121,-82.28467476,26,3
Buchanan,Iowa,42.4709188,-91.83510825,26,0
Castro,Texas,34.53016752,-102.2617243,26,1
Charlton,Georgia,30.78371028,-82.13951596,26,1
Clark,Wisconsin,44.73483377,-90.61207486,26,4
Dixon,Nebraska,42.49188363,-96.86782408,26,0
Emanuel,Georgia,32.59221302,-82.30239915,26,1
Jasper,Georgia,33.31535543,-83.68844964,26,0
Jasper,South Carolina,32.43171982,-81.02487495,26,1
Jefferson,Tennessee,36.04818632,-83.45148924,26,0
Kit Carson,Colorado,39.30497777,-102.6022199,26,3
Lake,Colorado,39.20278823,-106.3555697,26,0
Marshall,Tennessee,35.45798777,-86.76420988,26,1
McPherson,Kansas,38.39184858,-97.64769869,26,0
New Kent,Virginia,37.50694406,-76.99828634,26,1
Osceola,Iowa,43.37824276,-95.62422844,26,0
Poinsett,Arkansas,35.57433534,-90.66268713,26,2
Roosevelt,New Mexico,34.02097406,-103.4799493,26,0
Sagadahoc,Maine,43.95415864,-69.85074999,26,0
Stevens,Kansas,37.1923008,-101.3118967,26,0
Stokes,North Carolina,36.4017975,-80.23893369,26,0
Washington,North Carolina,35.83810081,-76.57299037,26,3
Carroll,Tennessee,35.97366108,-88.45189331,25,1
DeKalb,Indiana,41.39804622,-84.99906934,25,1
Defiance,Ohio,41.32398837,-84.49076944,25,1
Donley,Texas,34.96517499,-100.8140093,25,0
Douglas,Nevada,38.912862,-119.6171333,25,0
Dunklin,Missouri,36.27167174,-90.09122243,25,2
Fannin,Texas,33.59564294,-96.10751083,25,2
Fayette,Iowa,42.86271799,-91.8441231,25,0
Fremont,Colorado,38.47362326,-105.4399667,25,0
Gooding,Idaho,42.96927962,-114.8108306,25,0
Hardy,West Virginia,39.00683177,-78.85855301,25,0
Hutchinson,Texas,35.84006574,-101.3546643,25,0
Independence,Arkansas,35.74242707,-91.57001641,25,0
Josephine,Oregon,42.3665549,-123.5561938,25,1
Livingston,Illinois,40.89188292,-88.55784752,25,1
Lyon,Minnesota,44.41327865,-95.83806103,25,0
Mason,Michigan,43.99509218,-86.24988902,25,0
Parmer,Texas,34.52993409,-102.7844668,25,0
Pontotoc,Mississippi,34.226046,-89.03636807,25,2
San Patricio,Texas,28.00880118,-97.51763891,25,0
Sullivan,Indiana,39.08952258,-87.41414469,25,0
Yuba,California,39.26255932,-121.3535644,25,1
Amherst,Virginia,37.60308293,-79.14548696,24,0
Carroll,Ohio,40.5789686,-81.09178213,24,2
Clarion,Pennsylvania,41.19265812,-79.42413524,24,1
Crow Wing,Minnesota,46.48096553,-94.06755609,24,1
Douglas,Oregon,43.27941273,-123.167291,24,0
Greene,Arkansas,36.1173546,-90.55832668,24,0
Guernsey,Ohio,40.05026529,-81.49248905,24,0
Hamblen,Tennessee,36.21990035,-83.26586179,24,2
Jackson,Kansas,39.41673394,-95.79356799,24,0
Jackson,North Carolina,35.28814273,-83.14093385,24,1
Jeff Davis,Georgia,31.80405727,-82.6372487,24,1
Jefferson,Oregon,44.62806839,-121.17832,24,0
Kenai Peninsula,Alaska,60.24429722,-151.5388884,24,2
Levy,Florida,29.31829741,-82.74007147,24,0
Logan,Ohio,40.38996525,-83.76784341,24,0
Madison,Louisiana,32.36918118,-91.23973355,24,0
Madison,Virginia,38.41531222,-78.28220331,24,1
Morrison,Minnesota,46.01265363,-94.27341528,24,0
Powhatan,Virginia,37.55016038,-77.91267882,24,0
Saline,Kansas,38.78369175,-97.65185177,24,2
Seward,Nebraska,40.87241834,-97.139673,24,1
Smith,Tennessee,36.25359775,-85.95411046,24,1
Stephens,Oklahoma,34.48556989,-97.85141892,24,1
Stone,Mississippi,30.79187949,-89.11547539,24,0
Washington,Nebraska,41.52815707,-96.22019892,24,1
Weakley,Tennessee,36.29896232,-88.71990865,24,0
Adair,Missouri,40.19058551,-92.60078167,23,0
Appomattox,Virginia,37.37569884,-78.81340003,23,0
Beaver,Oklahoma,36.7496847,-100.4758872,23,0
Callaway,Missouri,38.83674754,-91.92186505,23,1
Champaign,Ohio,40.13923427,-83.76875242,23,1
Cherokee,South Carolina,35.05122251,-81.61828622,23,1
Converse,Wyoming,42.97272268,-105.5081848,23,0
Cumberland,Virginia,37.51328851,-78.24398086,23,0
Douglas,Illinois,39.76768052,-88.21854195,23,0
Garfield,Oklahoma,36.3791334,-97.78265517,23,1
Grand Traverse,Michigan,44.69565625,-85.55585247,23,5
Hockley,Texas,33.60771256,-102.3431676,23,1
Jasper,Texas,30.74685667,-94.02667579,23,1
Mahaska,Iowa,41.33521503,-92.64083907,23,1
Marinette,Wisconsin,45.38553432,-88.033246,23,2
Marshall,West Virginia,39.86064362,-80.66591062,23,0
Milam,Texas,30.7858183,-96.97718698,23,1
Nowata,Oklahoma,36.79843529,-95.61902331,23,0
Perquimans,North Carolina,36.17847453,-76.40603143,23,2
Pittsylvania,Virginia,36.81980341,-79.39731264,23,1
Russell,Kentucky,36.99308373,-85.06070117,23,4
Sherman,Texas,36.27751473,-101.8933156,23,0
Sweetwater,Wyoming,41.65943896,-108.8827882,23,0
Washington,Idaho,44.45275475,-116.7847688,23,0
Webster,Mississippi,33.61300486,-89.28392912,23,1
Wise,Virginia,36.9746148,-82.62410519,23,2
Andrews,Texas,32.30468633,-102.6376548,22,0
Brown,Ohio,38.93416837,-83.86788395,22,1
Butte,California,39.66727762,-121.6005252,22,0
Charles City,Virginia,37.35358063,-77.05634116,22,1
Crawford,Indiana,38.28814402,-86.44518825,22,0
Crawford,Wisconsin,43.23870316,-90.93073686,22,0
Dixie,Florida,29.60631086,-83.15724673,22,0
Gila,Arizona,33.80190085,-110.8132779,22,1
Haywood,North Carolina,35.55269063,-82.98196486,22,0
Hill,Texas,31.99045053,-97.13423143,22,1
Hood,Texas,32.42990927,-97.83242024,22,3
Irwin,Georgia,31.60213036,-83.27501387,22,1
Jefferson,Georgia,33.05867328,-82.41609057,22,1
Klickitat,Washington,45.87325839,-120.7913598,22,3
Knox,Indiana,38.68861576,-87.4194665,22,0
Labette,Kansas,37.19113093,-95.29849679,22,0
Meade,Kansas,37.23859987,-100.364831,22,0
Meigs,Tennessee,35.51558739,-84.81482914,22,0
O'Brien,Iowa,43.08310673,-95.62474482,22,0
Randolph,Arkansas,36.3415714,-91.02455531,22,0
San Augustine,Texas,31.39457611,-94.17000399,22,1
San Miguel,Colorado,38.00450883,-108.4020725,22,0
Taos,New Mexico,36.58006022,-105.6310198,22,0
Taylor,Georgia,32.55792548,-84.25077141,22,2
Tillman,Oklahoma,34.37288446,-98.92426619,22,1
Van Zandt,Texas,32.56483801,-95.83766469,22,1
Waynesboro,Virginia,38.06451466,-78.90293905,22,0
Yates,New York,42.63505484,-77.10369919,22,4
Benton,Indiana,40.60626947,-87.31093999,21,0
Camp,Texas,32.97195142,-94.97790104,21,0
Christian,Missouri,36.9711783,-93.18537118,21,0
Clallam,Washington,48.04754642,-123.9226319,21,0
Crawford,Pennsylvania,41.68447709,-80.10760592,21,0
Dare,North Carolina,35.66520691,-75.71767334,21,1
Dunn,Wisconsin,44.94562799,-91.8962481,21,0
Emmet,Michigan,45.52625509,-84.89083249,21,2
Jackson,Oklahoma,34.58781741,-99.41138784,21,1
Jones,North Carolina,35.02254606,-77.35870791,21,3
Juneau,Wisconsin,43.92456975,-90.11120239,21,1
Kauai,Hawaii,22.03935037,-159.5966786,21,0
Kendall,Texas,29.94414155,-98.7113588,21,0
Knox,Maine,44.11486325,-69.10529169,21,0
Knox,Ohio,40.39830217,-82.42027563,21,1
Laurel,Kentucky,37.10975748,-84.11321779,21,2
Lawrence,Tennessee,35.21675201,-87.39787695,21,0
Manitowoc,Wisconsin,44.11946801,-87.80928853,21,1
Matanuska-Susitna,Alaska,62.31305045,-149.5741743,21,1
Quitman,Mississippi,34.25157572,-90.28908,21,0
Roscommon,Michigan,44.33473082,-84.61067651,21,0
Seminole,Oklahoma,35.16478725,-96.61686741,21,2
Tipton,Indiana,40.31123252,-86.05234925,21,1
Towns,Georgia,34.91369188,-83.7410746,21,1
Williams,North Dakota,48.34522353,-103.4793387,21,0
Atkinson,Georgia,31.29633502,-82.87545866,20,2
Berrien,Georgia,31.27590016,-83.2252992,20,0
Brunswick,Virginia,36.76366949,-77.8593436,20,1
Choctaw,Mississippi,33.34598242,-89.24809382,20,2
Clark,Kansas,37.23577007,-99.81883015,20,1
Clark,Kentucky,37.9689263,-84.14615986,20,0
Cocke,Tennessee,35.9278914,-83.11828725,20,0
Coshocton,Ohio,40.30096166,-81.91729018,20,0
Dade,Georgia,34.8549167,-85.50490424,20,1
Dallam,Texas,36.27787176,-102.6020725,20,1
Elko,Nevada,41.14531606,-115.3577619,20,1
Franklin,Kentucky,38.2379395,-84.87962551,20,0
Geneva,Alabama,31.09389027,-85.83572839,20,0
Graham,Arizona,32.93166885,-109.8882178,20,0
Grant,Louisiana,31.59882456,-92.56124347,20,1
Grayson,Virginia,36.65677234,-81.23215889,20,0
Huntington,Indiana,40.82907273,-85.48822092,20,2
Marion,Iowa,41.33445101,-93.09934783,20,0
Meade,Kentucky,37.96163597,-86.21028219,20,2
Montgomery,Kansas,37.19236568,-95.74329258,20,2
Payette,Idaho,44.00545243,-116.7647695,20,2
Pecos,Texas,30.78097267,-102.7241261,20,0
Perry,Alabama,32.64048341,-87.29770589,20,0
Rock,Minnesota,43.67482683,-96.25296832,20,0
Saunders,Nebraska,41.2278103,-96.63773905,20,0
Shelby,Iowa,41.6850066,-95.31015553,20,0
Somerset,Maine,45.51229767,-69.95995554,20,0
Union,Florida,30.04412971,-82.37497443,20,0
Vernon,Louisiana,31.10884837,-93.18153838,20,2
Waseca,Minnesota,44.02211116,-93.58720034,20,0
Austin,Texas,29.88548725,-96.27736949,19,0
Carter,Tennessee,36.28969086,-82.12588974,19,1
Cass,Texas,33.07499881,-94.34646905,19,0
Chattahoochee,Georgia,32.34341231,-84.78809239,19,0
Cheboygan,Michigan,45.44787015,-84.50122149,19,1
Clarke,Virginia,39.11271747,-77.99199425,19,0
Crawford,Georgia,32.71391813,-83.98061238,19,0
Drew,Arkansas,33.59035001,-91.71777921,19,1
Fayette,Illinois,39.00072038,-89.02452658,19,2
Franklin,Mississippi,31.47786634,-90.89672989,19,1
Greene,Virginia,38.29545894,-78.46525378,19,1
Guadalupe,New Mexico,34.86319296,-104.790669,19,0
Harrison,Kentucky,38.44188174,-84.32869741,19,0
Hart,Georgia,34.34626973,-82.96567682,19,0
Inyo,California,36.51112084,-117.4111978,19,1
Jefferson,Kansas,39.2347941,-95.38289232,19,0
Lander,Nevada,39.9332233,-117.0397075,19,0
Madison,Idaho,43.78141028,-111.6538474,19,0
Malheur,Oregon,43.1937027,-117.6227395,19,0
McLean,Kentucky,37.5301951,-87.26803443,19,1
Mecosta,Michigan,43.64064262,-85.32463223,19,2
Monroe,Alabama,31.56729412,-87.36995001,19,2
Monroe,Iowa,41.02988815,-92.8690667,19,1
Perry,Indiana,38.07809328,-86.63741946,19,0
Perry,Kentucky,37.25023553,-83.22922731,19,0
Pottawatomie,Kansas,39.37925655,-96.34564657,19,0
Roberts,South Dakota,45.62975048,-96.94672673,19,0
Screven,Georgia,32.74976524,-81.60779441,19,1
Thurston,Nebraska,42.15725356,-96.54157099,19,0
TriCounty,Utah,40.12491499,-109.5174415,19,0
Turner,South Dakota,43.3109081,-97.14865776,19,0
Woodford,Kentucky,38.04178222,-84.7417556,19,0
Alexander,North Carolina,35.9223796,-81.17751948,18,0
Amelia,Virginia,37.34081025,-77.98584649,18,1
Ashley,Arkansas,33.19153461,-91.7698471,18,0
Asotin,Washington,46.18894415,-117.2022851,18,2
Boyle,Kentucky,37.62680923,-84.8633779,18,0
Burleson,Texas,30.49273808,-96.62158484,18,0
Butler,Kansas,37.78134351,-96.83878537,18,0
Cass,Nebraska,40.90899107,-96.13971217,18,0
Cassia,Idaho,42.28347888,-113.6012409,18,1
Colorado,Texas,29.622098,-96.5273805,18,0
Conecuh,Alabama,31.43401703,-86.99320044,18,0
Desha,Arkansas,33.83011025,-91.25500948,18,0
Douglas,Minnesota,45.93348491,-95.45335469,18,0
Fountain,Indiana,40.12361933,-87.24217689,18,2
Franklin,New York,44.59040891,-74.29926032,18,0
Jersey,Illinois,39.08869046,-90.35393073,18,1
Jo Daviess,Illinois,42.36542373,-90.21094405,18,0
Lee,Iowa,40.64181461,-91.48183025,18,0
Lincoln,Oklahoma,35.70270942,-96.8812462,18,2
Logan,Oklahoma,35.91899576,-97.44352845,18,1
Menard,Illinois,40.02742725,-89.80246001,18,0
Okmulgee,Oklahoma,35.64661916,-95.96432828,18,0
Parke,Indiana,39.77202286,-87.20375833,18,0
Tallahatchie,Mississippi,33.95339918,-90.1729398,18,1
Torrance,New Mexico,34.64048375,-105.8508949,18,1
Upshur,Texas,32.73706798,-94.93999853,18,0
Wasco,Oregon,45.16292781,-121.1670954,18,1
White,Tennessee,35.92929884,-85.45591799,18,0
Winneshiek,Iowa,43.29094334,-91.84422722,18,0
Wood,Texas,32.78722382,-95.38236368,18,0
Campbell,Tennessee,36.40355516,-84.1510856,17,1
Cascade,Montana,47.30797024,-111.3467922,17,2
Cerro Gordo,Iowa,43.08177563,-93.2612239,17,0
Clay,Nebraska,40.52439441,-98.05126296,17,0
DeWitt,Texas,29.08101855,-97.3568117,17,1
Eddy,New Mexico,32.47167456,-104.3053527,17,1
Fillmore,Minnesota,43.67394126,-92.08980382,17,1
Ford,Illinois,40.59706922,-88.22350769,17,1
George,Mississippi,30.86259065,-88.64436789,17,1
Gladwin,Michigan,43.98901072,-84.38774817,17,1
Grundy,Iowa,42.40183723,-92.78829551,17,0
Harrison,Iowa,41.68330137,-95.81558439,17,0
Heard,Georgia,33.29686567,-85.12886832,17,1
Henry,Tennessee,36.33160906,-88.30121797,17,0
Isanti,Minnesota,45.56181234,-93.29487636,17,0
Kalkaska,Michigan,44.68512729,-85.09085699,17,2
Lincoln,Maine,44.05996956,-69.54227124,17,0
Marion,Kentucky,37.55218078,-85.26898542,17,0
Moody,South Dakota,44.02266214,-96.67081159,17,0
Morgan,West Virginia,39.55439028,-78.26311676,17,0
Northumberland,Virginia,37.89202088,-76.41949732,17,1
Obion,Tennessee,36.35732446,-89.14921589,17,1
Ogemaw,Michigan,44.33481032,-84.12725175,17,0
Oxford,Maine,44.49952995,-70.75682123,17,0
Pierce,Wisconsin,44.71850291,-92.4224416,17,0
Starr,Texas,26.56150059,-98.73892358,17,0
Todd,Kentucky,36.8381152,-87.17878374,17,0
Washington,Illinois,38.35309213,-89.40982703,17,0
Waupaca,Wisconsin,44.47068056,-88.96534501,17,1
Bamberg,South Carolina,33.21927586,-81.05659969,16,0
Buchanan,Virginia,37.26818323,-82.03749726,16,0
Clear Creek,Colorado,39.68864463,-105.6463118,16,1
Cleveland,Arkansas,33.89723187,-92.18537045,16,0
Codington,South Dakota,44.97788119,-97.18827677,16,0
Columbia,Oregon,45.94464254,-123.0890898,16,0
Cuming,Nebraska,41.91637624,-96.78730772,16,0
Floyd,Kentucky,37.56213922,-82.74750924,16,0
Gem,Idaho,44.06482372,-116.398376,16,0
Grant,Arkansas,34.29017991,-92.42320562,16,0
Grant,New Mexico,32.73911281,-108.3827845,16,0
Hansford,Texas,36.27743284,-101.3545796,16,2
Haskell,Kansas,37.5620394,-100.8710738,16,0
Hughes,South Dakota,44.39091534,-99.99661148,16,0
Jenkins,Georgia,32.79248718,-81.96040187,16,1
Ketchikan Gateway,Alaska,55.57445008,-130.975561,16,0
Lafayette,Wisconsin,42.66005229,-90.1317729,16,0
Lewis and Clark,Montana,47.12610041,-112.394698,16,0
Lincoln,Tennessee,35.13738622,-86.58910106,16,0
Lyon,Iowa,43.38107862,-96.20926845,16,0
Madison,Iowa,41.33081904,-94.01554631,16,1
Mason,Illinois,40.23917274,-89.91824452,16,0
McLeod,Minnesota,44.82367677,-94.27287017,16,0
Missaukee,Michigan,44.33772443,-85.09256478,16,1
Montgomery,Kentucky,38.03253032,-83.9145241,16,0
Nottoway,Virginia,37.1435975,-78.05065922,16,0
Park,Colorado,39.120926,-105.7182065,16,0
Posey,Indiana,38.02097333,-87.86480429,16,0
Saguache,Colorado,38.08054629,-106.282466,16,0
Schley,Georgia,32.2654021,-84.31258912,16,1
Sheridan,Wyoming,44.79048913,-106.8862389,16,0
Spencer,Kentucky,38.03223971,-85.32749335,16,0
Stutsman,North Dakota,46.97962541,-98.95637318,16,0
Sullivan,New Hampshire,43.36094111,-72.22203125,16,1
Switzerland,Indiana,38.82767338,-85.03022429,16,0
Tioga,Pennsylvania,41.77255149,-77.25433032,16,1
Todd,South Dakota,43.19338568,-100.7195503,16,0
Vinton,Ohio,39.25208988,-82.4831444,16,0
Wabasha,Minnesota,44.28424356,-92.23121312,16,0
Warren,Georgia,33.41146451,-82.67795848,16,0
Webster,Missouri,37.2813734,-92.876329,16,0
Wells,Indiana,40.72934187,-85.22132966,16,0
Whitman,Washington,46.90022523,-117.5241763,16,0
Wythe,Virginia,36.91582035,-81.07834059,16,1
Ashland,Ohio,40.84772277,-82.27280781,15,0
Atchison,Kansas,39.53185661,-95.30870026,15,0
Bradley,Arkansas,33.46755808,-92.15980837,15,1
Bureau,Illinois,41.40385234,-89.5283051,15,1
Chattooga,Georgia,34.47197698,-85.34535662,15,2
Columbia,Arkansas,33.21230701,-93.22642793,15,2
Echols,Georgia,30.71101099,-82.89687287,15,0
Erath,Texas,32.23602653,-98.21773417,15,1
Garvin,Oklahoma,34.70418038,-97.30811132,15,1
Grays Harbor,Washington,47.14003705,-123.7820567,15,0
Hart,Kentucky,37.29943898,-85.88461055,15,0
Jackson,Texas,28.95472367,-96.57749563,15,1
Jackson,Wisconsin,44.31864893,-90.80566792,15,1
Johnson,Tennessee,36.4552395,-81.84886538,15,0
Johnson,Wyoming,44.04057166,-106.5845174,15,1
Lamar,Alabama,33.77995024,-88.09668032,15,0
Lea,New Mexico,32.79215361,-103.4123733,15,0
Limestone,Texas,31.5454767,-96.58095444,15,1
Marion,Texas,32.79868409,-94.3566123,15,0
Mariposa,California,37.57978556,-119.9073334,15,1
Mason,West Virginia,38.77071799,-82.02524219,15,0
McKenzie,North Dakota,47.7413337,-103.395905,15,0
Mercer,Illinois,41.20596782,-90.74290052,15,0
Minidoka,Idaho,42.85518524,-113.6357257,15,0
Monona,Iowa,42.05220391,-95.95743843,15,0
Monroe,Wisconsin,43.94641218,-90.618819,15,1
Perry,Ohio,39.73508655,-82.23804971,15,1
Preston,West Virginia,39.46770987,-79.66712803,15,0
San Juan,Washington,48.60182783,-122.96745,15,0
Sebastian,Arkansas,35.19605503,-94.27162713,15,0
Seneca,Ohio,41.12351311,-83.12783209,15,2
Smyth,Virginia,36.84455636,-81.53344948,15,0
Stanton,Nebraska,41.9169835,-97.19394708,15,0
Warren,Tennessee,35.6728299,-85.77969117,15,0
Andrew,Missouri,39.98492163,-94.80163024,14,0
Bannock,Idaho,42.67002716,-112.2233311,14,0
Blackford,Indiana,40.47388153,-85.32499702,14,1
Breckinridge,Kentucky,37.77377239,-86.42885017,14,0
Brookings,South Dakota,44.36974375,-96.79079945,14,0
Caledonia,Vermont,44.46548598,-72.10314651,14,0
Carbon,Wyoming,41.69357844,-106.9326084,14,0
Charlevoix,Michigan,45.37790017,-85.19614053,14,1
Chowan,North Carolina,36.12908077,-76.60118385,14,0
Clare,Michigan,43.98794227,-84.8481986,14,2
Clarke,Iowa,41.02868181,-93.78499767,14,0
Clay,South Dakota,42.91296147,-96.97656917,14,0
Clinton,Missouri,39.6013098,-94.40465394,14,0
Conway,Arkansas,35.26205537,-92.70506566,14,1
Delta,Michigan,45.9048491,-86.9080745,14,2
Gates,North Carolina,36.44667547,-76.69749701,14,0
Geary,Kansas,38.99871131,-96.7577178,14,0
Grant,Kansas,37.56227336,-101.3079758,14,0
Highland,Ohio,39.1839264,-83.60331456,14,1
Hood River,Oregon,45.51872811,-121.6552036,14,0
Howard,Arkansas,34.09007427,-93.9934871,14,0
King William,Virginia,37.70965316,-77.09384941,14,1
Kleberg,Texas,27.42435506,-97.69894948,14,1
Lincoln,Wyoming,42.26376367,-110.6563997,14,0
Logan,West Virginia,37.8299889,-81.93528571,14,1
Lyon,Kentucky,37.02080035,-88.07886257,14,3
New Madrid,Missouri,36.59666326,-89.66070007,14,0
Overton,Tennessee,36.34117832,-85.28989535,14,0
Pike,Missouri,39.34310674,-91.16980779,14,1
Rabun,Georgia,34.88389445,-83.40304637,14,1
Richland,Wisconsin,43.3762778,-90.43012729,14,3
Scioto,Ohio,38.80270163,-82.98907345,14,0
Sequoyah,Oklahoma,35.49447108,-94.75463785,14,3
Southeast Utah,Utah,38.99617072,-110.7013958,14,0
Swisher,Texas,34.53028891,-101.7349174,14,0
Tishomingo,Mississippi,34.74023475,-88.23917219,14,0
Wayne,Georgia,31.5521809,-81.91894878,14,0
Wheeler,Texas,35.40114335,-100.2699514,14,0
Willacy,Texas,26.47411727,-97.61535848,14,1
Woodford,Illinois,40.78579374,-89.20973757,14,1
Benton,Mississippi,34.81681228,-89.18945516,13,0
Bryan,Oklahoma,33.96472458,-96.25903472,13,1
Butler,Iowa,42.73172833,-92.79015971,13,0
Calaveras,California,38.20537103,-120.552913,13,0
Campbell,Virginia,37.20553386,-79.09678609,13,1
Cannon,Tennessee,35.80990797,-86.05738983,13,0
Carroll,Illinois,42.06823429,-89.93395545,13,2
Cleburne,Alabama,33.67679204,-85.52005899,13,1
Cooke,Texas,33.63979567,-97.21240912,13,0
Craig,Oklahoma,36.76268118,-95.20916602,13,0
Crockett,Tennessee,35.81830662,-89.14916269,13,1
Davis,Iowa,40.74773536,-92.41005468,13,0
Gosper,Nebraska,40.51481965,-99.83020279,13,0
Greene,Iowa,42.03614551,-94.39658081,13,0
Greenup,Kentucky,38.54332505,-82.9215658,13,0
Izard,Arkansas,36.09604046,-91.90847954,13,0
Le Flore,Oklahoma,34.89851864,-94.70392124,13,1
Lewis,New York,43.7844157,-75.44903992,13,0
McCreary,Kentucky,36.73874143,-84.48102924,13,0
Mendocino,California,39.4381191,-123.3911313,13,0
Newton,Missouri,36.90519407,-94.3394104,13,1
Perry,Tennessee,35.63708728,-87.86139634,13,0
Phelps,Nebraska,40.51156033,-99.41461667,13,0
Ray,Missouri,39.3537468,-93.98905745,13,0
Shelby,Illinois,39.39133527,-88.80611122,13,1
Val Verde,Texas,29.89149232,-101.1525205,13,0
Washington,Florida,30.61359259,-85.66002461,13,1
Webster,Iowa,42.42853483,-94.17987389,13,1
Yell,Arkansas,35.00292371,-93.41171338,13,1
Alcorn,Mississippi,34.88084463,-88.57996173,12,1
Baca,Colorado,37.31940883,-102.5603223,12,0
Caldwell,Kentucky,37.14749129,-87.86948214,12,0
Chester,Tennessee,35.42527478,-88.6095842,12,0
Custer,Oklahoma,35.63853802,-99.00170785,12,0
Delaware,Iowa,42.47104597,-91.3664492,12,0
Douglas,Wisconsin,46.43222285,-91.91595768,12,0
Gray,Kansas,37.73836671,-100.4369088,12,0
Hampshire,West Virginia,39.32103553,-78.60826476,12,1
Hancock,Illinois,40.40423981,-91.16313899,12,0
Hancock,West Virginia,40.51943859,-80.57461608,12,0
Hardin,Iowa,42.38353877,-93.23654611,12,0
Henderson,Tennessee,35.65581134,-88.38600175,12,0
Henry,Kentucky,38.44942688,-85.11587507,12,0
Howard,Iowa,43.35671042,-92.31702714,12,0
Humphreys,Tennessee,36.03958805,-87.77992872,12,1
Jefferson,Iowa,41.03192394,-91.94849466,12,0
Lanier,Georgia,31.0382857,-83.06472457,12,2
Lincoln,Georgia,33.79201475,-82.45024131,12,0
McNairy,Tennessee,35.17468549,-88.5647812,12,0
Mercer,Kentucky,37.81474237,-84.87488475,12,0
Mercer,West Virginia,37.40481169,-81.11023142,12,0
Middlesex,Virginia,37.63191998,-76.55064617,12,0
Morgan,Tennessee,36.13248031,-84.64880098,12,0
