county,state,Lat,Long_,Confirmed,Deaths
New York City,New York,40.7672726,-73.97152637,218052,23247
Los Angeles,California,34.30828379,-118.2282411,124992,3690
Cook,Illinois,41.84144849,-87.81658794,94005,4676
Maricopa,Arizona,33.34835867,-112.4918154,73165,1012
Miami-Dade,Florida,25.6112362,-80.55170587,55961,1092
Nassau,New York,40.74066522,-73.58941873,42164,2188
Suffolk,New York,40.88320119,-72.8012172,41849,1991
Harris,Texas,29.86,-95.39,40918,423
Westchester,New York,41.16278376,-73.75741653,35183,1432
Dallas,Texas,32.76670599,-96.7779605,30361,436
Philadelphia,Pennsylvania,40.00338507,-75.1379271,27228,1633
Broward,Florida,26.15184651,-80.48725556,25102,427
Middlesex,Massachusetts,42.48607732,-71.39049229,24348,1903
Wayne,Michigan,42.28098405,-83.281255,23701,2744
Riverside,California,33.74314981,-115.9933578,23334,533
Orange,California,33.70147516,-117.7645998,21517,402
Clark,Nevada,36.21458855,-115.0130241,20622,468
Suffolk,Massachusetts,42.3279514,-71.07850442,20172,1013
Bergen,New Jersey,40.96010917,-74.07164325,19771,2020
Prince George's,Maryland,38.83070039,-76.8496441,19456,700
Hudson,New Jersey,40.73766234,-74.07515667,19037,1477
Essex,New Jersey,40.78681335,-74.24657979,18928,2060
Palm Beach,Florida,26.64676272,-80.46536002,18656,578
San Diego,California,33.03484597,-116.7365326,18402,415
Bexar,Texas,29.44928723,-98.52019748,17679,165
San Bernardino,California,34.84060306,-116.1774685,17414,304
Passaic,New Jersey,41.03238628,-74.29954144,17000,1216
Middlesex,New Jersey,40.43629879,-74.41426991,16952,1361
Fairfield,Connecticut,41.26809896,-73.3881171,16886,1380
Hillsborough,Florida,27.9276559,-82.32013172,16666,182
Union,New Jersey,40.65835409,-74.30680092,16462,1341
Essex,Massachusetts,42.6687626,-70.94687179,16379,1133
Tarrant,Texas,32.77143818,-97.29101614,16180,254
Orange,Florida,28.51367621,-81.31799498,15595,69
Montgomery,Maryland,39.13676329,-77.20358245,15503,754
Fairfax,Virginia,38.83677558,-77.27565836,14284,497
Mecklenburg,North Carolina,35.24469268,-80.8317671,13757,158
Rockland,New York,41.15027894,-74.02560498,13683,668
Salt Lake,Utah,40.66616532,-111.9216011,13646,124
Travis,Texas,30.33432034,-97.7853562,13161,159
Providence,Rhode Island,41.87064746,-71.57753536,13144,0
Milwaukee,Wisconsin,43.00486062,-87.96733172,13004,397
Hennepin,Minnesota,45.00761521,-93.47694895,12867,789
Shelby,Tennessee,35.1864775,-89.89692423,12842,214
Worcester,Massachusetts,42.35026951,-71.90493363,12583,954
Davidson,Tennessee,36.17007426,-86.78646056,12549,138
New Haven,Connecticut,41.4080325,-72.93620426,12509,1079
Oakland,Michigan,42.66090111,-83.38595416,12488,1097
Hartford,Connecticut,41.80283011,-72.73103891,11866,1385
Marion,Indiana,39.78163624,-86.13826325,11812,690
King,Washington,47.49137892,-121.8346131,11419,632
Franklin,Ohio,39.96995815,-83.01115755,11122,439
Duval,Florida,30.33225875,-81.66976468,11028,74
Pima,Arizona,32.0971334,-111.7890033,10835,313
Orange,New York,41.40337468,-74.30240757,10810,484
District of Columbia,District of Columbia,38.90417773,-77.01655992,10679,568
Jefferson,Louisiana,29.74075478,-90.11115756,10544,489
Gwinnett,Georgia,33.96044201,-84.02137802,10415,175
Lake,Illinois,42.3224907,-88.00367925,10175,427
Pinellas,Florida,27.93130349,-82.72239666,9826,221
Ocean,New Jersey,39.8895449,-74.28089251,9773,992
Fulton,Georgia,33.79216944,-84.46319413,9586,319
DuPage,Illinois,41.85116968,-88.08642662,9502,483
Norfolk,Massachusetts,42.16073095,-71.20530408,9384,950
Monmouth,New Jersey,40.26549699,-74.22240686,9371,831
Plymouth,Massachusetts,41.94070556,-70.80802823,8777,674
Montgomery,Pennsylvania,40.21053671,-75.36652296,8749,822
Cuyahoga,Ohio,41.424119,-81.65918339,8518,383
Baltimore,Maryland,39.45784712,-76.62911955,8497,493
Bristol,Massachusetts,41.79228404,-71.10872211,8399,594
El Paso,Texas,31.76980765,-106.2363275,8385,145
Orleans,Louisiana,30.06971951,-89.92660315,8344,539
Lee,Florida,26.58410348,-81.88399313,8340,176
Baltimore City,Maryland,39.30211911,-76.61151012,8155,358
Out of GA,Georgia,,,8034,50
Kane,Illinois,41.93842729,-88.42861412,7971,281
Yuma,Arizona,32.76895712,-113.9066674,7899,124
Yakima,Washington,46.45738486,-120.7380126,7868,178
Douglas,Nebraska,41.29518299,-96.15085305,7773,97
Mercer,New Jersey,40.28047017,-74.70479631,7765,596
Macomb,Michigan,42.69158356,-82.92752801,7690,923
Prince William,Virginia,38.70916224,-77.48713689,7687,155
Imperial,California,33.0393082,-115.3669042,7654,127
Denver,Colorado,39.76018276,-104.8725695,7651,386
Fresno,California,36.75733899,-119.6466953,7627,87
Erie,New York,42.76249024,-78.73063652,7624,639
Camden,New Jersey,39.80343818,-74.96388753,7600,540
DeKalb,Georgia,33.76944049,-84.22396017,7472,175
St. Louis,Missouri,38.6377004,-90.4458375,7469,593
Delaware,Pennsylvania,39.91680171,-75.40243663,7447,664
Alameda,California,37.64629437,-121.8929271,7407,146
Hidalgo,Texas,26.39418217,-98.18299696,7334,123
Will,Illinois,41.44619267,-87.97862712,7120,322
Polk,Iowa,41.68679484,-93.57767461,6990,182
Hampden,Massachusetts,42.13440424,-72.63235561,6932,671
Morris,New Jersey,40.86095313,-74.5455371,6864,817
Wake,North Carolina,35.78879266,-78.65249174,6704,57
Charleston,South Carolina,32.82487866,-79.96512315,6699,51
East Baton Rouge,Louisiana,30.53842039,-91.09777565,6468,276
Greenville,South Carolina,34.89502264,-82.37295012,6443,101
Hamilton,Ohio,39.19673558,-84.54502924,6396,206
Cobb,Georgia,33.94243204,-84.5761255,6369,248
Polk,Florida,27.95027105,-81.69732947,6206,127
San Joaquin,California,37.93433732,-121.2730061,6065,67
Jefferson,Alabama,33.55554728,-86.895063,6030,162
Bucks,Pennsylvania,40.33682119,-75.10836643,6003,571
Kern,California,35.34329425,-118.7277796,5979,89
Santa Clara,California,37.23104908,-121.6970462,5678,166
New Castle,Delaware,39.57992638,-75.64054974,5626,249
Collier,Florida,26.11091986,-81.34687065,5577,85
Kent,Michigan,43.03197711,-85.54934642,5575,139
Arapahoe,Colorado,39.64977461,-104.3353617,5510,349
Tulare,California,36.22026558,-118.8020203,5509,148
Anne Arundel,Maryland,39.00670238,-76.60329337,5391,210
Lake,Indiana,41.41874274,-87.38277575,5337,247
Burlington,New Jersey,39.87681124,-74.66927768,5316,446
Nueces,Texas,27.736286,-97.5433285,5260,37
Horry,South Carolina,33.9212828,-78.99555293,5205,65
Pinal,Arizona,32.90525627,-111.3449483,5156,82
Ramsey,Minnesota,45.01625271,-93.09872295,5066,230
Galveston,Texas,29.40167322,-94.90469073,5063,50
Sussex,Delaware,38.66143781,-75.39031349,5008,176
Utah,Utah,40.1166722,-111.6657662,4988,27
Somerset,New Jersey,40.56465737,-74.61683016,4952,544
Sacramento,California,38.45106826,-121.3425374,4932,78
Lancaster,Pennsylvania,40.03904563,-76.24770128,4711,377
Tulsa,Oklahoma,36.11939621,-95.94013939,4693,72
Berks,Pennsylvania,40.41570541,-75.92457766,4647,356
Adams,Colorado,39.87432092,-104.3362578,4588,156
Richland,South Carolina,34.01791263,-80.90267209,4470,93
Mobile,Alabama,30.78472347,-88.20842409,4418,137
Fort Bend,Texas,29.52704478,-95.77219463,4413,60
Jefferson,Kentucky,38.18664655,-85.65931031,4395,204
Lehigh,Pennsylvania,40.6154815,-75.59435245,4370,315
Allegheny,Pennsylvania,40.46809875,-79.98167747,4367,193
Stanislaus,California,37.55862499,-120.9970722,4364,50
Contra Costa,California,37.91923498,-121.9289527,4357,88
Montgomery,Alabama,32.2206831,-86.20969272,4339,109
Loudoun,Virginia,39.08990083,-77.63481877,4319,99
Washington,Arkansas,35.976844,-94.21800746,4309,35
Durham,North Carolina,36.03638492,-78.87608331,4277,67
Manatee,Florida,27.47196942,-82.31831044,4266,138
Dutchess,New York,41.7648606,-73.74356679,4255,152
Oklahoma,Oklahoma,35.55140095,-97.40716948,4194,72
Navajo,Arizona,35.3997715,-110.3218983,4150,134
San Francisco,California,37.75215114,-122.4385672,4145,50
Michigan Department of Corrections (MDOC),Michigan,,,4116,68
Ventura,California,34.44465746,-119.0910613,4093,53
Monroe,New York,43.14638895,-77.69322942,4074,273
Caddo,Louisiana,32.57991587,-93.88375652,4055,243
Collin,Texas,33.18820114,-96.57264368,3948,53
Chester,Pennsylvania,39.97291773,-75.74768357,3918,332
Santa Barbara,California,34.65329488,-120.0188492,3868,29
Snohomish,Washington,48.04615983,-121.7170703,3819,178
Seminole,Florida,28.7158582,-81.24060348,3806,21
San Mateo,California,37.4228808,-122.3275546,3787,111
Minnehaha,South Dakota,43.67441641,-96.7910885,3723,59
Hall,Georgia,34.32207823,-83.81896936,3620,63
Williamson,Texas,30.64655664,-97.6004854,3617,51
Ada,Idaho,43.4526575,-116.2415516,3596,24
Denton,Texas,33.20521901,-97.11691153,3582,37
McKinley,New Mexico,35.5800772,-108.262245,3567,186
Forsyth,North Carolina,36.12859861,-80.25459052,3525,37
Northampton,Pennsylvania,40.75182733,-75.30471829,3513,276
Osceola,Florida,28.06312234,-81.14882926,3466,31
Elkhart,Indiana,41.59761169,-85.85875695,3432,57
Hays,Texas,30.05669873,-98.02944344,3409,11
Hillsborough,New Hampshire,42.91537785,-71.7200253,3387,257
Guilford,North Carolina,36.07959451,-79.78824948,3361,121
Escambia,Florida,30.67652764,-87.37284571,3332,52
Pasco,Florida,28.30810945,-82.40227529,3330,27
Washoe,Nevada,40.66562265,-119.6631594,3328,86
Rutherford,Tennessee,35.84591405,-86.4107263,3326,38
Lafayette,Louisiana,30.2049055,-92.06959876,3293,50
Woodbury,Iowa,42.38979414,-96.0459439,3282,43
Benton,Arkansas,36.33644656,-94.25680817,3270,22
Cameron,Texas,26.14524221,-97.48140372,3246,71
Jefferson,Texas,29.8832777,-94.16434171,3235,36
Volusia,Florida,29.05858895,-81.18263252,3234,67
Lubbock,Texas,33.61008596,-101.8204789,3231,58
Marin,California,38.07122463,-122.7210631,3227,30
Brazoria,Texas,29.18757369,-95.44563172,3146,24
Winnebago,Illinois,42.33641854,-89.16085327,3143,101
Brown,Wisconsin,44.4526553,-88.00411844,3123,43
Chesterfield,Virginia,37.37373208,-77.5868014,3108,61
Hamilton,Tennessee,35.17670231,-85.16652245,3088,37
Onondaga,New York,43.00491923,-76.19971155,3050,188
Cumberland,New Jersey,39.37199394,-75.10712559,3032,149
Potter,Texas,35.40133773,-101.893964,3025,39
Pierce,Washington,47.03892768,-122.1405958,2995,111
Brevard,Florida,28.29409504,-80.73091022,2985,26
Luzerne,Pennsylvania,41.17823008,-75.98447579,2979,179
Atlantic,New Jersey,39.47538693,-74.65848483,2976,226
Kansas City,Missouri,39.0997,-94.5786,2957,31
Weld,Colorado,40.55499405,-104.3929621,2937,138
Jefferson,Colorado,39.58635604,-105.2517692,2922,214
St. Tammany,Louisiana,30.40942847,-89.95642711,2908,183
Montgomery,Texas,30.30079133,-95.50572772,2876,40
Genesee,Michigan,43.02244215,-83.70589709,2870,290
Allen,Indiana,41.09194313,-85.06800636,2867,133
Lucas,Ohio,41.62101218,-83.65468618,2859,304
Kings,California,36.07409056,-119.8159973,2855,39
Ouachita,Louisiana,32.47645559,-92.15704172,2849,84
Bernalillo,New Mexico,35.05163625,-106.6703554,2816,94
St. Louis City,Missouri,38.63555736,-90.24349225,2811,158
El Paso,Colorado,38.83240149,-104.5251411,2804,110
Calcasieu,Louisiana,30.22931235,-93.35400434,2797,63
Wyandotte,Kansas,39.11727348,-94.76378225,2790,87
Howard,Maryland,39.25305293,-76.93126208,2751,92
Marion,Ohio,40.58610662,-83.15736305,2737,39
Henrico,Virginia,37.53460572,-77.39326555,2725,169
Pulaski,Arkansas,34.77054088,-92.31355101,2713,63
Brazos,Texas,30.6636448,-96.30205577,2704,34
Gloucester,New Jersey,39.71581067,-75.13995546,2697,193
Hinds,Mississippi,32.2656285,-90.44435448,2697,48
Multnomah,Oregon,45.54747959,-122.4169351,2694,72
Lexington,South Carolina,33.89665987,-81.27146426,2677,56
Dane,Wisconsin,43.06601594,-89.41733797,2652,33
Johnson,Kansas,38.88548175,-94.82250877,2633,92
San Juan,New Mexico,36.50838318,-108.320437,2628,167
Clayton,Georgia,33.54187245,-84.35594188,2580,81
Arlington,Virginia,38.8767675,-77.10139853,2567,132
Frederick,Maryland,39.47296601,-77.39999394,2567,120
Martin,Florida,27.0772071,-80.43109784,2545,36
Tuscaloosa,Alabama,33.28726072,-87.52556818,2544,48
Dakota,Minnesota,44.67172617,-93.06299363,2524,94
Apache,Arizona,35.39465006,-109.4892383,2520,101
St. Lucie,Florida,27.37763908,-80.47106649,2483,59
Stearns,Minnesota,45.55192576,-94.61078221,2448,19
Muscogee,Georgia,32.50931999,-84.87142262,2438,55
Sarasota,Florida,27.18546175,-82.33174248,2431,100
Alexandria,Virginia,38.814003,-77.08183073,2419,57
Cass,North Dakota,46.93201724,-97.2444719,2402,70
Black Hawk,Iowa,42.4704581,-92.30524729,2397,59
Monterey,California,36.21862405,-121.2413397,2343,17
Coconino,Arizona,35.83883429,-111.7707178,2338,97
Richmond City,Virginia,37.53255773,-77.47966921,2333,33
Anoka,Minnesota,45.27476015,-93.24604565,2328,111
Racine,Wisconsin,42.74753117,-88.05941254,2294,65
McLennan,Texas,31.55255453,-97.20217694,2283,14
Montgomery,Ohio,39.75394919,-84.29050975,2283,35
Summit,Ohio,41.12464734,-81.53123079,2269,209
Dauphin,Pennsylvania,40.41377078,-76.77993242,2247,148
Franklin,Washington,46.53351425,-118.9018212,2212,35
McHenry,Illinois,42.32451172,-88.45248227,2208,100
Pickaway,Ohio,39.64170392,-83.0243386,2206,41
Albany,New York,42.60060306,-73.97723916,2183,121
Benton,Washington,46.23946995,-119.5120834,2183,90
Lake,Florida,28.76202069,-81.7125123,2181,26
Walker,Texas,30.73872995,-95.57440968,2172,28
Webb,Texas,27.7610369,-99.33237355,2163,36
Spartanburg,South Carolina,34.92960077,-81.99225984,2158,58
St. Clair,Illinois,38.46996033,-89.93063427,2128,144
Chatham,Georgia,32.00043026,-81.12489526,2117,38
Santa Cruz,Arizona,31.52508998,-110.8479088,2095,27
Leon,Florida,30.45955727,-84.27491114,2047,8
Dougherty,Georgia,31.53328528,-84.21722377,2042,155
St. Joseph,Indiana,41.61756781,-86.29040834,2025,69
Lancaster,Nebraska,40.78416049,-96.68777155,1990,13
Solano,California,38.26827353,-121.9357113,1985,27
Ford,Kansas,37.69200114,-99.88825298,1960,8
Wayne,North Carolina,35.36438125,-78.00027268,1942,30
Berkeley,South Carolina,33.20222596,-79.94654523,1908,24
Madison,Alabama,34.76327133,-86.55069633,1907,8
Mahoning,Ohio,41.01631101,-80.77287029,1885,239
Southwest Utah,Utah,37.85447192,-111.4418764,1881,15
Johnston,North Carolina,35.51745004,-78.36622717,1879,34
Alachua,Florida,29.67866525,-82.35928158,1871,12
Rapides,Louisiana,31.19778499,-92.52997303,1870,76
Marshall,Alabama,34.36975964,-86.30486727,1866,11
Bell,Texas,31.03736027,-97.4785025,1852,13
Spokane,Washington,47.62113146,-117.4046494,1852,43
Ulster,New York,41.89027881,-74.26252104,1851,86
Washtenaw,Michigan,42.253105,-83.83853204,1849,107
Cumberland,Maine,43.8370751,-70.37226999,1844,65
DeSoto,Mississippi,34.87625235,-89.99091418,1818,18
Sumner,Tennessee,36.46824103,-86.45917204,1802,56
Kent,Delaware,39.08646628,-75.56884914,1795,83
Merced,California,37.18922369,-120.7209035,1793,12
Sedgwick,Kansas,37.6842718,-97.4608198,1792,28
Oneida,New York,43.24375382,-75.43710392,1791,98
Dakota,Nebraska,42.39040144,-96.56656425,1781,35
Lackawanna,Pennsylvania,41.43564672,-75.60379201,1749,209
Lowndes,Georgia,30.83568832,-83.27056716,1743,14
Marion,Oregon,44.90287942,-122.5815117,1743,53
Tangipahoa,Louisiana,30.62888673,-90.40664996,1742,43
Fayette,Kentucky,38.0368225,-84.45576892,1736,30
Buena Vista,Iowa,42.73545875,-95.15100162,1727,11
Beaufort,South Carolina,32.39226291,-80.72619758,1723,23
Butler,Ohio,39.44012838,-84.57388716,1721,47
Washington,Oregon,45.55972701,-123.0955257,1720,20
York,Pennsylvania,39.9210089,-76.73040131,1714,57
Troup,Georgia,33.03349196,-85.02812115,1698,38
Bear River,Utah,41.52106798,-113.0832816,1697,3
Warren,Kentucky,36.99903045,-86.42672751,1685,14
York,South Carolina,34.97281497,-81.18085944,1685,12
Nobles,Minnesota,43.67434621,-95.75329576,1676,6
Kenosha,Wisconsin,42.57639354,-88.04051686,1666,44
Canyon,Idaho,43.61970148,-116.7095499,1665,10
Davis,Utah,40.99001837,-112.1139997,1644,6
Cass,Indiana,40.76135835,-86.34830753,1643,9
Union,North Carolina,34.98960527,-80.52955873,1643,25
Duplin,North Carolina,34.93449805,-77.93140529,1637,29
St. Johns,Florida,29.90096506,-81.43589967,1632,9
Hamilton,Indiana,40.07306535,-86.05244729,1629,101
Cherokee,Georgia,34.24393976,-84.47431861,1621,46
Henry,Georgia,33.4533428,-84.1481466,1611,33
Whitfield,Georgia,34.80987459,-84.96093476,1610,15
Hall,Nebraska,40.87257079,-98.50218293,1608,47
Finney,Kansas,38.04340344,-100.7381938,1595,10
Mohave,Arizona,35.70471703,-113.7577902,1595,96
Williamson,Tennessee,35.89099229,-86.89281867,1591,15
Barnstable,Massachusetts,41.72980578,-70.28854339,1566,150
Bibb,Georgia,32.80904227,-83.70489165,1564,41
Gaston,North Carolina,35.29373559,-81.17477045,1547,15
Virginia Beach,Virginia,36.73285734,-76.04566934,1547,30
Anderson,Texas,31.81534745,-95.65354823,1533,3
Waukesha,Wisconsin,43.01833055,-88.30431188,1526,39
Sonoma,California,38.52746429,-122.8862506,1519,14
Litchfield,Connecticut,41.7937534,-73.2451475,1510,137
Shelby,Alabama,33.26879845,-86.66232561,1509,24
Rockingham,New Hampshire,42.98499744,-71.12883377,1505,92
Trousdale,Tennessee,36.39026213,-86.16087954,1505,5
Robeson,North Carolina,34.64244496,-79.1025053,1504,44
Lee,Alabama,32.60154883,-85.35132246,1494,37
Florence,South Carolina,34.02361754,-79.70189312,1492,56
Cumberland,North Carolina,35.04762133,-78.82623165,1490,41
Jackson,Missouri,39.01002188,-94.34724536,1490,42
Boulder,Colorado,40.09313619,-105.3546767,1486,72
Charles,Maryland,38.51092331,-76.98580666,1483,89
Ascension,Louisiana,30.20406249,-90.9132841,1480,60
Knox,Tennessee,35.99508821,-83.94635435,1471,9
Manassas,Virginia,38.7464321,-77.48509905,1464,18
Sullivan,New York,41.71579493,-74.76394559,1460,48
Monroe,Pennsylvania,41.05934058,-75.34031025,1456,111
Cabarrus,North Carolina,35.3877799,-80.55267168,1454,33
Richmond,Georgia,33.35777107,-82.07026432,1448,59
Hendricks,Indiana,39.76719009,-86.51037283,1439,100
Rowan,North Carolina,35.64003916,-80.52446628,1426,44
Ellis,Texas,32.34894117,-96.79371841,1424,20
Lafourche,Louisiana,29.52470226,-90.40976986,1422,90
Terrebonne,Louisiana,29.37343766,-90.82626855,1415,63
Lebanon,Pennsylvania,40.36680311,-76.45651841,1404,47
Weber-Morgan,Utah,41.27116049,-111.9145117,1396,14
Randolph,North Carolina,35.71015088,-79.80570339,1387,32
Johnson,Iowa,41.67169354,-91.58754744,1384,8
Madison,Mississippi,32.63389156,-90.03513564,1382,36
New Hanover,North Carolina,34.25758282,-77.87075626,1371,7
Saginaw,Michigan,43.33433923,-84.0513121,1361,124
Alamance,North Carolina,36.0434701,-79.39976137,1357,37
Putnam,New York,41.42630093,-73.74965532,1348,63
Kankakee,Illinois,41.13746989,-87.86205334,1344,65
Livingston,Louisiana,30.44143993,-90.73061664,1344,40
Linn,Iowa,42.07923082,-91.59809485,1341,83
Middlesex,Connecticut,41.45949668,-72.53714864,1334,187
Victoria,Texas,28.79780988,-96.96813006,1334,9
Glynn,Georgia,31.23279254,-81.53811412,1332,9
Dallas,Iowa,41.68560356,-94.04127625,1330,31
Columbiana,Ohio,40.76932373,-80.78094576,1324,60
New London,Connecticut,41.48896435,-72.10430976,1319,102
Niagara,New York,43.19898042,-78.74777412,1315,90
Dona Ana,New Mexico,32.35275771,-106.8329387,1306,11
Johnson,Indiana,39.48994426,-86.10149107,1306,118
Sumter,South Carolina,33.91826534,-80.37942316,1305,27
Sarpy,Nebraska,41.11314181,-96.11156432,1299,8
Dorchester,South Carolina,33.0794369,-80.40502652,1295,7
Norfolk,Virginia,36.89934014,-76.26420872,1289,14
Warren,New Jersey,40.85951833,-74.99556527,1261,167
Douglas,Georgia,33.70291126,-84.77026156,1259,37
Out of TN,Tennessee,,,1256,10
Clay,Florida,29.98319144,-81.85609986,1254,34
Kent,Rhode Island,41.67106337,-71.57641596,1234,0
St. Charles,Missouri,38.77875681,-90.66662425,1230,75
Harford,Maryland,39.55010644,-76.3077594,1225,64
Morgan,Alabama,34.45500589,-86.85475946,1220,5
Sussex,New Jersey,41.13891592,-74.69118243,1220,194
Cleveland,Oklahoma,35.20413532,-97.32519562,1208,40
Ottawa,Michigan,42.95996803,-85.9969107,1204,52
Leavenworth,Kansas,39.20183497,-95.03620809,1196,7
Olmsted,Minnesota,44.00374114,-92.40209944,1196,17
Carroll,Maryland,39.56453592,-77.02373735,1190,114
Washington,Minnesota,45.03864533,-92.88429635,1190,40
Colquitt,Georgia,31.18810588,-83.7677946,1189,19
Bossier,Louisiana,32.67932307,-93.60460152,1177,36
Davidson,North Carolina,35.79115496,-80.21256572,1175,15
Jones,Mississippi,31.62257767,-89.168969,1173,49
Kalamazoo,Michigan,42.24542231,-85.53038622,1172,70
Stark,Ohio,40.81482476,-81.36437305,1171,114
Acadia,Louisiana,30.2950649,-92.41419698,1166,44
Smith,Texas,32.37474036,-95.2717568,1164,7
Marion,Florida,29.21227113,-82.05803627,1162,12
Iberia,Louisiana,29.86803617,-91.75871777,1157,48
Sampson,North Carolina,34.98820368,-78.36914061,1149,7
Burke,North Carolina,35.74989637,-81.70755735,1144,20
Ingham,Michigan,42.59716886,-84.37472069,1142,30
Hendry,Florida,26.55386945,-81.16469006,1135,27
Chesapeake,Virginia,36.67670048,-76.30545744,1117,22
Baldwin,Alabama,30.72774991,-87.72207058,1114,10
Wicomico,Maryland,38.37301947,-75.62705831,1109,41
Rock Island,Illinois,41.46613806,-90.57042164,1107,30
Ector,Texas,31.86898877,-102.5429428,1105,13
Wilson,Tennessee,36.15496772,-86.29775884,1099,17
Madison,Illinois,38.83042506,-89.90422563,1095,70
Hunterdon,New Jersey,40.56335249,-74.91284156,1094,125
Catawba,North Carolina,35.66211129,-81.2132617,1093,14
Douglas,Colorado,39.33133796,-104.930001,1078,52
Lorain,Ohio,41.29553751,-82.15083537,1073,68
Pickens,South Carolina,34.88807695,-82.72791551,1072,6
Marshall,Iowa,42.03586837,-92.9990819,1068,19
Spotsylvania,Virginia,38.18574462,-77.655399,1060,31
Forsyth,Georgia,34.22604035,-84.1231513,1057,15
Walker,Alabama,33.80270512,-87.30027177,1051,27
St. John the Baptist,Louisiana,30.12597499,-90.4753503,1049,87
Seward,Kansas,37.19324632,-100.8507201,1048,2
Lincoln,Arkansas,33.95317155,-91.74002806,1046,11
Indian River,Florida,27.69308961,-80.60556721,1045,18
Accomack,Virginia,37.76707161,-75.63234615,1042,14
Harrison,Mississippi,30.51359752,-89.12467576,1040,14
Stafford,Virginia,38.41758738,-77.45917053,1038,6
Yavapai,Arizona,34.59933926,-112.5538588,1037,11
Rankin,Mississippi,32.26469147,-89.94537876,1035,15
Santa Rosa,Florida,30.6934145,-87.02458128,1033,10
Orangeburg,South Carolina,33.4391073,-80.79886287,1028,19
Kendall,Illinois,41.59081014,-88.42869583,1024,23
Neshoba,Mississippi,32.75339664,-89.11726492,1022,74
Midland,Texas,31.86904128,-102.0315682,1020,19
Okaloosa,Florida,30.69143028,-86.59267105,1015,10
Trumbull,Ohio,41.31735028,-80.76109643,1014,74
Champaign,Illinois,40.13919438,-88.20046615,1010,17
Chatham,North Carolina,35.70394416,-79.25541492,1009,44
Starr,Texas,26.56150059,-98.73892358,1005,4
Charlotte,Florida,26.90131002,-81.92949121,1004,77
Clark,Washington,45.77568046,-122.4829204,1004,31
Randall,Texas,34.96585996,-101.8971322,1001,7
Texas,Oklahoma,36.74777635,-101.4889765,1001,6
Hampshire,Massachusetts,42.33997957,-72.65898478,993,117
Placer,California,39.06167234,-120.7240569,993,11
Elmore,Alabama,32.59785413,-86.14415284,989,19
Franklin,Pennsylvania,39.92956518,-77.72157791,989,46
Putnam,Tennessee,36.14005459,-85.50646123,989,7
Iredell,North Carolina,35.80950511,-80.8743128,985,10
Rock,Wisconsin,42.67151616,-89.071479,982,24
Harrisonburg,Virginia,38.43542574,-78.87536254,975,28
Mower,Minnesota,43.67142874,-92.75234549,972,2
Berrien,Michigan,41.95447397,-86.4131308,967,60
Titus,Texas,33.21339719,-94.96797273,965,6
Dallas,Alabama,32.32688101,-87.1086671,963,9
Carroll,Georgia,33.58138199,-85.07976677,946,40
St. Landry,Louisiana,30.59724262,-92.00135806,944,59
Lauderdale,Mississippi,32.40419769,-88.66229662,942,81
Bay,Florida,30.26548745,-85.62122584,940,5
Jasper,Missouri,37.20351921,-94.34050458,940,9
Forrest,Mississippi,31.18961454,-89.25832496,939,43
St. Martin,Louisiana,30.13112107,-91.61403569,939,27
Guadalupe,Texas,29.58165339,-97.94786822,929,3
Tolland,Connecticut,41.85853803,-72.3308481,928,64
Buchanan,Missouri,39.65816401,-94.80138942,927,4
Kaufman,Texas,32.5991417,-96.28734728,927,5
Scott,Iowa,41.63935978,-90.61959493,926,10
Tift,Georgia,31.45743864,-83.5236119,924,26
Cumberland,Pennsylvania,40.1625372,-77.26130755,922,66
Franklin,Alabama,34.44235334,-87.84289505,922,16
Shawnee,Kansas,39.04100763,-95.7557264,918,13
Warren,Ohio,39.42581994,-84.16557457,918,25
Westmoreland,Pennsylvania,40.3137798,-79.46615476,917,39
Clackamas,Oregon,45.18787398,-122.2179634,914,27
Moore,Texas,35.83769242,-101.8930281,912,15
Anderson,South Carolina,34.51828081,-82.63959517,908,16
Cochise,Arizona,31.87934684,-109.7516088,905,20
Lee,North Carolina,35.47623147,-79.17569362,901,8
St. Francis,Arkansas,35.02201976,-90.74828138,898,3
Orange,North Carolina,36.06092947,-79.12167935,892,42
Bradley,Tennessee,35.15739424,-84.857186,889,4
Umatilla,Oregon,45.59073056,-118.7353826,886,7
Etowah,Alabama,34.04567266,-86.04051873,882,14
Robertson,Tennessee,36.52454807,-86.87346725,882,13
Muskegon,Michigan,43.29123859,-86.15176712,881,53
Granville,North Carolina,36.30337451,-78.65184241,877,23
San Luis Obispo,California,35.38822029,-120.4039028,877,4
Pitt,North Carolina,35.59535426,-77.37353178,876,9
Wilson,North Carolina,35.70625477,-77.917978,875,24
Houston,Georgia,32.45802497,-83.66879087,871,29
Dawson,Nebraska,40.87028216,-99.8201461,869,8
Larimer,Colorado,40.66671597,-105.4625784,869,30
Sevier,Tennessee,35.78077323,-83.52244332,863,3
Rice,Minnesota,44.3543376,-93.29658715,862,8
Bartow,Georgia,34.23732119,-84.83887523,859,42
Kenton,Kentucky,38.93950319,-84.53241199,857,37
Madera,California,37.21513971,-119.7665589,857,8
Schenectady,New York,42.81668777,-74.05278291,848,37
Honolulu,Hawaii,21.45803166,-157.9712182,842,13
Clarke,Georgia,33.95436462,-83.37124007,841,15
DeKalb,Alabama,34.45946862,-85.80782906,841,6
Culpeper,Virginia,38.48199985,-77.9563087,837,12
Dubuque,Iowa,42.46815349,-90.88181925,834,22
St. Charles,Louisiana,29.90709658,-90.35555967,834,49
Comal,Texas,29.80811278,-98.27647225,825,15
Story,Iowa,42.03621213,-93.46499005,825,4
Kershaw,South Carolina,34.33988254,-80.58763164,822,17
Coweta,Georgia,33.35334302,-84.76129976,821,16
Henderson,North Carolina,35.33788927,-82.4766782,820,51
Lee,Arkansas,34.78498904,-90.78383866,817,3
Crittenden,Arkansas,35.21247318,-90.30839406,815,13
Newton,Georgia,33.55514538,-83.8454714,812,12
Salem,New Jersey,39.58719656,-75.3469663,811,77
Jefferson,Arkansas,34.26767081,-91.92619839,808,28
Scott,Minnesota,44.6490231,-93.53340251,803,4
Sandoval,New Mexico,35.68862401,-106.8687803,802,30
Yolo,California,38.68278902,-121.9018288,802,28
DeSoto,Florida,27.18677893,-81.80941373,799,11
Yell,Arkansas,35.00292371,-93.41171338,799,5
Beaver,Pennsylvania,40.6825484,-80.34921611,796,79
Scott,Mississippi,32.4067041,-89.53789439,792,15
Twin Falls,Idaho,42.35440512,-114.6685381,788,25
Iberville,Louisiana,30.25734305,-91.3499598,786,43
Clark,Ohio,39.91592258,-83.78498252,784,10
Johnson,Texas,32.37877812,-97.36615819,782,4
Sevier,Arkansas,33.99780401,-94.2424869,781,9
Porter,Indiana,41.45986947,-87.06848888,780,38
Pottawattamie,Iowa,41.33640314,-95.53907776,780,12
Paulding,Georgia,33.91969522,-84.86848792,778,16
Washington,Louisiana,30.85288548,-90.03866652,778,48
Buncombe,North Carolina,35.61113393,-82.53305,777,30
Broome,New York,42.15903158,-75.81326086,770,60
Tom Green,Texas,31.40464436,-100.462443,770,3
Schuylkill,Pennsylvania,40.70497338,-76.2150785,765,47
Rockingham,Virginia,38.51006137,-78.87260325,763,12
Winnebago,Wisconsin,44.06886922,-88.64477096,747,13
Harnett,North Carolina,35.36731853,-78.87243571,744,30
Hot Spring,Arkansas,34.31709259,-92.95396325,743,1
Tippecanoe,Indiana,40.38872739,-86.89413959,743,9
Habersham,Georgia,34.63331566,-83.53094677,740,39
Eagle,Colorado,39.62754308,-106.6933637,738,8
Grant,Washington,47.20753737,-119.4500749,738,8
Coffee,Georgia,31.54892966,-82.8549206,734,17
Brunswick,North Carolina,34.070565,-78.22814204,727,7
Jackson,Mississippi,30.54020656,-88.64184064,727,17
Georgetown,South Carolina,33.43443342,-79.33202141,724,7
Cape May,New Jersey,39.15008829,-74.80170244,723,76
Walworth,Wisconsin,42.66858202,-88.54163073,723,18
Wapello,Iowa,41.03064984,-92.40954728,712,31
Columbia,Georgia,33.54534185,-82.263524,709,12
Hernando,Florida,28.55364461,-82.42700204,708,6
Dodge,Nebraska,41.58071748,-96.65598179,706,8
Sebastian,Arkansas,35.19605503,-94.27162713,705,7
Washington,Maryland,39.60835778,-77.82002295,702,29
Faulkner,Arkansas,35.14719007,-92.33717519,701,3
Erie,Pennsylvania,41.99253829,-80.03301954,699,12
Lake,Tennessee,36.3418017,-89.48921915,697,0
Grayson,Texas,33.62744998,-96.67753461,695,7
Whatcom,Washington,48.82227976,-121.7490018,689,40
Suwannee,Florida,30.19746066,-82.9909967,686,21
Platte,Nebraska,41.57246836,-97.52144359,684,3
Boone,Kentucky,38.97065142,-84.72615357,683,23
Muscatine,Iowa,41.48370744,-91.1121697,683,44
Gregg,Texas,32.47940482,-94.81591935,682,13
Crawford,Iowa,42.03718237,-95.3819718,679,3
McDonald,Missouri,36.62869595,-94.34867205,678,1
St. Bernard,Louisiana,29.87761636,-89.51887093,678,23
Maverick,Texas,28.7429195,-100.3157686,677,6
Colfax,Nebraska,41.57486951,-97.0868542,676,4
Tipton,Tennessee,35.501942,-89.73694895,674,6
St. Mary's,Maryland,38.30058422,-76.6062928,673,51
Clark,Indiana,38.48015445,-85.70510334,671,44
Floyd,Georgia,34.26268279,-85.21577392,670,15
Greenwood,South Carolina,34.15272415,-82.12715789,669,7
Madison,Indiana,40.16143691,-85.71964711,668,64
Laurens,South Carolina,34.48244419,-82.00490796,667,13
St. Mary,Louisiana,29.69262097,-91.44702164,664,39
Hale,Texas,34.07044901,-101.8268114,661,8
Bastrop,Texas,30.10370699,-97.31206354,659,8
Newport News,Virginia,37.08166899,-76.51754109,659,10
Montgomery,Tennessee,36.49609412,-87.38550661,658,7
Chambers,Alabama,32.91360079,-85.39072749,657,27
Russell,Alabama,32.28725256,-85.18415324,657,0
Monroe,Michigan,41.92734151,-83.53749864,656,21
Morgan,Colorado,40.2627981,-103.8093302,655,46
Autauga,Alabama,32.53952745,-86.64408227,653,13
Angelina,Texas,31.25457347,-94.60901487,645,9
Delaware,Ohio,40.27942393,-83.00457058,645,15
Butler,Alabama,31.75300095,-86.68057478,643,28
Chittenden,Vermont,44.46322849,-73.08359212,643,39
Washington,Mississippi,33.28392041,-90.94196237,643,10
Logan,Colorado,40.7249637,-103.110817,640,5
Grimes,Texas,30.54579585,-95.98902499,638,2
Hunt,Texas,33.12351514,-96.08551032,637,8
Copiah,Mississippi,31.86977774,-90.44565118,631,15
Windham,Connecticut,41.82972709,-71.98182316,630,14
Boone,Illinois,42.32359279,-88.82345779,629,21
Vanderburgh,Indiana,38.02658833,-87.58763124,629,6
Bledsoe,Tennessee,35.59942968,-85.20611967,625,1
Rockdale,Georgia,33.65145002,-84.02202167,625,11
Taylor,Texas,32.30163422,-99.89007449,622,7
Anchorage,Alaska,61.14998174,-149.1426986,619,7
Putnam,Florida,29.60779729,-81.74230285,619,7
Baldwin,Georgia,33.06882326,-83.24701748,617,34
Pennington,South Dakota,44.0025835,-102.8240777,616,18
Tallapoosa,Alabama,32.86698258,-85.79833053,616,69
Fairfield,Ohio,39.75107189,-82.63088163,614,17
Leake,Mississippi,32.7536828,-89.52402044,613,20
Berkshire,Massachusetts,42.37428441,-73.20524838,609,45
Peoria,Illinois,40.78702156,-89.76078901,609,29
Jones,Texas,32.73997145,-99.87861576,607,0
Livingston,Michigan,42.60302282,-83.91297209,607,28
Portsmouth,Virginia,36.85914825,-76.35971629,605,18
Shenandoah,Virginia,38.85905135,-78.56813762,604,35
DeKalb,Illinois,41.89373302,-88.76958483,602,20
Wilkes,North Carolina,36.2084135,-81.16232895,602,6
St. Clair,Michigan,42.92655373,-82.67937954,599,53
Clay,Minnesota,46.89289518,-96.48761922,598,38
Sumter,Georgia,32.03650571,-84.19821492,598,50
LaPorte,Indiana,41.54366008,-86.74072188,597,27
Outagamie,Wisconsin,44.41578887,-88.46565023,597,9
McCurtain,Oklahoma,34.11664328,-94.77222373,596,9
Bedford,Tennessee,35.51123746,-86.45549096,595,9
Calhoun,Michigan,42.24633834,-85.00493569,594,39
Lancaster,South Carolina,34.68270843,-80.70513032,594,14
Moore,North Carolina,35.30885257,-79.48474178,594,14
Bartholomew,Indiana,39.20744865,-85.89558181,592,45
Tuscarawas,Ohio,40.44214695,-81.47226262,590,10
Barrow,Georgia,33.99148694,-83.71436292,589,25
Val Verde,Texas,29.89149232,-101.1525205,588,1
Lee,Mississippi,34.2918775,-88.68149954,586,21
Nash,North Carolina,35.96575634,-77.98422508,586,6
Rensselaer,New York,42.71348136,-73.51089874,586,30
Columbus,North Carolina,34.26744084,-78.65801424,585,39
Pope,Arkansas,35.44871474,-93.03212219,585,4
Saratoga,New York,43.10904162,-73.86653895,585,17
Kandiyohi,Minnesota,45.1526059,-95.00586446,584,1
Howard,Indiana,40.48527731,-86.11351892,582,58
Caldwell,Texas,29.83668859,-97.61814775,580,4
Ware,Georgia,31.05449097,-82.42224148,576,16
Aiken,South Carolina,33.54338026,-81.63645384,575,11
Limestone,Alabama,34.81185586,-86.98310072,574,1
Holmes,Mississippi,33.12345854,-90.08923538,573,41
Buckingham,Virginia,37.57242268,-78.52518834,572,6
Skagit,Washington,48.48171488,-121.766131,571,16
Oktibbeha,Mississippi,33.42491685,-88.87905132,568,28
Kosciusko,Indiana,41.24521668,-85.86312322,565,4
Caldwell,North Carolina,35.95204977,-81.54799522,563,6
Bulloch,Georgia,32.39577406,-81.74811421,561,4
Kootenai,Idaho,47.67282258,-116.7020872,559,1
Belmont,Ohio,40.01625942,-80.9924051,558,22
York,Maine,43.47808377,-70.71052375,557,11
La Crosse,Wisconsin,43.90632465,-91.11451093,556,0
Wayne,Mississippi,31.64135687,-88.69573913,554,16
Summit,Utah,40.86688146,-110.9535882,553,1
Warren,Mississippi,32.35810271,-90.83352619,553,20
Houston,Alabama,31.15197924,-85.29939599,552,6
Surry,North Carolina,36.41689489,-80.69102283,552,2
Beadle,South Dakota,44.41464384,-98.27858469,551,7
Lake,Ohio,41.69710807,-81.23676539,551,22
Jefferson Davis,Louisiana,30.26896765,-92.81210004,549,11
Sumter,Florida,28.70181754,-82.0794267,549,18
Hardee,Florida,27.49293939,-81.80956574,548,3
Medina,Ohio,41.11770589,-81.8998621,548,32
Vance,North Carolina,36.36880673,-78.40670845,548,40
Wichita,Texas,33.98842886,-98.7041034,548,3
Blaine,Idaho,43.4085812,-113.9752658,546,5
Macon,Tennessee,36.53157855,-86.00778595,546,6
Saline,Nebraska,40.52418865,-97.14085859,545,2
Shelby,Kentucky,38.21476019,-85.194223,545,17
Yazoo,Mississippi,32.77890365,-90.39656148,543,6
Roanoke City,Virginia,37.27791025,-79.96189766,542,10
Newton,Missouri,36.90519407,-94.3394104,540,2
Clay,Missouri,39.31132056,-94.41850862,539,13
Cullman,Alabama,34.13020303,-86.86888037,539,5
Jefferson,Missouri,38.25926778,-90.53870896,539,22
Washington,Rhode Island,41.45961631,-71.61435303,538,0
Lauderdale,Alabama,34.90171875,-87.65624729,537,6
Licking,Ohio,40.09136236,-82.48185785,536,12
Thomas,Georgia,30.86392347,-83.91847289,536,32
Blue Earth,Minnesota,44.03554215,-94.06699781,535,2
Grenada,Mississippi,33.77036166,-89.80245083,535,7
Jackson,Michigan,42.24807035,-84.42258681,535,32
Frederick,Virginia,39.20172582,-78.25974949,534,6
Muhlenberg,Kentucky,37.21425819,-87.14632053,532,8
Stanly,North Carolina,35.31647813,-80.25093221,531,5
Franklin,Louisiana,32.13675181,-91.67589857,527,14
Spalding,Georgia,33.26310031,-84.28013991,527,33
Lowndes,Mississippi,33.47386518,-88.4419153,526,13
Leflore,Mississippi,33.55545125,-90.29900733,522,56
Marshall,Indiana,41.32467367,-86.26185087,521,7
Darlington,South Carolina,34.33358335,-79.96027485,519,17
Berkeley,West Virginia,39.46704621,-78.02414609,517,10
Jackson,Florida,30.7954597,-85.21500423,517,2
Nacogdoches,Texas,31.62017125,-94.61803994,516,29
Lyon,Kansas,38.45576156,-96.15275715,515,7
Cecil,Maryland,39.56647682,-75.94627411,514,29
Craighead,Arkansas,35.83018283,-90.63235729,514,7
Albemarle,Virginia,38.02080697,-78.55481085,512,10
Lincoln,Mississippi,31.53288662,-90.45391915,509,35
Parker,Texas,32.77757172,-97.80500621,507,1
Santa Cruz,California,37.05580291,-122.0066524,506,3
Wright,Minnesota,45.17297924,-93.96234781,505,5
Boone,Missouri,38.99186229,-92.30723575,504,2
Pike,Pennsylvania,41.33155042,-75.03208106,504,21
Suffolk,Virginia,36.70155394,-76.63603554,504,40
Walton,Georgia,33.78017694,-83.73552314,504,28
Androscoggin,Maine,44.1664747,-70.20380627,502,4
Lamar,Mississippi,31.20572971,-89.5077704,502,7
Gadsden,Florida,30.57796289,-84.61915825,495,7
Sangamon,Illinois,39.75836914,-89.65872023,493,33
Sioux,Iowa,43.08221074,-96.1767568,493,0
Dodge,Wisconsin,43.41576662,-88.70928178,492,5
Chelan,Washington,47.87046092,-120.6173956,491,6
Noble,Indiana,41.39672484,-85.41966713,491,28
Webster,Louisiana,32.70847669,-93.33121835,490,12
Miami,Ohio,40.0543329,-84.22871271,486,31
Daviess,Kentucky,37.73028906,-87.0901948,483,8
Jackson,Georgia,34.13794553,-83.56814788,483,10
Columbia,New York,42.24819348,-73.63089095,482,37
LaGrange,Indiana,41.64232188,-85.42674232,482,9
Gordon,Georgia,34.50487351,-84.87296253,480,18
Lowndes,Alabama,32.1597283,-86.65158371,480,22
Tama,Iowa,42.07991767,-92.53266945,478,29
Jackson,Indiana,38.9091582,-86.03851889,477,3
Mitchell,Georgia,31.22483255,-84.19381821,477,40
Portage,Ohio,41.16793482,-81.19735782,477,59
Fayette,Georgia,33.41357794,-84.49089434,476,19
Comanche,Oklahoma,34.65973764,-98.47195055,474,7
Highlands,Florida,27.34254618,-81.34071957,473,12
Bowie,Texas,33.44626922,-94.41834132,471,15
Pike,Mississippi,31.17507789,-90.40392572,470,20
Chambers,Texas,29.70972016,-94.67154501,469,2
Citrus,Florida,28.84804315,-82.47614748,469,13
St. Clair,Alabama,33.71902176,-86.31029372,469,2
Vermilion,Louisiana,29.83517605,-92.30292538,467,6
Napa,California,38.50735751,-122.332839,466,4
Colbert,Alabama,34.69847452,-87.80168544,465,6
Payne,Oklahoma,36.07695283,-96.97584944,465,1
Williamsburg,South Carolina,33.62190129,-79.72767442,465,15
Liberty,Texas,30.15152688,-94.81205615,464,3
Union,Louisiana,32.83121059,-92.3749373,463,27
Clarendon,South Carolina,33.66610974,-80.21647898,462,45
Washington,Wisconsin,43.36863664,-88.22974712,461,17
Wood,Ohio,41.36224827,-83.62285108,461,51
Delaware,Indiana,40.22787247,-85.39732772,460,52
Fauquier,Virginia,38.73564842,-77.80647472,460,8
Boone,Indiana,40.0509304,-86.46841646,459,44
Hanover,Virginia,37.7583355,-77.49464673,459,31
Okeechobee,Florida,27.3863362,-80.88944347,459,0
Pike,Alabama,31.80396383,-85.9408295,459,5
Hancock,Indiana,39.82304555,-85.77566351,457,36
Escambia,Alabama,31.1256789,-87.15918694,452,8
Sunflower,Mississippi,33.60192578,-90.58882684,452,8
East Carroll,Louisiana,32.73926954,-91.23425694,451,1
Manassas Park,Virginia,38.77058531,-77.44399307,451,6
Cleveland,North Carolina,35.33553364,-81.55204486,448,8
Avoyelles,Louisiana,31.07796211,-92.00079449,447,16
Monroe,Florida,25.20904673,-81.07812416,445,6
Orange,Texas,30.11879481,-93.89412775,443,5
Wasatch,Utah,40.33110236,-111.1691419,442,4
San Juan,Utah,37.62762978,-109.8033714,441,11
Washington,Oklahoma,36.71380786,-95.90514104,440,39
Ashtabula,Ohio,41.70860332,-80.74830218,438,44
Lafayette,Mississippi,34.35687874,-89.48490961,437,4
Calhoun,Alabama,33.77483727,-85.82630386,436,5
Clermont,Ohio,39.04847534,-84.15375786,436,7
Monroe,Mississippi,33.89236763,-88.4808438,436,35
Calvert,Maryland,38.53961642,-76.56820632,435,27
Franklin,North Carolina,36.081519,-78.28708884,435,21
Flagler,Florida,29.45933576,-81.31508595,434,5
Hoke,North Carolina,35.01888303,-79.23651674,434,4
Shelby,Indiana,39.52305623,-85.7915857,434,25
Walton,Florida,30.64204028,-86.16935664,434,9
Carver,Minnesota,44.82017001,-93.8009918,433,1
Chattahoochee,Georgia,32.34341231,-84.78809239,433,0
St. James,Louisiana,30.02531716,-90.80212061,432,30
Canadian,Oklahoma,35.5426055,-97.98465569,430,3
Craven,North Carolina,35.11833364,-77.08398081,426,8
Hampton,Virginia,37.03513786,-76.35879121,424,4
Colleton,South Carolina,32.87582989,-80.67641292,423,22
Rockwall,Texas,32.89779518,-96.40771592,423,17
Chesterfield,South Carolina,34.64137396,-80.1564014,422,15
Hamblen,Tennessee,36.21990035,-83.26586179,422,4
Merrimack,New Hampshire,43.29662971,-71.6811573,422,19
Columbia,Florida,30.22509788,-82.62160164,421,4
Navarro,Texas,32.04620681,-96.47428766,421,6
Maury,Tennessee,35.6187413,-87.07462444,420,3
Saline,Arkansas,34.64916145,-92.67583224,420,3
Bladen,North Carolina,34.61296243,-78.56180059,419,5
Covington,Mississippi,31.63225413,-89.55389939,419,5
Monongalia,West Virginia,39.63218457,-80.04766838,419,5
Pueblo,Colorado,38.17359144,-104.5127437,417,30
Columbia,Pennsylvania,41.04821986,-76.40565017,416,35
Bay,Michigan,43.70639106,-83.98731479,415,31
Geauga,Ohio,41.49952319,-81.17935342,415,43
Lee,Georgia,31.7793306,-84.14324253,414,22
Grand Forks,North Dakota,47.92093639,-97.45450447,412,4
Allen,Louisiana,30.65385745,-92.82442028,410,12
Harris,Georgia,32.73709786,-84.90538572,410,12
Hamilton,Florida,30.49673973,-82.94998918,409,2
De Soto,Louisiana,32.05457447,-93.74130302,408,20
Coffee,Alabama,31.39932826,-85.98901039,407,4
Greene,Missouri,37.2575872,-93.34230916,407,8
Lenoir,North Carolina,35.2403259,-77.64245615,406,11
Madison,Louisiana,32.36918118,-91.23973355,406,3
Nassau,Florida,30.61037141,-81.80297522,405,2
Assumption,Louisiana,29.89946234,-91.06461642,404,16
Todd,Minnesota,46.06996226,-94.89785296,402,2
Deaf Smith,Texas,34.96522957,-102.6054267,401,17
Covington,Alabama,31.2477854,-86.45050893,399,11
Onslow,North Carolina,34.72607366,-77.42908179,399,3
Panola,Mississippi,34.36398677,-89.95064249,399,6
Butler,Pennsylvania,40.91152759,-79.91351055,396,13
Montgomery,North Carolina,35.33155144,-79.90416657,393,9
Harrison,Texas,32.54935988,-94.36934071,392,31
Floyd,Indiana,38.32117957,-85.90385377,391,44
Wright,Iowa,42.73305373,-93.73515113,389,1
Burleigh,North Dakota,46.97847375,-100.4645214,385,0
Gila,Arizona,33.80190085,-110.8132779,385,11
Kanawha,West Virginia,38.33860077,-81.52857054,384,20
La Paz,Arizona,33.72854224,-113.9810029,384,7
Lincoln,Louisiana,32.6003154,-92.6659741,383,19
Upson,Georgia,32.87920671,-84.30024826,383,45
Franklin,Massachusetts,42.58119713,-72.58602547,381,56
Hardeman,Tennessee,35.20772017,-88.99161161,381,4
Lincoln,South Dakota,43.27841182,-96.7203905,381,1
Bolivar,Mississippi,33.79696941,-90.87372121,380,18
Fremont,Wyoming,43.04183996,-108.6296893,379,0
Madison,Nebraska,41.91676024,-97.6005481,379,4
Douglas,Kansas,38.88503636,-95.2925121,377,0
Yellowstone,Montana,45.93955949,-108.2691486,377,6
Attala,Mississippi,33.08658803,-89.57838564,375,24
Jackson,Alabama,34.78144169,-85.99750489,374,2
Greensville,Virginia,36.67878901,-77.56351439,373,8
Oconee,South Carolina,34.75225169,-83.06742317,373,1
Simpson,Mississippi,31.91282117,-89.91716179,373,3
Oceana,Michigan,43.64124435,-86.26726673,372,4
Bullock,Alabama,32.10030533,-85.71265535,370,10
Madison,New York,42.91653905,-75.67266639,368,17
St. Joseph,Michigan,41.91441767,-85.52797979,368,5
Barbour,Alabama,31.868263,-85.3871286,367,2
Union,Oregon,45.30915495,-118.0068979,367,1
Wayne,Ohio,40.82925852,-81.88844833,367,52
Adams,Pennsylvania,39.87140411,-77.21610347,366,13
Washington,Pennsylvania,40.19208869,-80.24582867,366,6
Halifax,North Carolina,36.25669272,-77.6556109,365,4
Yadkin,North Carolina,36.16222629,-80.66239436,365,5
Rutherford,North Carolina,35.40114178,-81.92112099,364,10
Walker,Georgia,34.73376362,-85.30165174,364,12
Dillon,South Carolina,34.39007791,-79.37741872,363,13
Edgecombe,North Carolina,35.91230639,-77.59436892,363,9
Lincoln,Oregon,44.64252874,-123.869912,363,4
Louisa,Iowa,41.21842119,-91.26102611,363,13
Dale,Alabama,31.43037123,-85.61095742,362,1
Natchitoches,Louisiana,31.72321584,-93.09816516,362,14
Richland,Ohio,40.77180308,-82.5379961,359,5
Allegan,Michigan,42.59147037,-85.89102866,358,7
Newton,Mississippi,32.40021118,-89.11843336,357,10
Coryell,Texas,31.39078397,-97.79936155,356,2
Newberry,South Carolina,34.28629098,-81.59935761,355,5
Fond du Lac,Wisconsin,43.75354908,-88.48885325,354,6
Lamar,Texas,33.66981763,-95.57404777,354,13
Brown,South Dakota,45.58994323,-98.35165355,352,2
Garfield,Colorado,39.59921777,-107.902708,349,3
Talladega,Alabama,33.37823223,-86.16886178,349,7
Eaton,Michigan,42.59599185,-84.83740035,348,7
Lincoln,North Carolina,35.48508185,-81.21740317,347,2
Fayette,Tennessee,35.19615831,-89.41399032,346,3
Worth,Georgia,31.55162306,-83.85090513,346,22
Jackson,Illinois,37.78595185,-89.38232563,345,19
Richmond,North Carolina,35.00417719,-79.74491009,345,7
Wagoner,Oklahoma,35.96024096,-95.51911308,344,19
East Feliciana,Louisiana,30.84425359,-91.04976723,343,33
West Baton Rouge,Louisiana,30.46058217,-91.30989571,342,31
Adams,Mississippi,31.47669768,-91.35326037,340,19
Madison,Tennessee,35.61181957,-88.84076036,340,2
Sherburne,Minnesota,45.44447208,-93.77617511,340,5
Catoosa,Georgia,34.89872298,-85.13757014,339,8
Johnson,Arkansas,35.56759135,-93.46036368,339,0
Northumberland,Pennsylvania,40.84785433,-76.70798222,339,8
Allen,Ohio,40.77285242,-84.10802343,338,41
Medina,Texas,29.3557301,-99.11030298,338,3
Hale,Alabama,32.76039258,-87.63284988,337,22
Sutter,California,39.03417539,-121.6945899,337,4
Washington,Texas,30.21498498,-96.40946246,337,32
Plymouth,Iowa,42.737633,-96.21366621,336,5
Gallatin,Montana,45.54486106,-111.1692571,334,1
Winchester,Virginia,39.17054517,-78.17325058,334,3
Broomfield,Colorado,39.95998787,-105.0566324,333,30
Douglas,Washington,47.7361335,-119.692937,332,3
Jasper,Iowa,41.68576082,-93.05567785,332,17
Riley,Kansas,39.28935726,-96.73420026,332,3
Fairfield,South Carolina,34.39287073,-81.1195624,331,22
Lee,South Carolina,34.16393091,-80.25690731,331,22
Lyon,Minnesota,44.41327865,-95.83806103,331,2
Newport,Rhode Island,41.5642026,-71.26569799,331,0
Henry,Virginia,36.68542395,-79.87634026,330,5
Marengo,Alabama,32.24767634,-87.78796182,330,11
Pender,North Carolina,34.52265624,-77.90352133,330,2
Butts,Georgia,33.2830945,-83.9543504,329,34
Caroline,Maryland,38.87172293,-75.82904158,329,3
Pointe Coupee,Louisiana,30.71409502,-91.60209535,329,28
Marlboro,South Carolina,34.59905577,-79.67561152,328,4
Morgan,Indiana,39.47899078,-86.44573375,328,31
Pontotoc,Mississippi,34.226046,-89.03636807,326,6
James City,Virginia,37.31156958,-76.76950618,323,16
Tate,Mississippi,34.65133709,-89.94485778,323,13
Butte,California,39.66727762,-121.6005252,319,4
Gonzales,Texas,29.45634206,-97.49424032,316,4
Jefferson,Wisconsin,43.02054068,-88.77529134,315,4
Macon,North Carolina,35.14867843,-83.41696617,315,3
Monroe,Indiana,39.16130004,-86.52414358,315,28
Tooele,Utah,40.44862644,-113.1295715,315,0
Eau Claire,Wisconsin,44.726614,-91.28609183,314,1
Petersburg,Virginia,37.20530399,-77.39368102,314,8
Appling,Georgia,31.74847232,-82.28909114,313,14
Lapeer,Michigan,43.09052506,-83.22153148,313,31
Marion,Mississippi,31.23132643,-89.8209217,313,12
San Benito,California,36.60308176,-121.069975,311,2
Thurston,Washington,46.9291895,-122.8290656,310,8
Adams,Nebraska,40.5244942,-98.50117804,309,11
Worcester,Maryland,38.21274277,-75.33200012,309,17
Loudon,Tennessee,35.73939663,-84.31145275,308,1
Campbell,Kentucky,38.94384345,-84.37875208,307,13
Cassia,Idaho,42.28347888,-113.6012409,307,1
Laramie,Wyoming,41.3070252,-104.6887497,307,0
Hardin,Texas,30.33364686,-94.38931817,306,5
Richmond,Virginia,37.937575,-76.72920628,304,4
Toombs,Georgia,32.12059861,-82.32957247,304,5
Garland,Arkansas,34.57692074,-93.14921604,303,3
Warren,Virginia,38.90847745,-78.20280433,303,7
Freeborn,Minnesota,43.67385583,-93.34884422,302,0
Grant,Indiana,40.51587228,-85.65468702,302,26
Santa Fe,New Mexico,35.50708973,-105.9774716,302,3
Crisp,Georgia,31.92289565,-83.76811843,301,12
McLean,Illinois,40.48996987,-88.84621113,301,15
Roanoke,Virginia,37.26865804,-80.06396753,301,6
Greene,Ohio,39.69116283,-83.89032084,300,9
Warren,Iowa,41.33559454,-93.56007641,300,1
McDowell,North Carolina,35.67736232,-82.0482425,299,2
Saline,Missouri,39.13734288,-93.20259964,299,5
Laurens,Georgia,32.46325233,-82.92221316,297,1
Montgomery,Indiana,40.04034823,-86.89335024,297,20
Strafford,New Hampshire,43.291833,-71.02336013,297,13
Wilcox,Alabama,31.98773215,-87.30891118,296,8
Matagorda,Texas,28.81955746,-96.01230294,295,5
Page,Virginia,38.61807452,-78.48797204,295,23
Clarke,Alabama,31.68099859,-87.83548597,294,6
Marion,South Carolina,34.07859748,-79.36400756,294,9
Mercer,Ohio,40.54043046,-84.62912742,294,10
Plaquemines,Louisiana,29.42245447,-89.60322085,294,17
Rhea,Tennessee,35.60536161,-84.93076643,294,0
Carbon,Pennsylvania,40.91545395,-75.7068525,293,27
Claiborne,Mississippi,31.97061673,-90.90702196,293,10
Frio,Texas,28.86751206,-99.10804207,293,0
Henry,Indiana,39.93029017,-85.39625719,293,16
Rockingham,North Carolina,36.39593137,-79.77504841,293,2
Cape Girardeau,Missouri,37.38489388,-89.6843587,292,3
Chickasaw,Mississippi,33.91983202,-88.9481545,292,19
El Dorado,California,38.77965956,-120.5233166,292,0
Randolph,Illinois,38.05095369,-89.82512254,292,7
Shelby,Texas,31.79211404,-94.14550696,292,14
Beauregard,Louisiana,30.64836518,-93.34173616,291,9
Crawford,Kansas,37.50675523,-94.85245778,291,1
Hopkins,Kentucky,37.30939025,-87.54670406,291,33
Rogers,Oklahoma,36.37004357,-95.60406759,291,7
Dubois,Indiana,38.36597551,-86.8792417,290,6
Early,Georgia,31.32155345,-84.90255207,290,31
Ontario,New York,42.85145728,-77.30874425,290,33
Bacon,Georgia,31.55456473,-82.45936528,289,5
Summit,Colorado,39.63803232,-106.1150762,289,4
Winston,Alabama,34.15030532,-87.37325922,289,3
Clinton,Indiana,40.30319754,-86.47277257,288,2
Chilton,Alabama,32.85044126,-86.7173256,287,2
Winston,Mississippi,33.08747908,-89.03391385,287,11
Cherokee,Texas,31.837258,-95.16559897,286,2
Orleans,New York,43.2516977,-78.2320066,286,54
Stephens,Georgia,34.55151201,-83.29405315,286,6
Dickinson,Iowa,43.37787725,-95.1510206,285,3
Sumter,Alabama,32.59117397,-88.19916205,285,12
Webster,Iowa,42.42853483,-94.17987389,284,4
Madison,Florida,30.44396917,-83.47398594,283,4
Ogle,Illinois,42.04165196,-89.32184679,283,4
Polk,Georgia,34.00267074,-85.18677781,283,1
Shiawassee,Michigan,42.953928,-84.14585902,283,28
Decatur,Georgia,30.87967778,-84.57619536,282,8
Evangeline,Louisiana,30.72985248,-92.39915924,282,1
Galax,Virginia,36.66601852,-80.91703124,282,16
Stephenson,Illinois,42.35129217,-89.662598,282,6
Ozaukee,Wisconsin,43.38352225,-87.94625009,281,15
Blount,Tennessee,35.68938198,-83.92847788,280,3
Jerome,Idaho,42.68891267,-114.2655033,280,5
Clinton,Michigan,42.94400871,-84.60145248,279,12
Pearl River,Mississippi,30.77090935,-89.58677275,276,32
Mississippi,Arkansas,35.76271485,-90.0519437,275,3
Noxubee,Mississippi,33.11009499,-88.56949061,275,8
Dyer,Tennessee,36.05931946,-89.41542855,274,3
Murray,Georgia,34.78897608,-84.74993177,274,2
Blount,Alabama,33.98210918,-86.56790593,273,1
Warren,New York,43.56173026,-73.8433699,273,33
Winn,Louisiana,31.94449367,-92.63789413,273,5
Northampton,Virginia,37.34062933,-75.87751591,272,28
Steuben,New York,42.2689144,-77.3829924,272,41
Lane,Oregon,43.93727035,-122.847753,271,3
Kitsap,Washington,47.63479026,-122.6436061,269,2
Lassen,California,40.67311306,-120.5935099,269,0
Marshall,Mississippi,34.76216286,-89.50299462,269,3
Polk,Texas,30.79472531,-94.8276624,268,0
Queen Anne's,Maryland,39.06198912,-76.03530977,268,23
White,Indiana,40.74911165,-86.86492015,268,10
Jasper,Mississippi,32.01922104,-89.11786866,267,6
San Patricio,Texas,28.00880118,-97.51763891,267,0
Branch,Michigan,41.91600556,-85.05929476,266,2
Malheur,Oregon,43.1937027,-117.6227395,266,1
Rusk,Texas,32.10773545,-94.76176432,266,3
Union,Arkansas,33.16887091,-92.59746952,266,13
Morehouse,Louisiana,32.81686191,-91.80421614,265,10
Sheboygan,Wisconsin,43.72099677,-87.94579284,265,4
Fredericksburg,Virginia,38.2977863,-77.4922454,264,0
Fulton,New York,43.11363907,-74.41798804,263,24
Greene,New York,42.275797,-74.12384884,263,18
Butler,Kentucky,37.20946153,-86.68748787,262,14
Wharton,Texas,29.27765923,-96.22319248,262,1
Erie,Ohio,41.36796058,-82.62904521,260,22
Lenawee,Michigan,41.89475156,-84.06603727,258,10
Liberty,Florida,30.23766008,-84.8829258,257,1
McMinn,Tennessee,35.42812616,-84.61520715,257,18
Van Buren,Michigan,42.25190229,-86.01939087,257,9
Bristol,Rhode Island,41.71018079,-71.28652315,256,0
Clay,Mississippi,33.65358105,-88.77784255,255,11
Decatur,Indiana,39.30712658,-85.50087166,255,32
Pickens,Alabama,33.28094866,-88.08818103,255,6
Bienville,Louisiana,32.34569994,-93.05398492,254,28
Huntingdon,Pennsylvania,40.42162652,-77.97673273,254,4
Prince George,Virginia,37.18497668,-77.22922187,254,2
Saluda,South Carolina,34.00795823,-81.72713237,254,2
West Feliciana,Louisiana,30.87882871,-91.4148538,254,14
Darke,Ohio,40.13412966,-84.6194517,253,26
Cheatham,Tennessee,36.26136216,-87.08903581,252,2
Holmes,Ohio,40.56163713,-81.92635677,252,4
Jefferson,West Virginia,39.30776166,-77.86014147,252,4
Mecklenburg,Virginia,36.67882005,-78.36131056,252,29
Charlottesville,Virginia,38.03527919,-78.48569588,251,7
Davie,North Carolina,35.93099927,-80.54496571,251,4
Lawrence,Indiana,38.84112637,-86.48361629,251,25
Willacy,Texas,26.47411727,-97.61535848,251,3
Erath,Texas,32.23602653,-98.21773417,250,1
Graves,Kentucky,36.72292505,-88.65143315,250,21
Minidoka,Idaho,42.85518524,-113.6357257,250,0
Monroe,Alabama,31.56729412,-87.36995001,249,2
Richland,Louisiana,32.41391005,-91.76634876,249,5
Christian,Kentucky,36.89267803,-87.49055367,248,4
Franklin,Missouri,38.41127108,-91.07522826,248,18
Washington,Iowa,41.33577126,-91.71725711,248,9
Washington,New York,43.31153794,-73.43043448,248,14
Chester,South Carolina,34.69249168,-81.1583216,247,2
Crawford,Arkansas,35.58928601,-94.2446814,247,1
Dearborn,Indiana,39.14647946,-84.97333539,247,23
Marion,Alabama,34.13697363,-87.88704173,245,14
Cibola,New Mexico,34.91131525,-107.998876,244,14
Clinton,Illinois,38.60704876,-89.42385254,244,17
Genesee,New York,43.0022601,-78.19135193,244,5
Logan,Kentucky,36.85949479,-86.877635,244,13
Randolph,Alabama,33.29526734,-85.45708831,244,9
Central Utah,Utah,39.37231946,-111.5758676,243,0
Dickson,Tennessee,36.14669837,-87.35891709,243,0
St. Croix,Wisconsin,45.03437474,-92.45000068,243,1
Tuscola,Michigan,43.46606813,-83.41897025,243,26
Grady,Georgia,30.87454847,-84.23418364,242,4
Jim Wells,Texas,27.73103938,-98.0904705,242,0
Macon,Illinois,39.86064913,-88.96342505,242,22
Watonwan,Minnesota,43.97823903,-94.61413846,242,0
Carroll,Virginia,36.73066666,-80.73455942,241,9
Marathon,Wisconsin,44.89792533,-89.75863384,240,1
Steele,Minnesota,44.02240351,-93.22627088,240,1
Vigo,Indiana,39.42944561,-87.39169027,240,8
Franklin,Georgia,34.37525597,-83.23159927,239,1
LaSalle,Illinois,41.3442613,-88.88633881,239,17
Terrell,Georgia,31.77527543,-84.44069698,238,28
Union,Mississippi,34.49162015,-89.00776006,238,11
Miller,Arkansas,33.31403423,-93.89285258,237,2
Vernon,Louisiana,31.10884837,-93.18153838,237,9
Parmer,Texas,34.52993409,-102.7844668,236,8
Camden,Georgia,30.92951916,-81.66601818,235,2
Centre,Pennsylvania,40.92058903,-77.82200624,235,8
Levy,Florida,29.31829741,-82.74007147,235,1
Cowlitz,Washington,46.19074721,-122.6782231,234,0
Huron,Ohio,41.14651175,-82.59867951,234,2
Lycoming,Pennsylvania,41.34310539,-77.06629984,234,20
Prince Edward,Virginia,37.22554789,-78.43597949,234,6
Smith,Mississippi,32.01744532,-89.50644846,234,12
Meriwether,Georgia,33.04163534,-84.68859732,233,3
Pasquotank,North Carolina,36.26723798,-76.25134778,233,17
Scotts Bluff,Nebraska,41.85070896,-103.7080986,233,5
Warrick,Indiana,38.08922676,-87.2716085,232,29
Lea,New Mexico,32.79215361,-103.4123733,230,0
Pierce,Georgia,31.35928155,-82.21598442,230,5
Deschutes,Oregon,43.91570171,-121.2289121,229,0
Hardin,Kentucky,37.6976111,-85.96319251,229,6
McClain,Oklahoma,35.01123903,-97.44572302,229,4
Benton,Minnesota,45.69804958,-93.99514135,228,3
Conecuh,Alabama,31.43401703,-86.99320044,227,7
Curry,New Mexico,34.57421077,-103.3468876,227,1
St. Lawrence,New York,44.4976179,-75.06550039,227,2
Cherokee,South Carolina,35.05122251,-81.61828622,226,8
Monroe,Georgia,33.014289,-83.92097166,226,19
Walthall,Mississippi,31.14971548,-90.10446654,226,7
Hancock,Georgia,33.2721566,-82.99766919,225,33
Henderson,Texas,32.21128872,-95.85846587,225,4
Effingham,Georgia,32.36616021,-81.34280942,224,1
Grady,Oklahoma,35.0167709,-97.88339847,224,5
Cerro Gordo,Iowa,43.08177563,-93.2612239,223,1
Jackson,Louisiana,32.30251776,-92.55692092,221,16
Jasper,South Carolina,32.43171982,-81.02487495,221,3
Panola,Texas,32.1639596,-94.30552481,221,24
Dooly,Georgia,32.15630737,-83.79746561,219,12
Adams,Washington,46.98299757,-118.5601734,218,0
Delaware,Oklahoma,36.40823634,-94.80325046,218,17
Harrison,Indiana,38.19467379,-86.10948271,217,22
Gilmer,Georgia,34.69316688,-84.45802506,216,2
Waller,Texas,30.01058447,-95.99011759,216,0
Burnet,Texas,30.78801353,-98.181887,215,3
Coahoma,Mississippi,34.22772299,-90.60415045,215,6
Clarke,Mississippi,32.04158545,-88.6889622,214,25
Madison,Arkansas,36.01038185,-93.72524943,214,0
Montrose,Colorado,38.40214114,-108.2639022,214,12
Oconee,Georgia,33.83749973,-83.43679568,213,11
Allegany,Maryland,39.62357628,-78.69280486,212,18
Carroll,Arkansas,36.3403856,-93.54270261,212,5
Holmes,Florida,30.86747479,-85.81319222,212,0
Lavaca,Texas,29.38508402,-96.93186692,212,1
Washington,Tennessee,36.29472368,-82.4945472,212,0
Northampton,North Carolina,36.41736238,-77.39769443,211,15
Oswego,New York,43.42778894,-76.14635194,211,3
Portage,Wisconsin,44.47558711,-89.50152965,211,0
Catahoula,Louisiana,31.66778967,-91.84526385,210,3
Sussex,Virginia,36.92432914,-77.25791182,210,7
Ben Hill,Georgia,31.76095874,-83.22145359,209,1
Bryan,Georgia,32.00979311,-81.44002948,209,5
Isle of Wight,Virginia,36.90579348,-76.70842863,209,9
Perry,Alabama,32.64048341,-87.29770589,209,1
Bibb,Alabama,32.99642064,-87.1251146,208,1
Johnson,Missouri,38.74719601,-93.80691168,208,1
Stewart,Georgia,32.07996777,-84.83208037,207,3
Hillsdale,Michigan,41.88753639,-84.59312019,206,25
Macon,Alabama,32.38759944,-85.69267724,206,9
Madison,Ohio,39.89381073,-83.40178317,206,9
Cook,Georgia,31.16068491,-83.42947229,205,3
Ionia,Michigan,42.94502238,-85.07413319,205,4
Randolph,Georgia,31.76622818,-84.75732369,205,25
Alamosa,Colorado,37.57250606,-105.7885451,204,6
Brooks,Georgia,30.83922642,-83.58303423,204,11
Ohio,Kentucky,37.47751843,-86.85368087,204,0
Kent,Maryland,39.24976208,-76.04741541,203,23
St. Louis,Minnesota,47.6048407,-92.46879855,203,16
Whiteside,Illinois,41.75509713,-89.91556058,203,15
Buffalo,Nebraska,40.85486962,-99.07500296,202,1
Caddo,Oklahoma,35.17364557,-98.37534464,202,11
Choctaw,Alabama,32.02227341,-88.2656443,202,12
Island,Washington,48.14713305,-122.5216407,202,12
Lawrence,Tennessee,35.21675201,-87.39787695,202,6
Chicot,Arkansas,33.26458973,-91.29539209,201,3
Creek,Oklahoma,35.90230551,-96.37086028,201,7
Augusta,Virginia,38.16404586,-79.12461614,200,2
Dorchester,Maryland,38.45413522,-76.02752426,199,5
Lawrence,Mississippi,31.55147224,-90.10841127,199,2
Walla Walla,Washington,46.23040051,-118.4775539,199,3
Uinta,Wyoming,41.2878183,-110.5475782,198,0
Putnam,Georgia,33.32056115,-83.37552891,197,12
Cumberland,Tennessee,35.95271721,-84.99840585,196,4
Greene,North Carolina,35.48544173,-77.67578087,196,3
Union,Illinois,37.47119609,-89.25548938,196,19
Wayne,New York,43.15494365,-77.02976528,195,3
Carson City,Nevada,39.15509045,-119.7480219,194,6
Osage,Oklahoma,36.62888819,-96.39635704,194,8
Hamilton,Iowa,42.38382428,-93.70197703,193,1
Yalobusha,Mississippi,34.02824175,-89.7076205,193,8
Greene,Alabama,32.85504247,-87.95684022,192,8
Hopewell,Virginia,37.29186313,-77.29754684,192,5
Scott,Missouri,37.05588075,-89.56474493,192,11
Echols,Georgia,30.71101099,-82.89687287,191,0
Greene,Indiana,39.03630547,-86.96223202,191,32
Cass,Missouri,38.64789422,-94.353399,190,8
Gunnison,Colorado,38.66611652,-107.0320729,190,6
Susquehanna,Pennsylvania,41.82147784,-75.80071959,190,25
Uvalde,Texas,29.35739637,-99.76229172,190,1
Glades,Florida,26.95635849,-81.18996211,189,1
Miami,Indiana,40.76940965,-86.04525048,189,2
Newaygo,Michigan,43.554374,-85.80070107,189,0
Atascosa,Texas,28.89333001,-98.52730485,188,2
Coles,Illinois,39.51949084,-88.22358557,188,17
Grundy,Illinois,41.28569601,-88.41905692,187,5
Nicollet,Minnesota,44.35291112,-94.24710352,187,12
Cabell,West Virginia,38.42424062,-82.23855912,186,0
Federal Correctional Institution (FCI),Michigan,,,186,5
Fairbanks North Star,Alaska,64.80726247,-146.5692662,185,2
Grant,Wisconsin,42.8671731,-90.7063218,185,13
Saline,Kansas,38.78369175,-97.65185177,185,2
Turner,Georgia,31.71612656,-83.62069378,185,17
Elko,Nevada,41.14531606,-115.3577619,184,1
McCracken,Kentucky,37.05350953,-88.70445755,184,3
Allen,Kentucky,36.75197631,-86.19457544,183,7
Atkinson,Georgia,31.29633502,-82.87545866,182,2
Herkimer,New York,43.42034246,-74.96145307,182,4
Kenai Peninsula,Alaska,60.24429722,-151.5388884,182,2
Lonoke,Arkansas,34.75392199,-91.88742357,182,1
Emanuel,Georgia,32.59221302,-82.30239915,181,3
Nye,Nevada,38.04264256,-116.4722702,181,3
Graham,Arizona,32.93166885,-109.8882178,180,1
Kemper,Mississippi,32.75462946,-88.64105766,180,14
Tompkins,New York,42.44945765,-76.47229843,180,0
Cass,Michigan,41.91522292,-85.99405727,179,6
Jennings,Indiana,38.99588883,-85.62710784,179,12
Warren,North Carolina,36.39728256,-78.10652228,179,5
Anderson,Tennessee,36.12684348,-84.19965764,178,2
Henderson,Kentucky,37.79344553,-87.57392021,178,3
Liberty,Georgia,31.82588896,-81.49251135,178,1
Midland,Michigan,43.64330771,-84.38804374,178,9
Sullivan,Tennessee,36.51240691,-82.30412917,178,2
Anson,North Carolina,34.97403241,-80.09953279,176,2
Randolph,West Virginia,38.769899,-79.87919615,176,0
Shasta,California,40.76391419,-122.0396884,176,6
Houston,Texas,31.31925973,-95.42226208,175,0
Hertford,North Carolina,36.3607755,-76.98104134,174,10
Muskogee,Oklahoma,35.61318461,-95.37802952,174,13
Tattnall,Georgia,32.04785085,-82.05539188,174,0
Carroll,Mississippi,33.44834567,-89.91994479,173,11
Lauderdale,Tennessee,35.75893438,-89.6301591,172,3
Montgomery,Virginia,37.17746986,-80.37868691,172,3
Martin,Minnesota,43.67429718,-94.55099908,171,5
Yamhill,Oregon,45.23330449,-123.3086963,171,9
Iroquois,Illinois,40.74717633,-87.82466784,170,5
Putnam,Indiana,39.66437981,-86.84517605,170,8
Lynchburg,Virginia,37.40021399,-79.19888138,169,1
Madison,Kentucky,37.71659336,-84.27220275,169,1
Calhoun,Georgia,31.53169785,-84.62725131,168,6
Linn,Oregon,44.48899494,-122.5373154,168,10
Perry,Missouri,37.70660776,-89.82741088,168,1
Polk,Oregon,44.90322804,-123.4128888,168,12
Southampton,Virginia,36.72231125,-77.10642712,168,9
Trempealeau,Wisconsin,44.30360275,-91.35893614,168,0
Valencia,New Mexico,34.71669834,-106.8103733,168,2
Dawson,Georgia,34.44244079,-84.16964071,167,3
Thurston,Nebraska,42.15725356,-96.54157099,167,2
Bullitt,Kentucky,37.97162523,-85.68955617,166,4
Tallahatchie,Mississippi,33.95339918,-90.1729398,166,4
Wilson,Texas,29.1732598,-98.08693082,166,5
Kittitas,Washington,47.12521214,-120.679439,165,0
Laurel,Kentucky,37.10975748,-84.11321779,165,3
Phillips,Arkansas,34.43268455,-90.84800154,165,5
Talbot,Maryland,38.76618159,-76.10882561,165,4
Bonneville,Idaho,43.38713372,-111.6161537,164,1
Jackson,Oregon,42.43201126,-122.7289309,164,0
Jefferson,Georgia,33.05867328,-82.41609057,164,2
Tazewell,Illinois,40.50716185,-89.51404662,164,8
Wise,Texas,33.21570665,-97.65460265,164,5
Chenango,New York,42.49430041,-75.60887553,163,5
DeKalb,Indiana,41.39804622,-84.99906934,163,4
Fayette,Pennsylvania,39.92041012,-79.64291195,163,4
Washington,Georgia,32.96711864,-82.79357039,163,1
Yuba,California,39.26255932,-121.3535644,163,3
Berrien,Georgia,31.27590016,-83.2252992,162,0
Hood,Texas,32.42990927,-97.83242024,162,5
Scott,Indiana,38.68672078,-85.74627859,162,8
St. Francois,Missouri,37.81214171,-90.47598685,162,2
Wood,West Virginia,39.20967886,-81.5162836,162,2
Burke,Georgia,33.05917989,-81.99928721,161,7
Humboldt,California,40.69923009,-123.876044,161,4
Jackson,North Carolina,35.28814273,-83.14093385,161,1
Mercer,Pennsylvania,41.30248872,-80.25816981,161,6
Okanogan,Washington,48.54855019,-119.7387224,161,2
Ottawa,Ohio,41.53781826,-83.0940185,161,24
West Carroll,Louisiana,32.78550125,-91.461201,161,5
Boone,Iowa,42.03657094,-93.9313999,160,1
Lanier,Georgia,31.0382857,-83.06472457,160,3
Carter,Oklahoma,34.25103751,-97.28552485,159,2
Glenn,California,39.59875897,-122.3938452,159,0
Humphreys,Mississippi,33.12825718,-90.52252707,159,10
Nevada,California,39.30394768,-120.7627281,159,1
Oldham,Kentucky,38.39791089,-85.448222,159,7
White,Georgia,34.64624278,-83.74905525,159,4
Bamberg,South Carolina,33.21927586,-81.05659969,158,1
Gibson,Tennessee,35.99438059,-88.93358327,158,1
Lumpkin,Georgia,34.57286511,-84.00425681,158,4
Natrona,Wyoming,42.96180148,-106.797885,158,0
Van Zandt,Texas,32.56483801,-95.83766469,158,3
Jefferson,Tennessee,36.04818632,-83.45148924,157,1
Martin,North Carolina,35.84326734,-77.10860251,157,5
Sabine,Louisiana,31.56388699,-93.55433981,157,1
Scotland,North Carolina,34.8386299,-79.4757978,157,2
Waupaca,Wisconsin,44.47068056,-88.96534501,157,11
Brown,Texas,31.77430356,-98.99907113,156,13
Franklin,Kentucky,38.2379395,-84.87962551,156,4
Orange,Virginia,38.24530219,-78.015604,155,3
Stokes,North Carolina,36.4017975,-80.23893369,155,1
Bertie,North Carolina,36.0688473,-76.96545943,154,4
Bryan,Oklahoma,33.96472458,-96.25903472,154,1
Dinwiddie,Virginia,37.07544585,-77.63451754,154,2
Payette,Idaho,44.00545243,-116.7647695,154,2
Chautauqua,New York,42.2276921,-79.36691763,152,7
Knox,Illinois,40.93148779,-90.2133034,152,0
Chaves,New Mexico,33.36406072,-104.4665365,151,2
Colonial Heights,Virginia,37.26420587,-77.39609676,151,20
Tioga,New York,42.16852837,-76.30835812,151,24
Botetourt,Virginia,37.55531756,-79.80982182,150,4
Daviess,Indiana,38.70186039,-87.07185406,150,17
Stoddard,Missouri,36.85571651,-89.9444155,150,9
Caswell,North Carolina,36.39312665,-79.33353281,149,2
Jackson,West Virginia,38.84263974,-81.68148753,149,18
Montgomery,Mississippi,33.49419589,-89.61729103,149,3
Teton,Wyoming,43.93522482,-110.5890801,149,0
Wayne,Indiana,39.8633444,-85.01044989,149,6
Brewster,Texas,29.81008251,-103.2520326,148,1
Chemung,New York,42.13891056,-76.7638805,148,2
Banks,Georgia,34.35607081,-83.49644388,147,1
Calhoun,Mississippi,33.93683395,-89.33686647,147,5
Emporia,Virginia,36.69455571,-77.53406129,147,15
Kennebec,Maine,44.40759555,-69.76738544,147,10
Monroe,Illinois,38.27594376,-90.17761038,147,13
Warren,Illinois,40.84925021,-90.6147432,147,0
Isabella,Michigan,43.64060976,-84.84664923,146,8
Lawrence,Pennsylvania,40.99206278,-80.33393706,146,9
Monroe,Tennessee,35.44550387,-84.24902965,146,6
Pittsylvania,Virginia,36.81980341,-79.39731264,146,1
Jefferson,Oregon,44.62806839,-121.17832,145,0
Tippah,Mississippi,34.76872156,-88.90988194,144,11
Clay,Iowa,43.08247182,-95.15096481,143,1
Colorado,Texas,29.622098,-96.5273805,143,0
Elbert,Georgia,34.11302332,-82.83936148,143,0
Grayson,Kentucky,37.46231118,-86.34248968,143,11
Henry,Alabama,31.51148016,-85.24267944,143,3
Madison,Georgia,34.12920917,-83.21218732,143,4
Platte,Missouri,39.38154439,-94.77068479,143,6
Adams,Illinois,39.98815591,-91.18786813,142,1
Audrain,Missouri,39.215877,-91.84242683,142,1
Bedford,Virginia,37.3080028,-79.5281964,142,4
Jeff Davis,Georgia,31.80405727,-82.6372487,142,3
Pettis,Missouri,38.72798918,-93.28471706,142,1
Pottawatomie,Oklahoma,35.20614018,-96.94923008,142,4
Sandusky,Ohio,41.35624126,-83.137872,142,15
Washington,Ohio,39.45690571,-81.49121382,142,20
Greene,Arkansas,36.1173546,-90.55832668,141,0
Itawamba,Mississippi,34.27993475,-88.3606733,141,8
Wayne,Pennsylvania,41.64938475,-75.29956506,141,8
Alexander,North Carolina,35.9223796,-81.17751948,140,1
Claiborne,Louisiana,32.82308512,-92.99526883,140,10
Clarke,Iowa,41.02868181,-93.78499767,140,3
Lamar,Georgia,33.07841647,-84.14263877,140,6
Livingston,New York,42.72596275,-77.77966158,140,8
Perry,Indiana,38.07809328,-86.63741946,140,9
Union,South Dakota,42.83112163,-96.6557828,140,1
Washington,Florida,30.61359259,-85.66002461,140,13
York,Virginia,37.24374789,-76.54412815,140,3
Smith,Tennessee,36.25359775,-85.95411046,139,2
Williamson,Illinois,37.73033511,-88.92994027,139,4
Abbeville,South Carolina,34.22333378,-82.46170658,138,1
Cottonwood,Minnesota,44.00715262,-95.18138802,138,0
Hancock,Mississippi,30.41830223,-89.48851033,138,13
Pecos,Texas,30.78097267,-102.7241261,138,1
Crawford,Ohio,40.85065156,-82.91989099,137,5
Goodhue,Minnesota,44.40849741,-92.7234195,137,8
Sauk,Wisconsin,43.42574087,-89.94966132,137,3
Telfair,Georgia,31.92829517,-82.93491155,137,3
Adair,Oklahoma,35.88494195,-94.65859267,136,4
Cass,Illinois,39.96991073,-90.24734436,136,7
Fayette,Texas,29.87788372,-96.92076062,136,3
Lyon,Nevada,39.01777974,-119.1870479,136,2
McDuffie,Georgia,33.47851918,-82.48252774,136,7
Orange,Indiana,38.5411892,-86.49523093,136,23
Ross,Ohio,39.33705391,-83.06000914,136,3
Allamakee,Iowa,43.28383218,-91.37860922,135,4
Bee,Texas,28.41761668,-97.74215593,135,0
Jenkins,Georgia,32.79248718,-81.96040187,135,12
Bannock,Idaho,42.67002716,-112.2233311,134,1
Coffee,Tennessee,35.49090731,-86.07311784,134,0
Concordia,Louisiana,31.44817835,-91.63814433,134,6
Louisa,Virginia,37.97850256,-77.96274807,134,2
Pulaski,Missouri,37.82462075,-92.20783203,134,1
Wayne,Georgia,31.5521809,-81.91894878,134,0
Calumet,Wisconsin,44.0816316,-88.21780273,133,2
Milam,Texas,30.7858183,-96.97718698,133,1
Peach,Georgia,32.56934316,-83.82937,133,10
Putnam,Ohio,41.02094889,-84.1336111,133,15
Steuben,Indiana,41.64423868,-85.00101094,133,2
Union,South Carolina,34.68835752,-81.61730349,133,0
Winona,Minnesota,43.98772283,-91.78081305,133,15
Andrews,Texas,32.30468633,-102.6376548,132,2
Caroline,Virginia,38.02679129,-77.34901405,132,4
Coshocton,Ohio,40.30096166,-81.91729018,132,3
Macon,Georgia,32.35207048,-84.04234127,132,9
Manitowoc,Wisconsin,44.11946801,-87.80928853,132,1
Morgan,Illinois,39.71654544,-90.20255104,132,3
Morrow,Oregon,45.41846568,-119.584546,132,1
Ottawa,Oklahoma,36.83532655,-94.81011909,132,2
Wilcox,Georgia,31.97496928,-83.43438555,132,15
Adair,Kentucky,37.10459774,-85.28129668,131,19
Burleson,Texas,30.49273808,-96.62158484,131,0
Cattaraugus,New York,42.24778241,-78.67923096,131,6
DeWitt,Texas,29.08101855,-97.3568117,131,3
Dodge,Georgia,32.17265114,-83.16948926,131,2
Klamath,Oregon,42.68762984,-121.6496461,131,1
Camp,Texas,32.97195142,-94.97790104,130,2
Fannin,Texas,33.59564294,-96.10751083,130,8
Hill,Texas,31.99045053,-97.13423143,130,2
Jones,Georgia,33.02512137,-83.56019163,130,0
La Plata,Colorado,37.28632032,-107.8429014,130,1
Maui,Hawaii,20.86399628,-156.5689097,130,6
Gilchrist,Florida,29.72856978,-82.79880657,129,0
Goochland,Virginia,37.71714806,-77.90381514,129,6
Kerr,Texas,30.06040006,-99.34930144,129,1
Mesa,Colorado,39.01787888,-108.469799,129,0
Washington,Idaho,44.45275475,-116.7847688,129,2
Rio Arriba,New Mexico,36.51072137,-106.6931674,128,1
Webster,Mississippi,33.61300486,-89.28392912,128,11
Baker,Florida,30.33060121,-82.28467476,127,4
Chippewa,Wisconsin,45.06939744,-91.28068855,127,0
Crenshaw,Alabama,31.72941803,-86.31593104,127,3
Franklin,Indiana,39.4142482,-85.06062647,127,8
Matanuska-Susitna,Alaska,62.31305045,-149.5741743,127,1
Okmulgee,Oklahoma,35.64661916,-95.96432828,127,0
Washington,Alabama,31.4092794,-88.20689944,127,7
Calhoun,Texas,28.47048236,-96.61633945,126,3
Cocke,Tennessee,35.9278914,-83.11828725,126,0
Fluvanna,Virginia,37.84157909,-78.27715475,126,8
Gray,Texas,35.40081878,-100.8129222,126,4
Sweetwater,Wyoming,41.65943896,-108.8827882,126,0
Jasper,Indiana,41.02078733,-87.11553319,125,2
Jessamine,Kentucky,37.87119786,-84.58252003,125,0
Montgomery,New York,42.90123494,-74.44011632,125,4
Person,North Carolina,36.38989032,-78.97217358,125,1
Carteret,North Carolina,34.8932941,-76.54120135,124,3
Cayuga,New York,42.91261714,-76.55731592,124,2
Cleburne,Arkansas,35.53864922,-92.02640019,124,4
Otsego,Michigan,45.02085831,-84.59898295,124,10
Ripley,Indiana,39.10235626,-85.26212744,124,7
Westmoreland,Virginia,38.11021557,-76.80213247,124,2
Alpena,Michigan,45.03477666,-83.62212411,123,11
Barry,Michigan,42.59513984,-85.30834519,123,3
Beaufort,North Carolina,35.48531943,-76.84325809,123,0
Choctaw,Oklahoma,34.02807439,-95.54771129,123,1
Greene,Tennessee,36.17470125,-82.84691273,123,2
Hardin,Ohio,40.66015414,-83.65929931,123,12
Missoula,Montana,47.03728583,-113.9213508,123,1
Brantley,Georgia,31.19576557,-81.97743999,122,3
Calhoun,Florida,30.40666734,-85.19394153,122,7
Eddy,New Mexico,32.47167456,-104.3053527,122,1
Ohio,West Virginia,40.0955451,-80.62203992,122,1
Penobscot,Maine,45.40194593,-68.65020455,122,3
Clinton,Iowa,41.89981633,-90.53275096,121,1
Howard,Arkansas,34.09007427,-93.9934871,121,1
Indiana,Pennsylvania,40.65241041,-79.08963285,121,6
Morton,North Dakota,46.71681782,-101.2822377,121,2
Wayne,West Virginia,38.14901357,-82.42287994,121,9
Hardin,Tennessee,35.19732531,-88.18593755,120,7
Iosco,Michigan,44.35486835,-83.63484895,120,11
Kay,Oklahoma,36.81799745,-97.14421435,120,8
Montcalm,Michigan,43.31082541,-85.15252824,120,1
Morrow,Ohio,40.5236356,-82.7892599,120,1
Dunklin,Missouri,36.27167174,-90.09122243,119,3
San Augustine,Texas,31.39457611,-94.17000399,119,7
Taney,Missouri,36.65465345,-93.04075153,119,2
Tunica,Mississippi,34.64967704,-90.37481167,119,3
Caldwell,Louisiana,32.0902519,-92.11752148,118,1
Mahaska,Iowa,41.33521503,-92.64083907,118,17
Obion,Tennessee,36.35732446,-89.14921589,118,2
Shelby,Iowa,41.6850066,-95.31015553,118,0
Sullivan,Missouri,40.2099105,-93.11150106,118,0
Wood,Texas,32.78722382,-95.38236368,118,5
Austin,Texas,29.88548725,-96.27736949,117,0
Calhoun,South Carolina,33.66926881,-80.77722168,117,2
Jackson,Kansas,39.41673394,-95.79356799,117,1
Jefferson,Mississippi,31.73397872,-91.03764977,117,3
Lawrence,Alabama,34.52041498,-87.31069453,117,0
Le Sueur,Minnesota,44.37136597,-93.72844721,117,1
Pitkin,Colorado,39.21720112,-106.9310027,117,2
Pulaski,Kentucky,37.10466131,-84.57629079,117,2
Red River,Texas,33.61886692,-95.04841765,117,12
Brunswick,Virginia,36.76366949,-77.8593436,116,1
Butler,Missouri,36.71462476,-90.40421163,116,0
Jefferson Davis,Mississippi,31.56884708,-89.8267099,116,4
St. Helena,Louisiana,30.82210324,-90.71013176,116,1
Taylor,Florida,30.04848048,-83.60445406,116,1
Clinch,Georgia,30.91395822,-82.70432472,115,3
Fannin,Georgia,34.86430205,-84.316964,115,1
Grant,Louisiana,31.59882456,-92.56124347,115,2
Jackson,Kentucky,37.41866422,-83.99825483,115,14
LaSalle,Louisiana,31.67884782,-92.15907765,115,0
Pemiscot,Missouri,36.2130572,-89.78742322,115,6
Pike,Kentucky,37.47088263,-82.39487445,115,3
Wabash,Indiana,40.84704239,-85.79328272,115,2
White,Arkansas,35.25688493,-91.74908296,115,2
Juniata,Pennsylvania,40.53358749,-77.3997513,114,6
Nottoway,Virginia,37.1435975,-78.05065922,114,4
Waynesboro,Virginia,38.06451466,-78.90293905,114,0
Bradford,Florida,29.95079741,-82.16611613,113,2
Cambria,Pennsylvania,40.49527404,-78.71377428,113,3
Haywood,North Carolina,35.55269063,-82.98196486,113,0
Jefferson,Illinois,38.29980057,-88.9240025,113,17
Johnson,Georgia,32.70211082,-82.66166794,113,2
Luna,New Mexico,32.18179341,-107.7508826,113,3
Scott,Kentucky,38.29622293,-84.5816631,113,0
Carroll,Indiana,40.5807832,-86.56198812,112,2
Cherokee,Alabama,34.17805983,-85.60638968,112,7
Pickens,Georgia,34.46589159,-84.46406611,112,5
Prentiss,Mississippi,34.61810501,-88.51986294,112,3
Bailey,Texas,34.06854817,-102.8299707,111,1
Haywood,Tennessee,35.58332824,-89.28536625,111,2
Kleberg,Texas,27.42435506,-97.69894948,111,1
Lawrence,Arkansas,36.04188196,-91.10867198,111,9
Pine,Minnesota,46.12105238,-92.74070188,111,0
Castro,Texas,34.53016752,-102.2617243,110,1
Columbia,Wisconsin,43.46492199,-89.33589004,110,1
Franklin,Vermont,44.85627605,-72.91249563,110,6
Lincoln,Missouri,39.05345619,-90.95588181,110,1
Monroe,Wisconsin,43.94641218,-90.618819,110,1
Pike,Georgia,33.09310242,-84.38790389,110,3
Auglaize,Ohio,40.55998859,-84.2242143,109,4
Greene,Georgia,33.5769205,-83.17139104,109,9
Mayes,Oklahoma,36.30179091,-95.23175116,109,5
Reno,Kansas,37.95230263,-98.08607292,109,0
Crow Wing,Minnesota,46.48096553,-94.06755609,108,12
Edgefield,South Carolina,33.77221995,-81.96231108,108,4
Greene,Mississippi,31.21444233,-88.63922281,108,10
Nez Perce,Idaho,46.32638236,-116.7500975,108,19
Oglala Lakota,South Dakota,43.33749164,-102.5555498,108,0
Poweshiek,Iowa,41.68625425,-92.53155731,108,8
Watauga,North Carolina,36.23103603,-81.70033724,108,0
Barren,Kentucky,36.96469836,-85.93338945,107,2
Clinton,New York,44.74530905,-73.67875352,107,4
Mendocino,California,39.4381191,-123.3911313,107,0
Nevada,Arkansas,33.66340119,-93.30632432,107,3
Amite,Mississippi,31.17467303,-90.80501621,106,3
Barnwell,South Carolina,33.26679302,-81.43584352,106,1
Franklin,Virginia,36.99536167,-79.88023649,106,1
Garvin,Oklahoma,34.70418038,-97.30811132,106,2
Warren,Tennessee,35.6728299,-85.77969117,106,0
Cherokee,Oklahoma,35.90692775,-94.99980896,105,1
Gratiot,Michigan,43.29265605,-84.60505416,105,14
Screven,Georgia,32.74976524,-81.60779441,105,7
Carroll,Iowa,42.03617207,-94.86032705,104,1
Clark,Kentucky,37.9689263,-84.14615986,104,6
Dallam,Texas,36.27787176,-102.6020725,104,1
Franklin,Tennessee,35.15634626,-86.09201039,104,3
Harrison,West Virginia,39.2853852,-80.37919577,104,1
Lee,Illinois,41.74583951,-89.29977132,104,2
Marshall,Tennessee,35.45798777,-86.76420988,104,2
Martinsville,Virginia,36.68212094,-79.86352771,104,1
Pocahontas,Iowa,42.73420133,-94.67862564,104,1
Chisago,Minnesota,45.5021011,-92.90861945,103,1
Columbia,Arkansas,33.21230701,-93.22642793,103,5
Colusa,California,39.17881957,-122.2331726,103,0
Fayette,Indiana,39.63684962,-85.17797541,103,7
Gibson,Indiana,38.30393723,-87.58054938,103,2
Green,Wisconsin,42.6794956,-89.60243287,103,1
Henry,Illinois,41.3533994,-90.13296166,103,1
McDonough,Illinois,40.45674722,-90.67775541,103,15
Saguache,Colorado,38.08054629,-106.282466,103,2
Big Horn,Montana,45.42335905,-107.492347,102,4
Bremer,Iowa,42.77461496,-92.31795937,102,7
Calloway,Kentucky,36.62093411,-88.2731593,102,1
Danville,Virginia,36.58022376,-79.40395668,102,2
George,Mississippi,30.86259065,-88.64436789,102,3
King George,Virginia,38.26818502,-77.15852768,102,4
Nelson,Kentucky,37.80335779,-85.4657193,102,2
Otter Tail,Minnesota,46.40846929,-95.70835255,102,1
Wakulla,Florida,30.16548905,-84.39895211,102,1
Wasco,Oregon,45.16292781,-121.1670954,102,1
Wilkinson,Georgia,32.80291082,-83.17140684,102,9
Haralson,Georgia,33.79602175,-85.21005667,101,5
Lake,California,39.10124298,-122.7536244,101,1
Oglethorpe,Georgia,33.8786296,-83.08278123,101,7
Union,Florida,30.04412971,-82.37497443,101,2
Lafayette,Missouri,39.06986886,-93.78076396,100,2
Adair,Missouri,40.19058551,-92.60078167,99,0
Benton,Oregon,44.49167306,-123.4316987,99,6
Cole,Missouri,38.50455671,-92.27860244,99,2
Franklin,Iowa,42.73270384,-93.26256925,99,0
Hood River,Oregon,45.51872811,-121.6552036,99,0
Newton,Indiana,40.95610449,-87.39635768,99,10
Wayne,Tennessee,35.23868267,-87.78644456,99,0
Whitley,Indiana,41.13863784,-85.50791236,99,5
Wood,Wisconsin,44.45537896,-90.04158336,99,1
Wyoming,New York,42.70145109,-78.22199579,99,5
Hickman,Tennessee,35.80609681,-87.47643507,98,0
Mississippi,Missouri,36.82516239,-89.29505753,98,0
Tehama,California,40.12570935,-122.2370171,98,1
Windham,Vermont,42.986982,-72.71268875,98,3
Hawaii,Hawaii,19.60121157,-155.5210167,97,0
Union,Pennsylvania,40.96188846,-77.05996014,97,2
Charles Mix,South Dakota,43.20660134,-98.58856175,96,0
Hockley,Texas,33.60771256,-102.3431676,96,1
Madison,Texas,30.96694679,-95.93003775,96,0
Marion,West Virginia,39.50984542,-80.24244659,96,2
McLeod,Minnesota,44.82367677,-94.27287017,96,0
Starke,Indiana,41.27890281,-86.64686895,96,3
Des Moines,Iowa,40.92012606,-91.18326592,95,2
Dixie,Florida,29.60631086,-83.15724673,95,4
Jefferson,New York,44.04200959,-75.94653457,95,0
Jefferson,Ohio,40.38614126,-80.76259514,95,2
Kendall,Texas,29.94414155,-98.7113588,95,0
Wilkinson,Mississippi,31.16078225,-91.31018819,95,9
Preston,West Virginia,39.46770987,-79.66712803,94,2
Somerset,Maryland,38.1163542,-75.75118623,94,3
Blair,Pennsylvania,40.47961444,-78.34917412,93,1
Cameron,Louisiana,29.87592238,-93.19310676,93,0
Clark,Wisconsin,44.73483377,-90.61207486,93,7
Cross,Arkansas,35.29631396,-90.77185818,93,1
Dodge,Minnesota,44.02238415,-92.86244324,93,0
Garfield,Oklahoma,36.3791334,-97.78265517,93,2
Hampton,South Carolina,32.77419582,-81.13845571,93,3
Clay,South Dakota,42.91296147,-96.97656917,92,0
Emmet,Iowa,43.37782951,-94.67858943,92,0
Geneva,Alabama,31.09389027,-85.83572839,92,0
Hart,Georgia,34.34626973,-82.96567682,92,0
Lee,Texas,30.31120597,-96.97045773,92,3
Muskingum,Ohio,39.96575964,-81.94363275,92,1
O'Brien,Iowa,43.08310673,-95.62474482,92,1
Polk,North Carolina,35.27820615,-82.16812354,92,4
Tishomingo,Mississippi,34.74023475,-88.23917219,92,1
Union,Georgia,34.82995757,-83.98967069,92,3
Union,Ohio,40.30016061,-83.37239023,92,1
Athens,Ohio,39.33425634,-82.04278644,91,1
Bedford,Pennsylvania,40.00522157,-78.48998442,91,4
Clinton,Pennsylvania,41.23255967,-77.63785995,91,4
Delaware,New York,42.19837623,-74.96709306,91,4
Grayson,Virginia,36.65677234,-81.23215889,91,4
McNairy,Tennessee,35.17468549,-88.5647812,91,1
Ashley,Arkansas,33.19153461,-91.7698471,90,2
Codington,South Dakota,44.97788119,-97.18827677,90,0
Grafton,New Hampshire,43.93779815,-71.82057197,90,1
Henry,Iowa,40.98767962,-91.54436349,90,3
Marion,Tennessee,35.12997174,-85.62265895,90,4
Carlton,Minnesota,46.59180601,-92.67601019,89,0
Humboldt,Nevada,41.40692186,-118.1109427,89,4
Irwin,Georgia,31.60213036,-83.27501387,89,1
Monroe,Ohio,39.72984936,-81.08464734,89,17
Perry,Pennsylvania,40.40206612,-77.26297447,89,5
Quitman,Mississippi,34.25157572,-90.28908,89,1
Shawano,Wisconsin,44.78902246,-88.76443896,89,0
Franklin,Kansas,38.56443815,-95.28644341,88,1
Hardin,Iowa,42.38353877,-93.23654611,88,0
Knox,Kentucky,36.89225732,-83.85403396,88,5
Marion,Georgia,32.3483402,-84.52733571,88,2
Talbot,Georgia,32.69642758,-84.53351366,88,3
Barry,Missouri,36.70978521,-93.82919888,87,0
Belknap,New Hampshire,43.51637314,-71.41684235,87,2
Dare,North Carolina,35.66520691,-75.71767334,87,1
Wilkes,Georgia,33.78290391,-82.74286107,87,1
Brookings,South Dakota,44.36974375,-96.79079945,86,0
Limestone,Texas,31.5454767,-96.58095444,86,1
Otsego,New York,42.63492579,-75.03151402,86,5
Polk,Minnesota,47.77372465,-96.40134647,86,3
Powhatan,Virginia,37.55016038,-77.91267882,86,2
Robertson,Texas,31.02539637,-96.51272246,86,0
Alcorn,Mississippi,34.88084463,-88.57996173,85,2
Cedar,Iowa,41.77233777,-91.13246684,85,1
Comanche,Texas,31.94854689,-98.55876441,85,2
Drew,Arkansas,33.59035001,-91.71777921,85,2
Lewis,Washington,46.57756476,-122.3925769,85,3
Marquette,Michigan,46.4338914,-87.64043701,85,11
Saunders,Nebraska,41.2278103,-96.63773905,85,2
Simpson,Kentucky,36.74058474,-86.58047435,85,3
Stark,North Dakota,46.80851182,-102.6576326,85,3
Staunton,Virginia,38.15965544,-79.05979937,85,0
Vermilion,Illinois,40.18417171,-87.73384359,85,2
Buffalo,South Dakota,44.07657829,-99.20814467,84,3
Conway,Arkansas,35.26205537,-92.70506566,84,3
Hancock,Ohio,41.00250487,-83.66838948,84,1
Polk,Arkansas,34.48254879,-94.22728802,84,0
Salem,Virginia,37.2836193,-80.06219455,84,3
Scurry,Texas,32.74613808,-100.9162664,84,1
Cooke,Texas,33.63979567,-97.21240912,83,0
Delta,Colorado,38.86246243,-107.8631342,83,1
Jasper,Georgia,33.31535543,-83.68844964,83,1
Pierce,Wisconsin,44.71850291,-92.4224416,83,0
Yankton,South Dakota,43.00924485,-97.39467635,83,1
Butler,Kansas,37.78134351,-96.83878537,82,0
Clearfield,Pennsylvania,41.00110782,-78.47592663,82,0
Elmore,Idaho,43.3507101,-115.4701578,82,2
Huntington,Indiana,40.82907273,-85.48822092,82,2
Leon,Texas,31.29872538,-95.9936328,82,0
Upshur,Texas,32.73706798,-94.93999853,82,0
Bleckley,Georgia,32.43829035,-83.33035166,81,1
Chaffee,Colorado,38.74745778,-106.1926573,81,19
Charlton,Georgia,30.78371028,-82.13951596,81,2
Cherokee,Iowa,42.73538914,-95.62389402,81,1
Crawford,Michigan,44.68255561,-84.61006219,81,5
Harrison,Kentucky,38.44188174,-84.32869741,81,0
Lamar,Alabama,33.77995024,-88.09668032,81,1
McPherson,Kansas,38.39184858,-97.64769869,81,0
Preble,Ohio,39.7420247,-84.64787018,81,1
Taylor,Iowa,40.73710579,-94.69778563,81,0
Armstrong,Pennsylvania,40.81665618,-79.46290811,80,6
Cass,Nebraska,40.90899107,-96.13971217,80,1
Clay,Kentucky,37.16451126,-83.712575,80,3
Douglas,Nevada,38.912862,-119.6171333,80,0
Giles,Tennessee,35.20222469,-87.03992678,80,1
Lincoln,Tennessee,35.13738622,-86.58910106,80,0
Lyman,South Dakota,43.89522709,-99.85201878,80,1
Park,Wyoming,44.52157546,-109.5852825,80,0
Randolph,Indiana,40.15734772,-85.01139319,80,4
Rio Grande,Colorado,37.5836865,-106.3847838,80,2
White,Tennessee,35.92929884,-85.45591799,80,3
Chippewa,Minnesota,45.02343421,-95.56403693,79,1
Cowley,Kansas,37.23781842,-96.83776647,79,1
Fayette,West Virginia,38.02974928,-81.08286634,79,4
Geary,Kansas,38.99871131,-96.7577178,79,1
Gooding,Idaho,42.96927962,-114.8108306,79,1
Hawkins,Tennessee,36.44355426,-82.94885298,79,2
Heard,Georgia,33.29686567,-85.12886832,79,3
Hocking,Ohio,39.49537927,-82.47991446,79,8
Lawrence,Ohio,38.59743452,-82.53466552,79,0
McIntosh,Oklahoma,35.37235506,-95.66599306,79,1
Pulaski,Illinois,37.22631423,-89.13085001,79,0
Routt,Colorado,40.48596505,-106.9905548,79,6
Wells,Indiana,40.72934187,-85.22132966,79,1
Fayette,Alabama,33.72076938,-87.73886638,78,1
Grand Traverse,Michigan,44.69565625,-85.55585247,78,5
Greene,Virginia,38.29545894,-78.46525378,78,2
Isanti,Minnesota,45.56181234,-93.29487636,78,0
Jefferson,Indiana,38.78576239,-85.43633383,78,2
Pottawatomie,Kansas,39.37925655,-96.34564657,78,0
Putnam,West Virginia,38.50782345,-81.9082131,78,0
Williamsburg,Virginia,37.28131268,-76.70905141,78,6
Camden,Missouri,38.02199522,-92.76083747,77,2
Carter,Tennessee,36.28969086,-82.12588974,77,1
Chattooga,Georgia,34.47197698,-85.34535662,77,2
Clay,Arkansas,36.36826212,-90.4148172,77,3
Dade,Georgia,34.8549167,-85.50490424,77,1
Dukes and Nantucket,Massachusetts,41.40674725,-70.68763497,77,1
Hopkins,Texas,33.14875072,-95.56351139,77,1
Marion,Illinois,38.64963204,-88.91899208,77,0
Monona,Iowa,42.05220391,-95.95743843,77,0
Crawford,Pennsylvania,41.68447709,-80.10760592,76,1
DeKalb,Tennessee,35.97616272,-85.83689361,76,0
Guernsey,Ohio,40.05026529,-81.49248905,76,3
Klickitat,Washington,45.87325839,-120.7913598,76,3
Laclede,Missouri,37.65896829,-92.5888493,76,0
Lafayette,Wisconsin,42.66005229,-90.1317729,76,0
Montezuma,Colorado,37.33859579,-108.5958857,76,3
Montour,Pennsylvania,41.03023987,-76.66345939,76,2
Perry,Mississippi,31.17161885,-88.99281835,76,4
Roosevelt,New Mexico,34.02097406,-103.4799493,76,1
Stephens,Oklahoma,34.48556989,-97.85141892,76,1
Woodford,Kentucky,38.04178222,-84.7417556,76,0
Campbell,Wyoming,44.24886082,-105.5474404,75,0
Cheshire,New Hampshire,42.92015988,-72.25311043,75,2
Choctaw,Mississippi,33.34598242,-89.24809382,75,4
Dawson,Texas,32.74255572,-101.9477242,75,1
Edmonson,Kentucky,37.21218923,-86.23955613,75,12
Logan,Oklahoma,35.91899576,-97.44352845,75,1
Marinette,Wisconsin,45.38553432,-88.033246,75,3
Marion,Iowa,41.33445101,-93.09934783,75,0
Roane,Tennessee,35.84923189,-84.52458689,75,0
Rutland,Vermont,43.57723578,-73.03741676,75,1
Bennington,Vermont,43.03519828,-73.09048868,74,1
Candler,Georgia,32.40209349,-82.07702563,74,0
Clay,Alabama,33.26984193,-85.85836077,74,2
Floyd,Iowa,43.0600053,-92.78940097,74,2
Perry,Kentucky,37.25023553,-83.22922731,74,2
Washington,Virginia,36.72341572,-81.95666289,74,4
Allendale,South Carolina,32.98837386,-81.35321066,73,3
Boyd,Kentucky,38.36176608,-82.68652187,73,3
Fulton,Indiana,41.0469907,-86.26252745,73,1
Halifax,Virginia,36.76654925,-78.93512622,73,1
Huron,Michigan,43.83353985,-83.04078453,73,3
Jackson,Texas,28.95472367,-96.57749563,73,1
Oconto,Wisconsin,45.02715345,-88.26807503,73,0
Seneca,New York,42.78081007,-76.82497064,73,0
Stone,Mississippi,30.79187949,-89.11547539,73,2
Waseca,Minnesota,44.02211116,-93.58720034,73,0
Benton,Iowa,42.08011739,-92.06463573,72,1
Fairfax City,Virginia,38.85157547,-77.2977964,72,7
Guthrie,Iowa,41.68378965,-94.50111014,72,4
Jefferson,Florida,30.43669112,-83.89442308,72,4
Mason,Michigan,43.99509218,-86.24988902,72,0
Owyhee,Idaho,42.58016894,-116.1693871,72,0
Shelby,Ohio,40.33163494,-84.20258189,72,4
Snyder,Pennsylvania,40.77129231,-77.06840691,72,2
Williams,Ohio,41.56052014,-84.58429552,72,2
Crowley,Colorado,38.32608609,-103.7844965,71,1
Desha,Arkansas,33.83011025,-91.25500948,71,1
Hutchinson,Texas,35.84006574,-101.3546643,71,0
Lamb,Texas,34.06859623,-102.3516289,71,0
McIntosh,Georgia,31.49683595,-81.40163426,71,1
Morgan,Georgia,33.59232073,-83.49129491,71,0
Clinton,Ohio,39.41485808,-83.80852286,70,0
Custer,Oklahoma,35.63853802,-99.00170785,70,0
Duval,Texas,27.68184592,-98.50864568,70,0
Hempstead,Arkansas,33.73325583,-93.66935133,70,1
Jasper,Texas,30.74685667,-94.02667579,70,1
Mifflin,Pennsylvania,40.61116939,-77.61070738,70,1
Bell,Kentucky,36.73355174,-83.67766671,69,0
Bingham,Idaho,43.2167288,-112.3978437,69,1
Hamilton,Nebraska,40.87349452,-98.02099117,69,12
Kewaunee,Wisconsin,44.51727459,-87.61468386,69,1
Pittsburg,Oklahoma,34.92065823,-95.7513432,69,3
Red River,Louisiana,32.09530039,-93.34213308,69,9
Somerset,Pennsylvania,39.97172723,-79.02699593,69,1
Swain,North Carolina,35.48665845,-83.48748932,69,1
Weakley,Tennessee,36.29896232,-88.71990865,69,1
Addison,Vermont,44.03217337,-73.14130877,68,2
Greenbrier,West Virginia,37.9463652,-80.45335881,68,3
Hughes,South Dakota,44.39091534,-99.99661148,68,0
Itasca,Minnesota,47.51009045,-93.63092229,68,12
Jay,Indiana,40.43781032,-85.00576229,68,0
Jones,Iowa,42.12118609,-91.13139641,68,0
Overton,Tennessee,36.34117832,-85.28989535,68,1
Raleigh,West Virginia,37.76936795,-81.2456041,68,0
Christian,Missouri,36.9711783,-93.18537118,67,1
Douglas,Minnesota,45.93348491,-95.45335469,67,0
Gallatin,Kentucky,38.75398691,-84.8558382,67,8
Greer,Oklahoma,34.93535801,-99.5605612,67,7
Murray,Minnesota,44.02216709,-95.76328482,67,0
Otero,New Mexico,32.61348406,-105.7417604,67,7
Pontotoc,Oklahoma,34.72959848,-96.68337199,67,2
Ward,North Dakota,48.22390169,-101.5436763,67,1
Washington,Indiana,38.60219804,-86.1049363,67,1
Clark,Arkansas,34.04613432,-93.17484713,66,0
Franklin City,Virginia,36.6831435,-76.93859681,66,3
Gentry,Missouri,40.21097916,-94.40944419,66,9
Gulf,Florida,29.93543004,-85.2427099,66,0
Independence,Arkansas,35.74242707,-91.57001641,66,0
Logan,Ohio,40.38996525,-83.76784341,66,1
Marshall,Kentucky,36.8800707,-88.32803576,66,2
Moniteau,Missouri,38.63571781,-92.57976951,66,1
Pipestone,Minnesota,44.02301619,-96.25841142,66,4
Pulaski,Indiana,41.04166107,-86.69890683,66,1
Stutsman,North Dakota,46.97962541,-98.95637318,66,2
Campbell,Tennessee,36.40355516,-84.1510856,65,1
Carroll,Kentucky,38.66599534,-85.12601074,65,1
Carroll,New Hampshire,43.87498583,-71.20430216,65,0
Fulton,Ohio,41.60213491,-84.12571393,65,0
Grundy,Tennessee,35.38433717,-85.72142731,65,2
Knox,Indiana,38.68861576,-87.4194665,65,0
Labette,Kansas,37.19113093,-95.29849679,65,0
Lincoln,Nebraska,41.04658298,-100.7475374,65,2
Logan,Arkansas,35.21413234,-93.71951016,65,0
Pawnee,Oklahoma,36.31743373,-96.7033176,65,3
Sac,Iowa,42.38624071,-95.10547892,65,0
Allegany,New York,42.25748406,-78.02750466,64,1
Clay,Indiana,39.39561833,-87.11723506,64,4
Essex,Virginia,37.93357639,-76.94230311,64,0
Flathead,Montana,48.29575866,-114.0520569,64,2
Freestone,Texas,31.70422788,-96.15072516,64,0
Gloucester,Virginia,37.40809042,-76.53524337,64,1
Hidalgo,New Mexico,31.91383467,-108.7151824,64,0
Howard,Texas,32.30621324,-101.4356444,64,1
Montgomery,Illinois,39.23198845,-89.47809254,64,1
Osceola,Iowa,43.37824276,-95.62422844,64,0
Poinsett,Arkansas,35.57433534,-90.66268713,64,3
Zapata,Texas,27.00156391,-99.16987152,64,0
Live Oak,Texas,28.35101362,-98.1246786,63,0
Polk,Wisconsin,45.46130348,-92.44182875,63,2
Reeves,Texas,31.32323325,-103.6903896,63,1
TriCounty,Utah,40.12491499,-109.5174415,63,0
Ashland,Ohio,40.84772277,-82.27280781,62,1
Barton,Kansas,38.47889676,-98.75636726,62,2
Cherokee,North Carolina,35.1349263,-84.05970864,62,2
Coosa,Alabama,32.93690146,-86.24847739,62,1
Crane,Texas,31.43052248,-102.5143314,62,9
Grant,Kentucky,38.64962758,-84.62415957,62,4
Henderson,Tennessee,35.65581134,-88.38600175,62,0
Iowa,Iowa,41.68630265,-92.0643373,62,1
Jefferson,Iowa,41.03192394,-91.94849466,62,0
Karnes,Texas,28.90705334,-97.85960149,62,0
Macoupin,Illinois,39.26119767,-89.92424028,62,3
Meeker,Minnesota,45.12328869,-94.52839455,62,1
Mineral,West Virginia,39.41561583,-78.94104895,62,3
New Kent,Virginia,37.50694406,-76.99828634,62,1
Ashe,North Carolina,36.43296207,-81.49862729,61,1
Buchanan,Iowa,42.4709188,-91.83510825,61,1
Calaveras,California,38.20537103,-120.552913,61,0
Callaway,Missouri,38.83674754,-91.92186505,61,1
Claiborne,Tennessee,36.48319149,-83.65947309,61,0
Gage,Nebraska,40.26186809,-96.68946704,61,3
Mercer,West Virginia,37.40481169,-81.11023142,61,0
Montgomery,Kentucky,38.03253032,-83.9145241,61,0
Morrison,Minnesota,46.01265363,-94.27341528,61,1
Rabun,Georgia,34.88389445,-83.40304637,61,3
Randolph,Arkansas,36.3415714,-91.02455531,61,1
San Jacinto,Texas,30.57933681,-95.16260304,61,0
Schoharie,New York,42.58831742,-74.4433903,61,0
Sharp,Arkansas,36.16258158,-91.47819342,61,5
Socorro,New Mexico,34.00715494,-106.9298354,61,5
Todd,South Dakota,43.19338568,-100.7195503,61,2
Windsor,Vermont,43.58010937,-72.58595157,61,2
Wyandot,Ohio,40.84339621,-83.30734173,61,5
Butler,Iowa,42.73172833,-92.79015971,60,2
Carroll,Ohio,40.5789686,-81.09178213,60,3
Elbert,Colorado,39.28656773,-104.1358721,60,2
Faribault,Minnesota,43.67381499,-93.94787458,60,0
Marion,Kentucky,37.55218078,-85.26898542,60,0
Montgomery,Kansas,37.19236568,-95.74329258,60,3
Ochiltree,Texas,36.27829105,-100.8158184,60,2
Perry,Illinois,38.08510853,-89.36856219,60,1
Rush,Indiana,39.62002287,-85.4655599,60,3
Tuolumne,California,38.02644018,-119.9525093,60,0
Bradford,Pennsylvania,41.78869215,-76.51570822,59,3
Brown,Ohio,38.93416837,-83.86788395,59,1
Cumberland,Virginia,37.51328851,-78.24398086,59,0
Harvey,Kansas,38.04293782,-97.42747573,59,0
Humboldt,Iowa,42.7764426,-94.20722537,59,1
Long,Georgia,31.75218791,-81.74952375,59,1
Mitchell,North Carolina,36.01059309,-82.1582442,59,0
Sequoyah,Oklahoma,35.49447108,-94.75463785,59,3
Williams,North Dakota,48.34522353,-103.4793387,59,0
Yancey,North Carolina,35.90079156,-82.31237181,59,0
Andrew,Missouri,39.98492163,-94.80163024,58,0
Bradley,Arkansas,33.46755808,-92.15980837,58,2
Calhoun,Iowa,42.38521079,-94.64046046,58,2
Clarke,Virginia,39.11271747,-77.99199425,58,0
Del Norte,California,41.74228275,-123.8974063,58,0
Russell,Kentucky,36.99308373,-85.06070117,58,4
Towns,Georgia,34.91369188,-83.7410746,58,1
Waldo,Maine,44.4858305,-69.12061935,58,14
Becker,Minnesota,46.93479392,-95.67158144,57,0
Grant,Kansas,37.56227336,-101.3079758,57,2
Hancock,Iowa,43.08178477,-93.73454884,57,1
Jackson,Minnesota,43.67423373,-95.15398258,57,0
Pulaski,Georgia,32.23334561,-83.4754996,57,2
Wythe,Virginia,36.91582035,-81.07834059,57,1
Clay,Georgia,31.62221166,-84.97713865,56,2
Crawford,Georgia,32.71391813,-83.98061238,56,0
Douglas,Oregon,43.27941273,-123.167291,56,0
Greene,Pennsylvania,39.85746531,-80.22357106,56,0
Harrison,Iowa,41.68330137,-95.81558439,56,0
Lincoln,Georgia,33.79201475,-82.45024131,56,1
Scioto,Ohio,38.80270163,-82.98907345,56,0
Sibley,Minnesota,44.5796592,-94.23164924,56,2
Unicoi,Tennessee,36.10890856,-82.43709629,56,0
Wheeler,Georgia,32.12009104,-82.72574721,56,0
Clatsop,Oregon,45.99712889,-123.660711,55,0
Cortland,New York,42.59509207,-76.07048931,55,0
Douglas,Illinois,39.76768052,-88.21854195,55,0
Gillespie,Texas,30.31824095,-98.94676915,55,0
Marshall,West Virginia,39.86064362,-80.66591062,55,0
Mason,Washington,47.35007586,-123.1863685,55,1
Miller,Georgia,31.16568912,-84.73151117,55,0
Mountrail,North Dakota,48.20197971,-102.3555315,55,0
Nolan,Texas,32.30365282,-100.4060208,55,0
Palo Pinto,Texas,32.75310985,-98.31319001,55,2
Sanilac,Michigan,43.42406072,-82.82055898,55,6
Washington,Nebraska,41.52815707,-96.22019892,55,1
Bonner,Idaho,48.29996017,-116.6017932,54,0
Campbell,Virginia,37.20553386,-79.09678609,54,1
Defiance,Ohio,41.32398837,-84.49076944,54,3
Delaware,Iowa,42.47104597,-91.3664492,54,1
Fayette,Iowa,42.86271799,-91.8441231,54,0
Jackson,Oklahoma,34.58781741,-99.41138784,54,3
Josephine,Oregon,42.3665549,-123.5561938,54,1
King William,Virginia,37.70965316,-77.09384941,54,1
Lee,Iowa,40.64181461,-91.48183025,54,2
Livingston,Illinois,40.89188292,-88.55784752,54,2
Seminole,Georgia,30.93464824,-84.86823924,54,2
Warren,Missouri,38.76529479,-91.16124662,54,0
Yuma,Colorado,40.00346839,-102.4258673,54,0
Chester,Tennessee,35.42527478,-88.6095842,53,0
Coffey,Kansas,38.2365018,-95.73379515,53,8
Falls Church,Virginia,38.88485255,-77.17560759,53,7
Franklin,Texas,33.17653242,-95.21917243,53,1
Knox,Ohio,40.39830217,-82.42027563,53,1
Lawrence,Missouri,37.10626634,-93.83293097,53,1
Le Flore,Oklahoma,34.89851864,-94.70392124,53,1
Meade,South Dakota,44.56676791,-102.7162741,53,1
Pennington,Minnesota,48.06642577,-96.0370814,53,0
Phelps,Missouri,37.87736118,-91.79351727,53,0
Roberts,South Dakota,45.62975048,-96.94672673,53,0
Seminole,Oklahoma,35.16478725,-96.61686741,53,3
Teller,Colorado,38.88133511,-105.1614893,53,2
Cass,Texas,33.07499881,-94.34646905,52,2
Coos,Oregon,43.17406868,-124.0594514,52,0
Dixon,Nebraska,42.49188363,-96.86782408,52,2
Door,Wisconsin,44.95856458,-87.30002707,52,3
Lake,Colorado,39.20278823,-106.3555697,52,0
Miami,Kansas,38.56383358,-94.83832189,52,0
Morrill,Nebraska,41.71711774,-103.0061405,52,0
Trinity,Texas,31.0879489,-95.1367187,52,0
Wexford,Michigan,44.33853602,-85.57712739,52,4
Arkansas,Arkansas,34.29145151,-91.37277296,51,0
Butler,Nebraska,41.22703692,-97.13106306,51,0
Carroll,Tennessee,35.97366108,-88.45189331,51,1
Davison,South Dakota,43.67490933,-98.14458906,51,0
Essex,New York,44.11630765,-73.77297842,51,0
Fayette,Ohio,39.56021306,-83.4562016,51,0
Grant,Arkansas,34.29017991,-92.42320562,51,0
La Salle,Texas,28.34453111,-99.09908775,51,0
Madison,Iowa,41.33081904,-94.01554631,51,2
Monroe,Iowa,41.02988815,-92.8690667,51,7
Owen,Indiana,39.31145587,-86.83900724,51,1
Polk,Tennessee,35.12245443,-84.52075859,51,0
Swisher,Texas,34.53028891,-101.7349174,51,1
Taos,New Mexico,36.58006022,-105.6310198,51,1
Blanco,Texas,30.26640707,-98.3999852,50,1
Bourbon,Kansas,37.85508555,-94.84865997,50,1
Dunn,Wisconsin,44.94562799,-91.8962481,50,0
Grainger,Tennessee,36.27469206,-83.51254721,50,0
Morris,Texas,33.11304005,-94.73255695,50,0
Noble,Oklahoma,36.38953329,-97.22928674,50,1
York,Nebraska,40.87272618,-97.59710186,50,0
Adams,Indiana,40.7457653,-84.93671406,49,1
Amelia,Virginia,37.34081025,-77.98584649,49,1
Aransas,Texas,28.10556197,-96.9995047,49,0
Clarion,Pennsylvania,41.19265812,-79.42413524,49,2
Floyd,Texas,34.07227468,-101.3031546,49,1
Franklin,Mississippi,31.47786634,-90.89672989,49,2
Jo Daviess,Illinois,42.36542373,-90.21094405,49,1
Lafayette,Florida,29.98484137,-83.18166636,49,0
Lynn,Texas,33.17657705,-101.8162849,49,1
Mono,California,37.93899289,-118.8872409,49,1
Posey,Indiana,38.02097333,-87.86480429,49,0
Webster,Kentucky,37.52168356,-87.67989953,49,0
Whitley,Kentucky,36.75700531,-84.14541217,49,0
Benton,Indiana,40.60626947,-87.31093999,48,0
Cherokee,Kansas,37.16928494,-94.8462897,48,1
Christian,Illinois,39.54581621,-89.27780482,48,4
Crockett,Tennessee,35.81830662,-89.14916269,48,3
Douglas,Wisconsin,46.43222285,-91.91595768,48,0
Henry,Tennessee,36.33160906,-88.30121797,48,0
Howell,Missouri,36.77383887,-91.88683935,48,0
Jackson,Iowa,42.17178824,-90.57354837,48,0
