county,state,Lat,Long_,Confirmed,Deaths
Alfalfa,Oklahoma,36.73090616,-98.32408495,1,0
Baker,Oregon,44.70915557,-117.6749883,1,0
Banner,Nebraska,41.54634427,-103.7114332,1,0
Barber,Kansas,37.2288586,-98.68460053,1,0
Baylor,Texas,33.61640794,-99.21352901,1,0
Beaverhead,Montana,45.13434354,-112.8984694,1,0
Billings,North Dakota,47.02366884,-103.3762965,1,0
Boundary,Idaho,48.76684761,-116.4630179,1,0
Bowman,North Dakota,46.11285362,-103.5203343,1,0
Boyd,Nebraska,42.8997274,-98.76486568,1,0
Calhoun,Illinois,39.16840183,-90.66330078,1,0
Camas,Idaho,43.46665742,-114.8065892,1,0
Chase,Nebraska,40.5237198,-101.6978026,1,0
Cherry,Nebraska,42.54502621,-101.1244332,1,0
Cimarron,Oklahoma,36.74817177,-102.5173885,1,0
Clearwater,Idaho,46.67459924,-115.6622393,1,0
Cochran,Texas,33.60425307,-102.8284499,1,0
Cook,Minnesota,47.90504893,-90.52629546,1,0
Dade,Missouri,37.431814,-93.8503345,1,0
Divide,North Dakota,48.8149387,-103.4873611,1,0
Elk,Kansas,37.45338105,-96.24369667,1,0
Ellis,Oklahoma,36.2180194,-99.75324573,1,0
Eureka,Nevada,39.98100864,-116.2683204,1,0
Ferry,Washington,48.4711431,-118.5154041,1,0
Frontier,Nebraska,40.52993007,-100.3924658,1,0
Garfield,Nebraska,41.91428955,-98.99111827,1,0
Gove,Kansas,38.91588178,-100.4829321,1,0
Grant,Oregon,44.49024544,-119.0068631,1,0
Hardin,Illinois,37.51810645,-88.26873022,1,0
Harding,New Mexico,35.85751555,-103.8220938,1,0
Harlan,Nebraska,40.17658508,-99.40438879,1,0
Harmon,Oklahoma,34.7440135,-99.84741652,1,0
Harney,Oregon,43.06422669,-118.9666306,1,0
Harper,Oklahoma,36.78836519,-99.6679804,1,0
Hettinger,North Dakota,46.43375068,-102.4632417,1,0
Hill,Montana,48.62879827,-110.1129252,1,0
Hitchcock,Nebraska,40.17609175,-101.0416477,1,0
Holt,Missouri,40.09799248,-95.2163888,1,0
Jackson,Colorado,40.6659387,-106.3408905,1,0
Jeff Davis,Texas,30.71490589,-104.1399973,1,0
Keweenaw,Michigan,47.63197653,-88.41434263,1,0
Kimble,Texas,30.48678918,-99.74856473,1,0
Knox,Texas,33.60519951,-99.7422906,1,0
Lee,Kentucky,37.59645942,-83.71513901,1,0
Liberty,Montana,48.56084317,-111.024307,1,0
Logan,Kansas,38.91735806,-101.148475,1,0
Marshall,Kansas,39.78359669,-96.52278974,1,0
McIntosh,North Dakota,46.11182017,-99.44145858,1,0
Meagher,Montana,46.59907074,-110.8898557,1,0
Mills,Texas,31.49557106,-98.59272068,1,0
Motley,Texas,34.07408766,-100.779722,1,0
Musselshell,Montana,46.49684637,-108.39498,1,0
Nelson,North Dakota,47.9226426,-98.19038437,1,0
Nuckolls,Nebraska,40.17637905,-98.04743961,1,0
Oliver,North Dakota,47.11530482,-101.3406158,1,0
Ozark,Missouri,36.64916339,-92.44459066,1,0
Pepin,Wisconsin,44.58307413,-91.99949611,1,0
Pope,Illinois,37.41391284,-88.56152109,1,0
Putnam,Illinois,41.2013541,-89.2869272,1,0
Real,Texas,29.83321503,-99.82018052,1,0
Rock,Nebraska,42.42252217,-99.44832069,1,0
San Juan,Colorado,37.76248981,-107.6763289,1,0
Shackelford,Texas,32.73587756,-99.35401337,1,0
Sheridan,North Dakota,47.57700669,-100.3426391,1,0
Sherman,Oregon,45.41501554,-120.6827834,1,0
Sierra,California,39.57713498,-120.5200701,1,0
Stafford,Kansas,38.03100851,-98.71762001,1,0
Steele,North Dakota,47.45611548,-97.72728747,1,0
Sully,South Dakota,44.71571812,-100.1278092,1,0
Summers,West Virginia,37.65390597,-80.86009693,1,0
Terrell,Texas,30.22429013,-102.0766732,1,0
Thayer,Nebraska,40.17626377,-97.59504381,1,0
Thomas,Nebraska,41.91358968,-100.5556632,1,0
Throckmorton,Texas,33.17751417,-99.21226795,1,0
Trego,Kansas,38.91467218,-99.87284448,1,0
Valdez-Cordova,Alaska,61.47502768,-144.7126799,1,0
Valley,Montana,48.36435097,-106.6669635,1,0
Washington,Kansas,39.78420784,-97.0875323,1,0
Webster,West Virginia,38.49370949,-80.4202023,1,0
Weston,Wyoming,43.83961191,-104.5674881,1,0
Wheatland,Montana,46.46652491,-109.8464636,1,0
Wilson,Kansas,37.55937174,-95.74323255,1,0
Alpine,California,38.59678594,-119.8223594,2,0
Bland,Virginia,37.13128068,-81.13599391,2,0
Boise,Idaho,43.98829931,-115.7309284,2,0
Briscoe,Texas,34.53026962,-101.2084947,2,0
Calhoun,West Virginia,38.84315422,-81.11934872,2,0
Catron,New Mexico,33.91514144,-108.4046587,2,1
Cavalier,North Dakota,48.77286211,-98.46685243,2,0
Cheyenne,Kansas,39.78580976,-101.7318201,2,0
Clark,Missouri,40.41040752,-91.73661677,2,0
Clay,Illinois,38.75388572,-88.48914513,2,0
Comanche,Kansas,37.1911452,-99.27113247,2,0
Custer,Colorado,38.10883162,-105.3683478,2,0
Dawes,Nebraska,42.71985036,-103.1313774,2,0
Dickens,Texas,33.61616822,-100.7788855,2,0
Edwards,Illinois,38.41353228,-88.05720863,2,0
Edwards,Texas,29.98202582,-100.304252,2,0
Fergus,Montana,47.26331584,-109.2245206,2,0
Foster,North Dakota,47.4571084,-98.88279923,2,0
Gallatin,Illinois,37.76430935,-88.22953869,2,0
Granite,Montana,46.4060522,-113.4414186,2,0
Grant,North Dakota,46.35821257,-101.6390013,2,0
Grant,Oklahoma,36.796297,-97.78638765,2,0
Gregory,South Dakota,43.19419064,-99.18883902,2,0
Griggs,North Dakota,47.45785838,-98.23850925,2,0
Haines,Alaska,59.09893571,-135.4679843,2,0
Hall,Texas,34.5307555,-100.6813852,2,1
Harper,Kansas,37.19175361,-98.07578384,2,0
Irion,Texas,31.30375559,-100.982439,2,0
Kidder,North Dakota,46.97830064,-99.77507857,2,0
Kinney,Texas,29.34967888,-100.4186638,2,0
Kittson,Minnesota,48.77754106,-96.78317184,2,0
Knox,Missouri,40.12699751,-92.14780832,2,0
Lemhi,Idaho,44.9438088,-113.9309747,2,0
Lincoln,Nevada,37.64268459,-114.8790388,2,0
Niobrara,Wyoming,43.05607708,-104.4758896,2,0
Osborne,Kansas,39.3503437,-98.76753828,2,0
Owsley,Kentucky,37.42823949,-83.68811419,2,0
Pike,Illinois,39.62265059,-90.8877017,2,0
Platte,Wyoming,42.13299116,-104.966331,2,0
Pondera,Montana,48.22773388,-112.2252703,2,0
Price,Wisconsin,45.68051754,-90.3609888,2,0
Prince of Wales-Hyder,Alaska,55.76261984,-133.0511621,2,0
Putnam,Missouri,40.47942497,-93.02042674,2,0
Reagan,Texas,31.36607041,-101.5232659,2,0
Reynolds,Missouri,37.36085952,-90.97009925,2,0
Ritchie,West Virginia,39.18094587,-81.06356878,2,0
Sheridan,Nebraska,42.50284406,-102.4126613,2,0
St. Clair,Missouri,38.03699437,-93.77631447,2,0
Storey,Nevada,39.44875482,-119.5250207,2,0
Taliaferro,Georgia,33.56543317,-82.88136816,2,0
Treasure,Montana,46.2097322,-107.2666516,2,0
Trinity,California,40.6491767,-123.114713,2,0
Upton,Texas,31.36868194,-102.0423217,2,0
Washington,Maine,45.01607142,-67.62813524,2,0
Wolfe,Kentucky,37.73941626,-83.49303612,2,0
Ziebach,South Dakota,44.97881876,-101.6654622,2,0
Alger,Michigan,46.41292944,-86.60260122,3,0
Anderson,Kansas,38.21413251,-95.29272815,3,0
Armstrong,Texas,34.96507426,-101.3574874,3,0
Ashland,Wisconsin,46.31956891,-90.67837132,3,0
Atchison,Missouri,40.43238737,-95.42970639,3,0
Bayfield,Wisconsin,46.52868768,-91.19716729,3,1
Benson,North Dakota,48.0683985,-99.35916363,3,0
Box Butte,Nebraska,42.22079243,-103.0878834,3,0
Braxton,West Virginia,38.70036159,-80.72011184,3,0
Brooks,Texas,27.03103197,-98.21808402,3,0
Burnett,Wisconsin,45.86303537,-92.36711412,3,1
Cameron,Pennsylvania,41.43625568,-78.20376845,3,0
Chippewa,Michigan,46.29552653,-84.54353449,3,0
Coleman,Texas,31.76736834,-99.45240766,3,0
Covington,Virginia,37.7824656,-79.98631446,3,0
Culberson,Texas,31.44506775,-104.5185739,3,0
Custer,Idaho,44.24186819,-114.2855494,3,0
Deer Lodge,Montana,46.05953325,-113.073353,3,0
Dent,Missouri,37.60663134,-91.50790473,3,0
Deuel,South Dakota,44.75994309,-96.66943645,3,0
Dickenson,Virginia,37.12560977,-82.35124171,3,0
Douglas,Missouri,36.9325593,-92.49905109,3,0
Elliott,Kentucky,38.11624059,-83.09771563,3,0
Ellsworth,Kansas,38.69677695,-98.20462799,3,0
Essex,Vermont,44.72736416,-71.73579864,3,0
Florence,Wisconsin,45.84963535,-88.39804137,3,0
Golden Valley,Montana,46.3816474,-109.1768522,3,0
Greeley,Nebraska,41.56742671,-98.52150266,3,0
Hancock,Tennessee,36.52692871,-83.22375847,3,0
Highland,Virginia,38.35799465,-79.56124594,3,0
Hinsdale,Colorado,37.82247444,-107.3004345,3,0
Holt,Nebraska,42.45522056,-98.78402558,3,0
Hyde,South Dakota,44.54747703,-99.48572582,3,0
Idaho,Idaho,45.84721541,-115.4634436,3,0
Iron,Missouri,37.55487945,-90.7735296,3,0
Jefferson,Montana,46.14907081,-112.094396,3,0
Keith,Nebraska,41.19930341,-101.6620164,3,0
Kodiak Island,Alaska,57.65529415,-153.7493579,3,0
Lincoln,Washington,47.57705241,-118.4194388,3,0
Luce,Michigan,46.47227431,-85.54471223,3,0
McHenry,North Dakota,48.23104458,-100.6324822,3,1
Mellette,South Dakota,43.58078848,-100.7563186,3,0
Menard,Texas,30.88990665,-99.8204794,3,0
Norton,Kansas,39.78443827,-99.90286639,3,0
Pawnee,Kansas,38.18108732,-99.23692334,3,0
Pend Oreille,Washington,48.53234021,-117.2741804,3,0
Phillips,Kansas,39.78465501,-99.34668865,3,0
Piscataquis,Maine,45.83839062,-69.2860223,3,0
Red Lake,Minnesota,47.87197525,-96.09561104,3,0
Rio Blanco,Colorado,39.97913541,-108.2179009,3,0
Roberts,Texas,35.83809685,-100.813175,3,0
Shelby,Missouri,39.79742518,-92.07634971,3,0
Sheridan,Kansas,39.35018161,-100.4418259,3,0
Slope,North Dakota,46.44737738,-103.4601547,3,0
Smith,Kansas,39.78516566,-98.78566062,3,0
Southeast Fairbanks,Alaska,63.87692095,-143.2127643,3,0
Stark,Illinois,41.09309773,-89.79745866,3,0
Stevens,Minnesota,45.58613007,-96.00163705,3,0
Sutton,Texas,30.49856623,-100.5382014,3,0
Washita,Oklahoma,35.29071824,-98.99180434,3,0
Wayne,Missouri,37.11303869,-90.46001416,3,0
White Pine,Nevada,39.44157041,-114.899966,3,0
Wrangell,Alaska,56.3202004,-132.0583731,3,0
Yukon-Koyukuk,Alaska,65.50815459,-151.3907387,3,0
Baraga,Michigan,46.6720582,-88.36363591,4,0
Bent,Colorado,37.95474293,-103.0720195,4,0
Bristol,Virginia,36.6163024,-82.16359122,4,0
Chase,Kansas,38.30292938,-96.59563862,4,0
Chautauqua,Kansas,37.14994405,-96.2454192,4,0
Cottle,Texas,34.07783319,-100.2785062,4,1
De Witt,Illinois,40.17514519,-88.90959682,4,0
Dewey,South Dakota,45.15639647,-100.8709139,4,0
Dickey,North Dakota,46.11017712,-98.5049008,4,0
Douglas,South Dakota,43.38520741,-98.36978007,4,0
Emmons,North Dakota,46.28398398,-100.2389766,4,1
Estill,Kentucky,37.69241417,-83.95956369,4,0
Garden,Nebraska,41.61703149,-102.3313973,4,0
Green,Kentucky,37.26484328,-85.5540745,4,1
Hamilton,Illinois,38.08163641,-88.53883373,4,0
Hardeman,Texas,34.28944521,-99.74632408,4,0
Haskell,Texas,33.17823584,-99.73037358,4,0
Huerfano,Colorado,37.68473101,-104.9612585,4,0
Jewell,Kansas,39.78470589,-98.21820662,4,0
Kiowa,Kansas,37.55848695,-99.2856537,4,0
Lac qui Parle,Minnesota,44.9973857,-96.17488219,4,0
Lincoln,Colorado,38.98749519,-103.5136649,4,0
Madison,Missouri,37.47865134,-90.3467143,4,0
Maries,Missouri,38.16193985,-91.92249662,4,0
Marion,Arkansas,36.26844485,-92.68451899,4,0
Mineral,Nevada,38.53841696,-118.4344506,4,0
Mitchell,Kansas,39.39331582,-98.20906732,4,0
Mitchell,Texas,32.30623474,-100.9212058,4,0
Montgomery,Arkansas,34.53704874,-93.65824478,4,0
Nance,Nebraska,41.39750195,-97.99327291,4,0
Ness,Kansas,38.47974157,-99.91547333,4,0
North Slope,Alaska,69.31479216,-153.4836093,4,0
Northwest Arctic,Alaska,67.04919196,-159.7503946,4,0
Norton,Virginia,36.93357076,-82.62750411,4,0
Oldham,Texas,35.40425596,-102.6027606,4,1
Petersburg,Alaska,57.13978948,-132.9540995,4,1
Pierce,North Dakota,48.24977025,-99.96407787,4,0
Rice,Kansas,38.34616184,-98.19992118,4,0
Richland,Illinois,38.71240969,-88.08475366,4,0
San Saba,Texas,31.1577796,-98.81758731,4,0
Schoolcraft,Michigan,46.19235734,-86.19972234,4,0
Skamania,Washington,46.02408726,-121.9164403,4,0
Stillwater,Montana,45.67071407,-109.3950061,4,0
Sullivan,Pennsylvania,41.44634738,-76.51246591,4,0
Texas,Missouri,37.31728859,-91.96564727,4,0
Tyler,West Virginia,39.46811972,-80.88772676,4,0
Washburn,Wisconsin,45.89838588,-91.79050449,4,0
White,Illinois,38.08706198,-88.17657461,4,0
Wirt,West Virginia,39.02775007,-81.37473928,4,0
Worth,Missouri,40.47945588,-94.42328751,4,0
Allen,Kansas,37.88582951,-95.30030847,5,0
Bennett,South Dakota,43.19486375,-101.6665572,5,0
Bottineau,North Dakota,48.79106111,-100.8378166,5,0
Broadwater,Montana,46.33277565,-111.4955813,5,0
Burke,North Dakota,48.79094471,-102.5182117,5,0
Carlisle,Kentucky,36.85372876,-88.9669222,5,1
Cheyenne,Colorado,38.82777431,-102.6032558,5,0
Clinton,Kentucky,36.72581156,-85.13377529,5,0
Coke,Texas,31.88911733,-100.5297533,5,1
Delta,Texas,33.38570922,-95.66921122,5,0
Dewey,Oklahoma,35.98772922,-99.00730714,5,0
Eddy,North Dakota,47.71701474,-98.90432337,5,0
Fisher,Texas,32.74281316,-100.4019302,5,1
Fremont,Idaho,44.22800938,-111.4809943,5,0
Glascock,Georgia,33.22879932,-82.61297636,5,0
Glasscock,Texas,31.86942909,-101.5207776,5,0
Goshen,Wyoming,42.08798185,-104.3534743,5,0
Hickman,Kentucky,36.6794808,-88.97875928,5,0
Howard,Missouri,39.1435761,-92.69756691,5,0
Hubbard,Minnesota,47.10778564,-94.91693868,5,0
Iron,Michigan,46.20974132,-88.53136251,5,1
Iron,Wisconsin,46.26302338,-90.24295041,5,1
Jefferson,Oklahoma,34.11130184,-97.83182974,5,0
Lake,Minnesota,47.64270764,-91.44557998,5,0
Lane,Kansas,38.48119447,-100.4660754,5,0
Lewis,Tennessee,35.52853208,-87.49022694,5,0
Lincoln,West Virginia,38.172154,-82.07017953,5,0
Magoffin,Kentucky,37.70820545,-83.0657714,5,0
Marshall,South Dakota,45.75870838,-97.59855639,5,0
Martin,Kentucky,37.79990579,-82.51247478,5,0
Mathews,Virginia,37.44164146,-76.34098896,5,0
McPherson,South Dakota,45.76626028,-99.22118798,5,0
Mineral,Colorado,37.66954283,-106.9281698,5,0
Monroe,Missouri,39.49593978,-92.00043978,5,0
Montmorency,Michigan,45.0275929,-84.12696227,5,0
Morris,Kansas,38.68827511,-96.65128437,5,0
Nemaha,Nebraska,40.38514847,-95.85433992,5,0
Newton,Arkansas,35.91947491,-93.21612969,5,0
Nicholas,Kentucky,38.33342292,-84.01889177,5,0
Ottawa,Kansas,39.13237408,-97.65020313,5,0
Pleasants,West Virginia,39.37091679,-81.16771771,5,0
Renville,North Dakota,48.71982533,-101.6603912,5,0
Richardson,Nebraska,40.1247415,-95.71755036,5,1
Runnels,Texas,31.8314342,-99.97616148,5,0
Schuyler,Missouri,40.46921489,-92.52311943,5,0
Sherman,Nebraska,41.22045983,-98.97588642,5,0
Somervell,Texas,32.22236802,-97.77403489,5,0
Traverse,Minnesota,45.77298854,-96.47062949,5,0
Wahkiakum,Washington,46.2918004,-123.4250831,5,0
Warren,Pennsylvania,41.81304978,-79.26969577,5,0
Woods,Oklahoma,36.76705782,-98.86573064,5,0
Archer,Texas,33.61569967,-98.68754589,6,0
Carson,Texas,35.40365929,-101.3542669,6,0
Carter,Missouri,36.94160441,-90.96051322,6,1
Chariton,Missouri,39.51499357,-92.9629191,6,0
Clay,Kansas,39.34948772,-97.16518128,6,2
Clay,Texas,33.78686685,-98.20771198,6,0
Collingsworth,Texas,34.96489496,-100.2700111,6,0
Coos,New Hampshire,44.69063265,-71.30633239,6,0
Cotton,Oklahoma,34.28845626,-98.37053567,6,2
Craig,Virginia,37.48133648,-80.21072274,6,0
Cumberland,Kentucky,36.78926125,-85.39050034,6,0
Edwards,Kansas,37.88735543,-99.31263309,6,0
Franklin,Florida,29.83791238,-84.82731662,6,0
Fremont,Iowa,40.7454272,-95.60129045,6,0
Grant,Minnesota,45.93424769,-96.01139609,6,0
Hamilton,New York,43.66146647,-74.49721957,6,0
Hanson,South Dakota,43.6746384,-97.78715148,6,0
Issaquena,Mississippi,32.72531359,-90.97392828,6,1
Jackson,South Dakota,43.69318385,-101.6255063,6,1
Johnson,Nebraska,40.39257596,-96.26522753,6,0
Kingsbury,South Dakota,44.36956169,-97.4913945,6,0
Kiowa,Oklahoma,34.91671958,-98.97720696,6,1
Lawrence,Kentucky,38.07136018,-82.72882223,6,0
McDowell,West Virginia,37.38002939,-81.65083669,6,0
Menominee,Wisconsin,45.00422544,-88.70950714,6,0
Mercer,Missouri,40.42212303,-93.5682959,6,0
Mercer,North Dakota,47.31213126,-101.8318399,6,0
Moore,Tennessee,35.27724699,-86.36230578,6,0
Morton,Kansas,37.19141121,-101.7992519,6,1
Nome,Alaska,64.90320724,-164.0353804,6,0
Owen,Kentucky,38.51679143,-84.82404619,6,0
Pershing,Nevada,40.44003782,-118.4005641,6,0
Pickett,Tennessee,36.55606529,-85.077633,6,0
Pike,Indiana,38.40112197,-87.23574907,6,0
Powell,Kentucky,37.83218794,-83.82553961,6,0
Quay,New Mexico,35.10403332,-103.5481727,6,1
Red Willow,Nebraska,40.1755688,-100.476998,6,0
Rooks,Kansas,39.35022773,-99.32484567,6,0
Roseau,Minnesota,48.77501878,-95.81079919,6,0
Sargent,North Dakota,46.10830372,-97.63217159,6,0
Shannon,Missouri,37.15772072,-91.40190382,6,0
Sioux,Nebraska,42.48932059,-103.7576544,6,0
Sublette,Wyoming,42.76558279,-109.9130922,6,0
Trimble,Kentucky,38.61056487,-85.33775972,6,0
Tucker,West Virginia,39.11240885,-79.57053576,6,0
Van Buren,Tennessee,35.69864497,-85.45221699,6,0
Webster,Nebraska,40.17642643,-98.50019851,6,0
Woodruff,Arkansas,35.18902527,-91.2439489,6,0
Benzie,Michigan,44.63899297,-86.01608482,7,0
Boone,Nebraska,41.70759415,-98.06737183,7,0
Buffalo,Wisconsin,44.37835084,-91.75332578,7,2
Childress,Texas,34.5293041,-100.2077916,7,0
Clearwater,Minnesota,47.57992111,-95.37790562,7,0
Coal,Oklahoma,34.58840127,-96.29798747,7,0
Concho,Texas,31.32635934,-99.86473038,7,0
Crockett,Texas,30.72367027,-101.4134238,7,0
Crook,Wyoming,44.58855102,-104.5697705,7,0
Curry,Oregon,42.45911325,-124.157282,7,0
Dallas,Arkansas,33.97042763,-92.65167437,7,0
Dickinson,Michigan,46.00999672,-87.86961634,7,2
Edmunds,South Dakota,45.41846445,-99.21545423,7,0
Forest,Pennsylvania,41.51095103,-79.23229292,7,0
Franklin,Nebraska,40.17636348,-98.95299073,7,0
Gilpin,Colorado,39.85646523,-105.5252597,7,0
Gogebic,Michigan,46.40862701,-89.69377193,7,1
Hand,South Dakota,44.54708407,-99.00386459,7,0
Hemphill,Texas,35.83764858,-100.2703577,7,0
Hughes,Oklahoma,35.04912569,-96.24921145,7,0
Jack,Texas,33.23377248,-98.17283469,7,0
Knott,Kentucky,37.35388197,-82.94981134,7,0
Lake,Michigan,43.99050893,-85.802173,7,0
Langlade,Wisconsin,45.26271619,-89.07483625,7,0
Las Animas,Colorado,37.3153406,-104.0376458,7,0
Lawrence,Illinois,38.71987914,-87.72884035,7,0
Lewis,Missouri,40.09673161,-91.72070156,7,1
Lincoln,Minnesota,44.41311883,-96.26688165,7,0
Lincoln,Montana,48.54265777,-115.4046155,7,1
Los Alamos,New Mexico,35.86631386,-106.3134985,7,0
Macon,Missouri,39.83049768,-92.56453089,7,0
Mahnomen,Minnesota,47.32557075,-95.80921485,7,1
Morgan,Ohio,39.62081738,-81.85308173,7,0
Oregon,Missouri,36.68710164,-91.4033755,7,0
Osage,Missouri,38.46036182,-91.8613635,7,0
Plumas,California,40.00355989,-120.8395236,7,0
Searcy,Arkansas,35.9109364,-92.69936482,7,0
Sherman,Kansas,39.35147699,-101.7197624,7,0
Stephens,Texas,32.73553157,-98.83631615,7,0
Tillamook,Oregon,45.46248721,-123.712066,7,0
Union,New Mexico,36.48126404,-103.4709624,7,0
Wyoming,West Virginia,37.612327,-81.54511071,7,0
Adams,Iowa,41.02903567,-94.69932645,8,0
Archuleta,Colorado,37.19474156,-107.0476867,8,0
Bell,Kentucky,36.73355174,-83.67766671,8,0
Breathitt,Kentucky,37.52333168,-83.31959161,8,0
Columbia,Washington,46.29442881,-117.9051983,8,0
Crittenden,Kentucky,37.35839237,-88.0882609,8,1
Custer,South Dakota,43.67741105,-103.4534521,8,0
Daviess,Missouri,39.96145298,-93.98519678,8,0
Dawson,Montana,47.26584855,-104.8944417,8,0
Dickinson,Kansas,38.86600962,-97.15532383,8,1
Giles,Virginia,37.31234791,-80.70636931,8,0
Glacier,Montana,48.70513576,-112.9934235,8,0
Haskell,Oklahoma,35.222576,-95.11513306,8,0
Henderson,Illinois,40.81908672,-90.92491462,8,0
Leslie,Kentucky,37.09246661,-83.37999606,8,0
Llano,Texas,30.70645047,-98.68475262,8,0
Mackinac,Michigan,46.07028979,-85.04980537,8,0
Madison,Montana,45.30080065,-111.9173017,8,1
Major,Oklahoma,36.31149996,-98.53467076,8,1
Marion,Kansas,38.35855394,-97.0985251,8,1
Marshall,Illinois,41.0327901,-89.34510444,8,0
Miner,South Dakota,44.02197882,-97.60992207,8,0
Morgan,Kentucky,37.92465657,-83.25558245,8,0
Nicholas,West Virginia,38.29617706,-80.79759588,8,1
Noble,Ohio,39.76818851,-81.45937183,8,0
Pierce,Nebraska,42.26434853,-97.60122773,8,0
Pike,Arkansas,34.16250414,-93.65789349,8,0
Rains,Texas,32.87109387,-95.79232691,8,0
Roosevelt,Montana,48.29607488,-105.0079268,8,0
Tyrrell,North Carolina,35.87147226,-76.17055253,8,0
Valley,Nebraska,41.56730777,-98.98197724,8,0
Wallowa,Oregon,45.57894064,-117.183538,8,0
Wayne,Iowa,40.73969028,-93.32752197,8,0
Wells,North Dakota,47.58614526,-99.65904998,8,0
Woodson,Kansas,37.8865336,-95.74006277,8,0
Antelope,Nebraska,42.17695516,-98.0666283,9,1
Bethel,Alaska,60.90980451,-159.8561831,9,0
Brooke,West Virginia,40.27367263,-80.57915332,9,0
Caldwell,Missouri,39.65620858,-93.98308093,9,0
Cedar,Missouri,37.72391475,-93.85445441,9,0
Colfax,New Mexico,36.60569702,-104.6472674,9,1
Decatur,Iowa,40.73742757,-93.78645949,9,0
Eastland,Texas,32.32743996,-98.83243566,9,0
Edgar,Illinois,39.6809186,-87.74759563,9,0
Graham,North Carolina,35.3506925,-83.83369267,9,0
Greene,Illinois,39.35907414,-90.388865,9,0
Hodgeman,Kansas,38.08780079,-99.89829881,9,0
Hyde,North Carolina,35.42017674,-76.15180542,9,0
Jefferson,Nebraska,40.17584531,-97.142601,9,0
Kimball,Nebraska,41.19774275,-103.7148131,9,0
Latimer,Oklahoma,34.87844729,-95.25215049,9,1
Lee,Virginia,36.70586667,-83.12606515,9,0
Lincoln,Wisconsin,45.33737523,-89.73411273,9,0
Lipscomb,Texas,36.27783108,-100.2733151,9,0
Livingston,Kentucky,37.21137452,-88.34797529,9,0
Metcalfe,Kentucky,36.99459295,-85.63123699,9,2
Orange,Vermont,44.00470222,-72.37640104,9,0
Park,Montana,45.48965095,-110.5264394,9,0
Pembina,North Dakota,48.76623521,-97.5523809,9,0
Ralls,Missouri,39.52817427,-91.51838643,9,0
Republic,Kansas,39.82799632,-97.65036709,9,0
Rosebud,Montana,46.23397237,-106.729288,9,1
Russell,Virginia,36.9302832,-82.10095486,9,0
Saline,Illinois,37.75332999,-88.54119706,9,0
Scott,Virginia,36.71466456,-82.60171704,9,2
Walworth,South Dakota,45.43019636,-100.0307514,9,0
Wilbarger,Texas,34.07945812,-99.24178437,9,0
Adams,Idaho,44.89333571,-116.4545247,10,0
Bosque,Texas,31.89978581,-97.63613524,10,0
Brown,Illinois,39.96209138,-90.75068024,10,0
Caribou,Idaho,42.77149116,-111.5597683,10,0
Churchill,Nevada,39.58105744,-118.3394607,10,1
Clay,West Virginia,38.46231092,-81.07652217,10,1
Cloud,Kansas,39.48028352,-97.64925343,10,0
Crook,Oregon,44.14230227,-120.356297,10,0
Duval,Texas,27.68184592,-98.50864568,10,0
Fall River,South Dakota,43.23929297,-103.5275691,10,0
Furnas,Nebraska,40.17642064,-99.91247454,10,1
Gallia,Ohio,38.82708533,-82.31647569,10,1
Garrett,Maryland,39.52786077,-79.27355126,10,0
Grand Isle,Vermont,44.7975824,-73.29679772,10,0
Houston,Tennessee,36.28872054,-87.71878828,10,0
Johnson,Kentucky,37.85106355,-82.8264322,10,0
Johnston,Oklahoma,34.31440473,-96.66011537,10,0
Koochiching,Minnesota,48.24539665,-93.78352843,10,0
La Salle,Texas,28.34453111,-99.09908775,10,0
Lancaster,Virginia,37.71889653,-76.46400482,10,0
Lexington,Virginia,37.78258621,-79.44262866,10,0
Massac,Illinois,37.22078441,-88.71036614,10,0
McCook,South Dakota,43.6742571,-97.36863144,10,1
Moffat,Colorado,40.61810999,-108.2070876,10,0
Montgomery,Iowa,41.03018714,-95.15642896,10,2
Ouray,Colorado,38.14717457,-107.7675136,10,1
Pope,Minnesota,45.58606667,-95.44451209,10,0
Pushmataha,Oklahoma,34.41635232,-95.37603505,10,0
Ramsey,North Dakota,48.26886249,-98.72223879,10,1
Refugio,Texas,28.3238976,-97.15766311,10,0
Richland,Montana,47.78668011,-104.5610786,10,0
Rolette,North Dakota,48.77245354,-99.84097493,10,0
Scott,Arkansas,34.85588887,-94.0632176,10,0
Stanton,Kansas,37.56304714,-101.7843534,10,0
Vilas,Wisconsin,46.05467334,-89.51719204,10,0
Wetzel,West Virginia,39.6065771,-80.6401654,10,0
Avery,North Carolina,36.07569796,-81.92308483,11,0
Bon Homme,South Dakota,42.98914167,-97.88592746,11,0
Carroll,Missouri,39.42762566,-93.50626255,11,0
Cass,Minnesota,46.95043611,-94.32603968,11,2
Crawford,Missouri,37.97663738,-91.30528104,11,0
Cumberland,Illinois,39.27432424,-88.2401158,11,0
DeKalb,Missouri,39.89201062,-94.40476508,11,0
Dimmit,Texas,28.42270064,-99.75645095,11,0
Effingham,Illinois,39.05935711,-88.58969584,11,1
Gasconade,Missouri,38.43947277,-91.50847147,11,0
Greenwood,Kansas,37.8774388,-96.23250453,11,0
Hamlin,South Dakota,44.67385954,-97.18829593,11,0
Houghton,Michigan,46.89988536,-88.68495385,11,0
Hutchinson,South Dakota,43.33449012,-97.75536441,11,0
Latah,Idaho,46.81587887,-116.7113698,11,0
Lincoln,New Mexico,33.74526079,-105.4586166,11,0
Livingston,Missouri,39.78110272,-93.54645978,11,0
Madison,North Carolina,35.85402722,-82.71346418,11,0
Martin,Texas,32.30600051,-101.9513518,11,1
McCormick,South Carolina,33.90161443,-82.30794338,11,1
McCulloch,Texas,31.1925468,-99.34682807,11,0
McLean,North Dakota,47.60766714,-101.3182418,11,0
Meigs,Ohio,39.09224872,-82.0305041,11,0
Monroe,West Virginia,37.56274716,-80.54577965,11,0
Osage,Kansas,38.65235984,-95.72707998,11,0
Pratt,Kansas,37.64780729,-98.73922153,11,0
Radford,Virginia,37.12222899,-80.5602732,11,0
Roane,West Virginia,38.71622686,-81.35243568,11,1
Rusk,Wisconsin,45.47498854,-91.1333012,11,0
Scotland,Missouri,40.45214695,-92.14709064,11,1
Spink,South Dakota,44.93837606,-98.34626602,11,0
Sumner,Kansas,37.23682549,-97.47721621,11,1
Taylor,Wisconsin,45.21179252,-90.5004405,11,0
Union,Tennessee,36.28590426,-83.83651902,11,0
Valley,Idaho,44.76728382,-115.5676773,11,0
Worth,Iowa,43.37750768,-93.26087602,11,0
Bates,Missouri,38.25271289,-94.34113157,12,1
Beckham,Oklahoma,35.26862449,-99.68128023,12,0
Benton,Tennessee,36.07110411,-88.06849355,12,1
Big Horn,Wyoming,44.52405055,-107.9960365,12,0
Bollinger,Missouri,37.32449052,-90.02725304,12,0
Burt,Nebraska,41.85056773,-96.32605633,12,0
Clay,North Carolina,35.05704275,-83.74353633,12,0
Dallas,Missouri,37.6811355,-93.02127031,12,1
Elk,Pennsylvania,41.42822061,-78.64524744,12,0
Fulton,Arkansas,36.38177105,-91.81729127,12,0
Garza,Texas,33.17969345,-101.2984114,12,0
Gilmer,West Virginia,38.9251277,-80.85952723,12,0
Goliad,Texas,28.65696592,-97.42760647,12,0
Harrison,Ohio,40.29380509,-81.09068544,12,1
Hot Springs,Wyoming,43.71930657,-108.4423174,12,0
Lake,Montana,47.64514965,-114.0898013,12,0
Marquette,Wisconsin,43.81911946,-89.40073763,12,1
Marshall,Minnesota,48.35825983,-96.37017407,12,0
Menifee,Kentucky,37.94090733,-83.59985712,12,0
Miller,Missouri,38.21450288,-92.42610898,12,0
Monroe,Arkansas,34.6815935,-91.20540287,12,0
Newton,Texas,30.78548982,-93.74408813,12,0
Pacific,Washington,46.55418369,-123.7285716,12,1
Polk,Nebraska,41.18813488,-97.56630712,12,0
Presque Isle,Michigan,45.34018577,-83.91498656,12,0
Randolph,Missouri,39.44007257,-92.4971374,12,0
Ringgold,Iowa,40.73518949,-94.24368535,12,0
Sanborn,South Dakota,44.02351092,-98.0909816,12,0
Sawyer,Wisconsin,45.87931905,-91.14504927,12,0
Schuyler,New York,42.39184015,-76.8773299,12,0
Sierra,New Mexico,33.13028233,-107.1925893,12,0
Sitka,Alaska,57.24124555,-135.3206587,12,0
Stanley,South Dakota,44.41381872,-100.7349153,12,0
Stone,Missouri,36.75000327,-93.45256475,12,0
Wayne,Illinois,38.42955355,-88.42586459,12,1
Woodward,Oklahoma,36.42316318,-99.26283045,12,0
Aitkin,Minnesota,46.60962049,-93.4116826,13,0
Baca,Colorado,37.31940883,-102.5603223,13,0
Bath,Kentucky,38.14735938,-83.74588932,13,1
Bond,Illinois,38.88829622,-89.43534887,13,1
Caldwell,Kentucky,37.14749129,-87.86948214,13,0
Cedar,Nebraska,42.5988851,-97.25311951,13,0
Clay,Tennessee,36.55151008,-85.53930419,13,0
Conejos,Colorado,37.201606,-106.1917488,13,0
Dunn,North Dakota,47.35423935,-102.6160468,13,0
Fillmore,Nebraska,40.52458567,-97.59646937,13,1
Franklin,Illinois,37.99189086,-88.92567818,13,0
Gosper,Nebraska,40.51481965,-99.83020279,13,0
Grant,South Dakota,45.1723937,-96.77002276,13,0
Harrison,Missouri,40.35570088,-93.99222144,13,0
Jim Hogg,Texas,27.04453923,-98.6968187,13,0
Kanabec,Minnesota,45.9459309,-93.29275192,13,1
Kearney,Nebraska,40.50663314,-98.94877182,13,0
LaMoure,North Dakota,46.45681054,-98.53542355,13,0
Lake,Oregon,42.79246693,-120.3850163,13,0
Linn,Kansas,38.21267844,-94.84254089,13,0
Logan,Illinois,40.12581572,-89.36638784,13,0
Morgan,Missouri,38.4181765,-92.88791859,13,0
Okfuskee,Oklahoma,35.46485198,-96.32639984,13,0
Pendleton,West Virginia,38.68314479,-79.35084086,13,1
Polk,Missouri,37.6162296,-93.39828174,13,0
Schuyler,Illinois,40.1571798,-90.61114163,13,0
Silver Bow,Montana,45.90018933,-112.6620092,13,0
Stone,Arkansas,35.86251946,-92.15684085,13,0
Union,Indiana,39.62550777,-84.92497066,13,0
Vermillion,Indiana,39.8523352,-87.46160542,13,0
Wayne,Kentucky,36.80310688,-84.8251971,13,0
Adair,Iowa,41.33075609,-94.47105874,14,0
Ballard,Kentucky,37.05842757,-88.99427697,14,0
Big Stone,Minnesota,45.42712824,-96.41403739,14,0
Brown,Kansas,39.82652589,-95.56421698,14,0
Buena Vista,Virginia,37.73484642,-79.35296097,14,0
Clark,Illinois,39.33425789,-87.78705622,14,0
Clark,South Dakota,44.85834507,-97.72925109,14,0
Cooper,Missouri,38.844478,-92.80896081,14,0
Ohio,Indiana,38.955305,-84.96515993,14,0
Orleans,Vermont,44.82964024,-72.24562697,14,0
Oscoda,Michigan,44.68192279,-84.12939244,14,1
Redwood,Minnesota,44.40555844,-95.25207021,14,0
Schleicher,Texas,30.89740592,-100.5384842,14,0
Scott,Tennessee,36.42325673,-84.50360494,14,0
Surry,Virginia,37.11781893,-76.88450012,14,1
Upshur,West Virginia,38.89285061,-80.23689136,14,0
Ward,Texas,31.50999644,-103.0927909,14,0
Warren,Indiana,40.34728141,-87.35602659,14,1
Winkler,Texas,31.85008651,-103.0485163,14,0
Wright,Missouri,37.27029221,-92.46914488,14,0
Adams,Wisconsin,43.96974651,-89.76782777,15,2
Barbour,West Virginia,39.1307219,-80.00350858,15,1
Blaine,Oklahoma,35.87518314,-98.43307003,15,0
Casey,Kentucky,37.32533118,-84.92726209,15,0
Crosby,Texas,33.61431553,-101.3000364,15,1
Day,South Dakota,45.367281,-97.60737498,15,0
Ellis,Kansas,38.91458712,-99.31751551,15,0
Floyd,Virginia,36.9302126,-80.36738849,15,1
Fulton,Illinois,40.47289135,-90.20862357,15,0
Gaines,Texas,32.74055318,-102.6353295,15,0
Hudspeth,Texas,31.45628381,-105.388178,15,0
Lafayette,Arkansas,33.24116713,-93.60677071,15,1
Larue,Kentucky,37.54567114,-85.70138352,15,1
Letcher,Kentucky,37.12306748,-82.85346474,15,0
Linn,Missouri,39.87001769,-93.10704106,15,1
Marion,Missouri,39.80601912,-91.62203062,15,0
McKean,Pennsylvania,41.80938602,-78.56478358,15,1
Menominee,Michigan,45.58038692,-87.55370409,15,0
Middlesex,Virginia,37.63191998,-76.55064617,15,0
Pendleton,Kentucky,38.69607718,-84.35599463,15,0
Phillips,Colorado,40.59414277,-102.3577703,15,0
Potter,Pennsylvania,41.74471626,-77.89559864,15,0
Presidio,Texas,29.99954402,-104.2408079,15,0
Quitman,Georgia,31.86728114,-85.01773177,15,1
Richland,Wisconsin,43.3762778,-90.43012729,15,4
Tazewell,Virginia,37.12191123,-81.56685568,15,0
Thomas,Kansas,39.35107575,-101.0553705,15,0
Tripp,South Dakota,43.34459388,-99.8854891,15,0
Wadena,Minnesota,46.58589171,-94.96968506,15,0
Aransas,Texas,28.10556197,-96.9995047,16,0
Bandera,Texas,29.74619598,-99.24598147,16,0
Callahan,Texas,32.29760619,-99.37326312,16,2
Fentress,Tennessee,36.38128818,-84.92870012,16,0
Franklin,Arkansas,35.51202821,-93.89299569,16,0
Grant,West Virginia,39.10314817,-79.19440518,16,0
Hancock,Maine,44.59816444,-68.38401854,16,1
Leelanau,Michigan,44.94430054,-85.80150326,16,0
Lewis,West Virginia,38.9947249,-80.49988181,16,2
Manistee,Michigan,44.33352407,-86.05626916,16,0
Mason,West Virginia,38.77071799,-82.02524219,16,0
Mitchell,Iowa,43.35638371,-92.78887719,16,0
Montgomery,Missouri,38.94022054,-91.47000721,16,0
Otoe,Nebraska,40.64843556,-96.13374142,16,0
Out of HI,Hawaii,,,16,0
Pipestone,Minnesota,44.02301619,-96.25841142,16,0
Power,Idaho,42.69254894,-112.8395742,16,0
Scott,Kansas,38.48222076,-100.9066539,16,0
Shelby,Illinois,39.39133527,-88.80611122,16,1
Stevens,Washington,48.40035475,-117.8542701,16,1
Taylor,West Virginia,39.33602617,-80.0421439,16,0
Terry,Texas,33.17402785,-102.3354521,16,0
Teton,Idaho,43.75303583,-111.2056773,16,0
Traill,North Dakota,47.45367788,-97.16323288,16,0
Vernon,Missouri,37.8457799,-94.34127305,16,0
Wheeler,Texas,35.40114335,-100.2699514,16,0
Audubon,Iowa,41.6844628,-94.90581859,17,1
Benton,Missouri,38.29503305,-93.28756116,17,0
Bracken,Kentucky,38.69158994,-84.08532444,17,0
Cass,Iowa,41.33149454,-94.92792482,17,0
Colusa,California,39.17881957,-122.2331726,17,0
Corson,South Dakota,45.70889983,-101.1970473,17,0
Fleming,Kentucky,38.36758311,-83.69657514,17,0
Hancock,Kentucky,37.83766422,-86.78280584,17,0
Howard,Iowa,43.35671042,-92.31702714,17,0
Jackson,Ohio,39.01914254,-82.6181856,17,0
Lincoln,Wyoming,42.26376367,-110.6563997,17,0
McCreary,Kentucky,36.73874143,-84.48102924,17,0
Mingo,West Virginia,37.73048351,-82.13338365,17,2
Montague,Texas,33.67521893,-97.72500958,17,1
Moultrie,Illinois,39.64187451,-88.62099969,17,0
Nodaway,Missouri,40.36079813,-94.88133008,17,0
Palo Pinto,Texas,32.75310985,-98.31319001,17,2
Ransom,North Dakota,46.45621782,-97.65742504,17,0
Ripley,Missouri,36.65460667,-90.85990261,17,0
Ste. Genevieve,Missouri,37.89090059,-90.1949941,17,1
Antrim,Michigan,44.99690221,-85.15503082,18,0
Atoka,Oklahoma,34.37366573,-96.03802487,18,0
Baxter,Arkansas,36.28784385,-92.33782872,18,0
Brule,South Dakota,43.71756379,-99.08118954,18,0
Carbon,Montana,45.22850116,-109.0274047,18,0
Cheyenne,Nebraska,41.21999357,-102.9941693,18,0
Clear Creek,Colorado,39.68864463,-105.6463118,18,1
Crawford,Illinois,39.0032229,-87.75954624,18,0
Currituck,North Carolina,36.36123664,-75.95876401,18,0
Decatur,Tennessee,35.60048904,-88.11043779,18,0
Evans,Georgia,32.15328841,-81.8870105,18,0
Fulton,Pennsylvania,39.92913544,-78.11163677,18,1
Grand,Colorado,40.10603347,-106.1178042,18,0
Grant,New Mexico,32.73911281,-108.3827845,18,0
Greenlee,Arizona,33.21498827,-109.2405279,18,1
Grundy,Missouri,40.11406587,-93.56509276,18,0
Hancock,Illinois,40.40423981,-91.16313899,18,1
Jefferson,Idaho,43.82078483,-112.3131749,18,0
Murray,Oklahoma,34.48116015,-97.06826283,18,0
Nelson,Virginia,37.78790447,-78.88498513,18,0
Pamlico,North Carolina,35.15253315,-76.66559823,18,0
Prowers,Colorado,37.95544985,-102.3926052,18,0
Van Buren,Iowa,40.75326764,-91.95017958,18,0
Venango,Pennsylvania,41.40323442,-79.75845449,18,0
Barnes,North Dakota,46.93579637,-98.06605978,19,0
Caledonia,Vermont,44.46548598,-72.10314651,19,0
Chester,Tennessee,35.42527478,-88.6095842,19,0
Craig,Oklahoma,36.76268118,-95.20916602,19,0
Garrard,Kentucky,37.6388668,-84.53289319,19,0
Hamilton,Texas,31.70470573,-98.11083887,19,1
Henry,Missouri,38.38482826,-93.79293734,19,3
Keokuk,Iowa,41.33649833,-92.1785067,19,1
Lake,South Dakota,44.02193107,-97.12926365,19,1
Lampasas,Texas,31.19531316,-98.24206613,19,0
Lawrence,South Dakota,44.35919441,-103.7929428,19,0
Lyon,Kentucky,37.02080035,-88.07886257,19,3
Norman,Minnesota,47.32628443,-96.45620947,19,0
Oneida,Wisconsin,45.70677897,-89.51944105,19,0
Ouachita,Arkansas,33.58839816,-92.87795984,19,0
Piatt,Illinois,40.01360584,-88.59319339,19,0
Poquoson,Virginia,37.14259351,-76.35798148,19,0
Reeves,Texas,31.32323325,-103.6903896,19,0
Renville,Minnesota,44.72836381,-94.94553734,19,1
Rockcastle,Kentucky,37.36642393,-84.31176452,19,0
San Juan,Washington,48.60182783,-122.96745,19,0
Stewart,Tennessee,36.50235092,-87.83920548,19,0
Warren,Georgia,33.41146451,-82.67795848,19,0
Washington,Illinois,38.35309213,-89.40982703,19,0
Zavala,Texas,28.86617238,-99.76050829,19,0
Adams,Ohio,38.84541072,-83.4718964,20,1
Amador,California,38.44583082,-120.65696,20,0
Appanoose,Iowa,40.74324454,-92.86865906,20,3
Asotin,Washington,46.18894415,-117.2022851,20,2
Boone,West Virginia,38.01974191,-81.69888019,20,0
Comanche,Texas,31.94854689,-98.55876441,20,1
Costilla,Colorado,37.27732493,-105.4276548,20,0
Freestone,Texas,31.70422788,-96.15072516,20,0
Guadalupe,New Mexico,34.86319296,-104.790669,20,0
Houston,Minnesota,43.67129565,-91.49143057,20,0
Humphreys,Tennessee,36.03958805,-87.77992872,20,1
Izard,Arkansas,36.09604046,-91.90847954,20,1
Johnson,Illinois,37.45939802,-88.88165419,20,0
Johnson,Wyoming,44.04057166,-106.5845174,20,1
Leon,Texas,31.29872538,-95.9936328,20,0
Mercer,Illinois,41.20596782,-90.74290052,20,0
Morgan,West Virginia,39.55439028,-78.26311676,20,0
Page,Iowa,40.7393172,-95.1497813,20,0
Pike,Ohio,39.07634001,-83.06769584,20,0
Prairie,Arkansas,34.83624419,-91.55162157,20,0
Rappahannock,Virginia,38.68295619,-78.15826963,20,0
San Miguel,New Mexico,35.48014807,-104.8163562,20,0
Swift,Minnesota,45.2829032,-95.68264092,20,1
Transylvania,North Carolina,35.20383864,-82.79638423,20,1
Wilkin,Minnesota,46.35721532,-96.4684375,20,3
Winnebago,Iowa,43.37751174,-93.73407298,20,0
Alcona,Michigan,44.6846864,-83.59507875,21,1
Barton,Missouri,37.50207671,-94.34757022,21,0
Benewah,Idaho,47.21754179,-116.6586851,21,0
Bourbon,Kansas,37.85508555,-94.84865997,21,1
Carroll,Illinois,42.06823429,-89.93395545,21,2
Claiborne,Tennessee,36.48319149,-83.65947309,21,0
Delta,Michigan,45.9048491,-86.9080745,21,3
Fulton,Kentucky,36.55238827,-89.20140068,21,0
Gem,Idaho,44.06482372,-116.398376,21,0
Harlan,Kentucky,36.85699301,-83.21899516,21,2
Ida,Iowa,42.38696136,-95.51355387,21,0
Jefferson,Pennsylvania,41.12913106,-78.9986361,21,1
Karnes,Texas,28.90705334,-97.85960149,21,0
Ketchikan Gateway,Alaska,55.57445008,-130.975561,21,0
Knox,Nebraska,42.63758421,-97.89178836,21,0
Lewis,Kentucky,38.53184419,-83.37735618,21,0
Live Oak,Texas,28.35101362,-98.1246786,21,0
Moody,South Dakota,44.02266214,-96.67081159,21,0
Phelps,Missouri,37.87736118,-91.79351727,21,0
Sabine,Texas,31.34318809,-93.85440451,21,1
Sioux,North Dakota,46.11323337,-101.0440149,21,0
Stanton,Nebraska,41.9169835,-97.19394708,21,0
Tyler,Texas,30.77031716,-94.37690895,21,0
Van Wert,Ohio,40.8554138,-84.591117,21,0
Walsh,North Dakota,48.36876964,-97.72574783,21,0
Washington,Missouri,37.96130078,-90.87948158,21,1
Waushara,Wisconsin,44.11324419,-89.24317107,21,0
Webster,Georgia,32.04066113,-84.54742852,21,1
Wexford,Michigan,44.33853602,-85.57712739,21,3
Yoakum,Texas,33.17320212,-102.8276433,21,0
Alexander,Illinois,37.18049267,-89.32910838,22,0
Boone,Arkansas,36.3084504,-93.09374925,22,1
Carbon,Wyoming,41.69357844,-106.9326084,22,0
Carter,Kentucky,38.31690743,-83.05092385,22,0
Chowan,North Carolina,36.12908077,-76.60118385,22,0
Douglas,Wisconsin,46.43222285,-91.91595768,22,0
Floyd,Texas,34.07227468,-101.3031546,22,1
Gulf,Florida,29.93543004,-85.2427099,22,0
Hancock,West Virginia,40.51943859,-80.57461608,22,0
Hartley,Texas,35.84008013,-102.6029022,22,2
Jackson,Tennessee,36.36380466,-85.67239905,22,0
Logan,West Virginia,37.8299889,-81.93528571,22,1
Martin,Indiana,38.7099921,-86.80373186,22,0
Mason,Illinois,40.23917274,-89.91824452,22,0
Otero,Colorado,37.9014485,-103.7173385,22,1
Parke,Indiana,39.77202286,-87.20375833,22,0
Paulding,Ohio,41.11676341,-84.5801017,22,0
Ravalli,Montana,46.08520862,-114.1189164,22,0
Rowan,Kentucky,38.19484205,-83.42088935,22,0
Sharkey,Mississippi,32.88149103,-90.8159538,22,0
Tuolumne,California,38.02644018,-119.9525093,22,0
Vinton,Ohio,39.25208988,-82.4831444,22,2
Wabash,Illinois,38.44272901,-87.84922065,22,0
Washington,Kentucky,37.75599461,-85.17407732,22,0
Young,Texas,33.17659707,-98.68790885,22,1
Aroostook,Maine,46.65926321,-68.59841248,23,1
Brown,Minnesota,44.24205652,-94.72562874,23,2
Clinton,Missouri,39.6013098,-94.40465394,23,0
Faulk,South Dakota,45.07082625,-99.14535601,23,1
Fayette,Illinois,39.00072038,-89.02452658,23,3
Franklin,Idaho,42.18332217,-111.8149666,23,0
Haskell,Kansas,37.5620394,-100.8710738,23,0
Jackson,Iowa,42.17178824,-90.57354837,23,0
King and Queen,Virginia,37.71044922,-76.88689628,23,1
Lincoln,Maine,44.05996956,-69.54227124,23,0
Mariposa,California,37.57978556,-119.9073334,23,1
Mercer,Kentucky,37.81474237,-84.87488475,23,0
Morgan,Tennessee,36.13248031,-84.64880098,23,1
Phelps,Nebraska,40.51156033,-99.41461667,23,0
Switzerland,Indiana,38.82767338,-85.03022429,23,0
Tillman,Oklahoma,34.37288446,-98.92426619,23,1
Treutlen,Georgia,32.40422134,-82.56904553,23,1
Twiggs,Georgia,32.67435595,-83.43078662,23,1
Bonner,Idaho,48.29996017,-116.6017932,24,0
Breckinridge,Kentucky,37.77377239,-86.42885017,24,2
Bureau,Illinois,41.40385234,-89.5283051,24,1
Camden,North Carolina,36.33804939,-76.15568396,24,0
Chickasaw,Iowa,43.06001295,-92.31773347,24,0
Gray,Kansas,37.73836671,-100.4369088,24,0
Jefferson,Kansas,39.2347941,-95.38289232,24,0
Knox,Maine,44.11486325,-69.10529169,24,1
McLean,Kentucky,37.5301951,-87.26803443,24,1
Menard,Illinois,40.02742725,-89.80246001,24,0
Morrill,Nebraska,41.71711774,-103.0061405,24,0
Nemaha,Kansas,39.78345387,-96.01392079,24,0
Nolan,Texas,32.30365282,-100.4060208,24,0
Palo Alto,Iowa,43.08193849,-94.67824621,24,0
Pocahontas,West Virginia,38.32758728,-80.00993811,24,0
Schley,Georgia,32.2654021,-84.31258912,24,1
Sequatchie,Tennessee,35.36979721,-85.41022136,24,0
Sheridan,Wyoming,44.79048913,-106.8862389,24,0
Tensas,Louisiana,32.00760749,-91.32915234,24,0
Tioga,Pennsylvania,41.77255149,-77.25433032,24,2
Trigg,Kentucky,36.80767017,-87.87333656,24,0
Union,Iowa,41.0277278,-94.24234847,24,0
Winneshiek,Iowa,43.29094334,-91.84422722,24,0
Benton,Mississippi,34.81681228,-89.18945516,25,0
Cannon,Tennessee,35.80990797,-86.05738983,25,0
Cleburne,Alabama,33.67679204,-85.52005899,25,1
Cleveland,Arkansas,33.89723187,-92.18537045,25,0
Custer,Montana,46.25319932,-105.5737526,25,0
Falls,Texas,31.25350609,-96.93630086,25,0
Fillmore,Minnesota,43.67394126,-92.08980382,25,0
Grays Harbor,Washington,47.14003705,-123.7820567,25,0
Laclede,Missouri,37.65896829,-92.5888493,25,0
Lewis and Clark,Montana,47.12610041,-112.394698,25,0
Lincoln,Kentucky,37.45475628,-84.6565327,25,1
Marshall,Oklahoma,34.02311222,-96.76855464,25,0
Meade,Kentucky,37.96163597,-86.21028219,25,2
Ray,Missouri,39.3537468,-93.98905745,25,0
Todd,Kentucky,36.8381152,-87.17878374,25,0
Turner,South Dakota,43.3109081,-97.14865776,25,0
Whitley,Kentucky,36.75700531,-84.14541217,25,0
Yellow Medicine,Minnesota,44.71710183,-95.86842453,25,0
Anderson,Kentucky,38.00671029,-84.99171713,26,1
Arkansas,Arkansas,34.29145151,-91.37277296,26,0
Blanco,Texas,30.26640707,-98.3999852,26,1
Charlevoix,Michigan,45.37790017,-85.19614053,26,2
Converse,Wyoming,42.97272268,-105.5081848,26,0
Doniphan,Kansas,39.79067154,-95.14056866,26,0
Fountain,Indiana,40.12361933,-87.24217689,26,2
Gates,North Carolina,36.44667547,-76.69749701,26,2
Gladwin,Michigan,43.98901072,-84.38774817,26,1
Henry,Ohio,41.3339642,-84.06830637,26,0
Jackson,Arkansas,35.59802983,-91.21494602,26,0
Jackson,Wisconsin,44.31864893,-90.80566792,26,1
Kingfisher,Oklahoma,35.94530008,-97.94193268,26,0
Lewis,New York,43.7844157,-75.44903992,26,0
Marion,Texas,32.79868409,-94.3566123,26,1
Miami,Kansas,38.56383358,-94.83832189,26,0
Osceola,Michigan,43.98992088,-85.32566756,26,0
Perry,Ohio,39.73508655,-82.23804971,26,1
Roscommon,Michigan,44.33473082,-84.61067651,26,0
Beltrami,Minnesota,47.97373527,-94.93732139,27,0
Cascade,Montana,47.30797024,-111.3467922,27,2
Clare,Michigan,43.98794227,-84.8481986,27,3
Clay,Nebraska,40.52439441,-98.05126296,27,0
Crawford,Indiana,38.28814402,-86.44518825,27,0
Donley,Texas,34.96517499,-100.8140093,27,0
Emmet,Michigan,45.52625509,-84.89083249,27,2
Floyd,Kentucky,37.56213922,-82.74750924,27,0
Grundy,Iowa,42.40183723,-92.78829551,27,0
Inyo,California,36.51112084,-117.4111978,27,1
McKenzie,North Dakota,47.7413337,-103.395905,27,0
Mitchell,North Carolina,36.01059309,-82.1582442,27,0
Park,Colorado,39.120926,-105.7182065,27,0
Perry,Arkansas,34.9459153,-92.94372564,27,0
Siskiyou,California,41.59198861,-122.5407434,27,0
Somerset,Maine,45.51229767,-69.95995554,27,0
Taylor,Georgia,32.55792548,-84.25077141,27,2
Webster,Missouri,37.2813734,-92.876329,27,1
Wise,Virginia,36.9746148,-82.62410519,27,2
Cheboygan,Michigan,45.44787015,-84.50122149,28,2
Columbia,Oregon,45.94464254,-123.0890898,28,0
Crockett,Tennessee,35.81830662,-89.14916269,28,3
Grainger,Tennessee,36.27469206,-83.51254721,28,0
Greene,Iowa,42.03614551,-94.39658081,28,0
Greenup,Kentucky,38.54332505,-82.9215658,28,0
Hansford,Texas,36.27743284,-101.3545796,28,2
Harvey,Kansas,38.04293782,-97.42747573,28,0
Lynn,Texas,33.17657705,-101.8162849,28,1
Madison,Texas,30.96694679,-95.93003775,28,0
Missaukee,Michigan,44.33772443,-85.09256478,28,1
Posey,Indiana,38.02097333,-87.86480429,28,0
Wayne,Nebraska,42.20934475,-97.11926964,28,0
Candler,Georgia,32.40209349,-82.07702563,29,0
Cherokee,Kansas,37.16928494,-94.8462897,29,0
Franklin,New York,44.59040891,-74.29926032,29,0
Hamilton,Kansas,37.99978709,-101.7921066,29,0
Iowa,Wisconsin,43.00050278,-90.13469017,29,0
Lincoln,Oklahoma,35.70270942,-96.8812462,29,2
Love,Oklahoma,33.95273467,-97.23906784,29,0
Lucas,Iowa,41.02958964,-93.32780803,29,3
Mason,Kentucky,38.59471935,-83.82151043,29,0
Mecosta,Michigan,43.64064262,-85.32463223,29,2
Neosho,Kansas,37.55862897,-95.30670046,29,0
Perry,Tennessee,35.63708728,-87.86139634,29,0
Rock,Minnesota,43.67482683,-96.25296832,29,0
Rockbridge,Virginia,37.81204314,-79.44605905,29,0
Union,Kentucky,37.66166713,-87.94300009,29,0
Williams,North Dakota,48.34522353,-103.4793387,29,0
Athens,Ohio,39.33425634,-82.04278644,30,1
Beaver,Oklahoma,36.7496847,-100.4758872,30,0
Bourbon,Kentucky,38.2054607,-84.21827874,30,1
Charlotte,Virginia,37.01909701,-78.66314092,30,0
Ford,Illinois,40.59706922,-88.22350769,30,1
Green Lake,Wisconsin,43.80025981,-89.04679553,30,0
Josephine,Oregon,42.3665549,-123.5561938,30,1
Lamoille,Vermont,44.60353043,-72.64356694,30,1
Lawrence,Missouri,37.10626634,-93.83293097,30,0
Le Flore,Oklahoma,34.89851864,-94.70392124,30,1
Lunenburg,Virginia,36.94618528,-78.24133319,30,0
McIntosh,Georgia,31.49683595,-81.40163426,30,1
Meade,Kansas,37.23859987,-100.364831,30,0
Sherman,Texas,36.27751473,-101.8933156,30,0
Spencer,Indiana,38.01519732,-87.0079644,30,1
Tipton,Indiana,40.31123252,-86.05234925,30,1
Wabasha,Minnesota,44.28424356,-92.23121312,30,0
Alleghany,North Carolina,36.49360862,-81.12857041,31,0
Alleghany,Virginia,37.78636074,-80.00222498,31,2
Atchison,Kansas,39.53185661,-95.30870026,31,0
Buchanan,Virginia,37.26818323,-82.03749726,31,0
Campbell,Tennessee,36.40355516,-84.1510856,31,1
Fayette,Iowa,42.86271799,-91.8441231,31,0
Gibson,Indiana,38.30393723,-87.58054938,31,2
Henderson,Tennessee,35.65581134,-88.38600175,31,0
Kit Carson,Colorado,39.30497777,-102.6022199,31,3
Lafayette,Florida,29.98484137,-83.18166636,31,0
Montgomery,Georgia,32.17201038,-82.53527476,31,0
Park,Wyoming,44.52157546,-109.5852825,31,0
San Jacinto,Texas,30.57933681,-95.16260304,31,0
Seneca,Ohio,41.12351311,-83.12783209,31,2
Stevens,Kansas,37.1923008,-101.3118967,31,0
Sullivan,New Hampshire,43.36094111,-72.22203125,31,1
Swisher,Texas,34.53028891,-101.7349174,31,1
Toole,Montana,48.65577551,-111.6942414,31,6
Albany,Wyoming,41.65498705,-105.7235415,32,0
Calaveras,California,38.20537103,-120.552913,32,0
Crawford,Wisconsin,43.23870316,-90.93073686,32,0
Jones,North Carolina,35.02254606,-77.35870791,32,3
Juneau,Wisconsin,43.92456975,-90.11120239,32,1
Kalkaska,Michigan,44.68512729,-85.09085699,32,2
Kossuth,Iowa,43.20405458,-94.20691791,32,0
Lander,Nevada,39.9332233,-117.0397075,32,0
Meigs,Tennessee,35.51558739,-84.81482914,32,0
Mille Lacs,Minnesota,45.93705297,-93.63236823,32,1
Mills,Iowa,41.03299766,-95.61920963,32,0
Montgomery,Kansas,37.19236568,-95.74329258,32,3
Ogemaw,Michigan,44.33481032,-84.12725175,32,2
Scurry,Texas,32.74613808,-100.9162664,32,0
Sequoyah,Oklahoma,35.49447108,-94.75463785,32,3
Trinity,Texas,31.0879489,-95.1367187,32,0
Vernon,Wisconsin,43.59422667,-90.8324691,32,0
Clarion,Pennsylvania,41.19265812,-79.42413524,33,2
Franklin,Mississippi,31.47786634,-90.89672989,33,2
Gillespie,Texas,30.31824095,-98.94676915,33,0
Henry,Kentucky,38.44942688,-85.11587507,33,2
Lincoln,Georgia,33.79201475,-82.45024131,33,1
Madison,Idaho,43.78141028,-111.6538474,33,0
Mason,Texas,30.71780434,-99.22629416,33,0
Mercer,West Virginia,37.40481169,-81.11023142,33,0
Nowata,Oklahoma,36.79843529,-95.61902331,33,1
Scioto,Ohio,38.80270163,-82.98907345,33,0
Seward,Nebraska,40.87241834,-97.139673,33,1
Smyth,Virginia,36.84455636,-81.53344948,33,1
Wabaunsee,Kansas,38.95471985,-96.20350509,33,0
Woodford,Illinois,40.78579374,-89.20973757,33,2
Aurora,South Dakota,43.71757685,-98.56050467,34,0
Barron,Wisconsin,45.42372701,-91.84833627,34,0
Clark,Kansas,37.23577007,-99.81883015,34,1
Cuming,Nebraska,41.91637624,-96.78730772,34,0
Fremont,Colorado,38.47362326,-105.4399667,34,0
Grant,Arkansas,34.29017991,-92.42320562,34,0
Howard,Texas,32.30621324,-101.4356444,34,1
Johnson,Tennessee,36.4552395,-81.84886538,34,0
Monroe,Kentucky,36.71225341,-85.71596443,34,1
Owyhee,Idaho,42.58016894,-116.1693871,34,0
Robertson,Texas,31.02539637,-96.51272246,34,0
Sagadahoc,Maine,43.95415864,-69.85074999,34,0
Southeast Utah,Utah,38.99617072,-110.7013958,34,0
Van Buren,Arkansas,35.58095779,-92.51295036,34,2
Amherst,Virginia,37.60308293,-79.14548696,35,0
Blackford,Indiana,40.47388153,-85.32499702,35,2
Clallam,Washington,48.04754642,-123.9226319,35,0
Clay,Alabama,33.26984193,-85.85836077,35,2
Cooke,Texas,33.63979567,-97.21240912,35,0
Greene,Pennsylvania,39.85746531,-80.22357106,35,0
Jackson,Oklahoma,34.58781741,-99.41138784,35,3
Jersey,Illinois,39.08869046,-90.35393073,35,1
Kauai,Hawaii,22.03935037,-159.5966786,35,0
Madison,Iowa,41.33081904,-94.01554631,35,2
Otero,New Mexico,32.61348406,-105.7417604,35,6
Oxford,Maine,44.49952995,-70.75682123,35,0
Pontotoc,Oklahoma,34.72959848,-96.68337199,35,2
San Miguel,Colorado,38.00450883,-108.4020725,35,0
Bingham,Idaho,43.2167288,-112.3978437,36,0
Cherokee,North Carolina,35.1349263,-84.05970864,36,1
Dunn,Wisconsin,44.94562799,-91.8962481,36,0
Hockley,Texas,33.60771256,-102.3431676,36,1
Howell,Missouri,36.77383887,-91.88683935,36,0
Lamb,Texas,34.06859623,-102.3516289,36,0
Lincoln,Idaho,43.0012336,-114.1358773,36,0
Long,Georgia,31.75218791,-81.74952375,36,1
Perquimans,North Carolina,36.17847453,-76.40603143,36,2
Pike,Missouri,39.34310674,-91.16980779,36,1
Seminole,Oklahoma,35.16478725,-96.61686741,36,3
Spencer,Kentucky,38.03223971,-85.32749335,36,0
Brown,Indiana,39.19605589,-86.22868909,37,1
Carroll,Kentucky,38.66599534,-85.12601074,37,0
Cass,Texas,33.07499881,-94.34646905,37,2
Champaign,Ohio,40.13923427,-83.76875242,37,1
Davis,Iowa,40.74773536,-92.41005468,37,1
Davison,South Dakota,43.67490933,-98.14458906,37,0
Jefferson,Washington,47.75003077,-123.5609704,37,0
Morris,Texas,33.11304005,-94.73255695,37,0
Noble,Oklahoma,36.38953329,-97.22928674,37,0
Taylor,Kentucky,37.3677562,-85.3329931,37,1
Whitman,Washington,46.90022523,-117.5241763,37,0
Wyoming,Pennsylvania,41.51955538,-76.01074915,37,7
Appomattox,Virginia,37.37569884,-78.81340003,38,0
Arenac,Michigan,44.0636262,-83.89277559,38,2
Boyle,Kentucky,37.62680923,-84.8633779,38,0
Cameron,Louisiana,29.87592238,-93.19310676,38,0
Carroll,Tennessee,35.97366108,-88.45189331,38,1
Clayton,Iowa,42.84443388,-91.34133693,38,3
Douglas,Oregon,43.27941273,-123.167291,38,0
Forest,Wisconsin,45.66678019,-88.77084892,38,3
Knox,Ohio,40.39830217,-82.42027563,38,1
Little River,Arkansas,33.70375665,-94.23468591,38,0
Lyon,Iowa,43.38107862,-96.20926845,38,0
Merrick,Nebraska,41.16624273,-98.0374887,38,0
New Madrid,Missouri,36.59666326,-89.66070007,38,1
Northumberland,Virginia,37.89202088,-76.41949732,38,1
Polk,Tennessee,35.12245443,-84.52075859,38,0
Towns,Georgia,34.91369188,-83.7410746,38,1
Washington,North Carolina,35.83810081,-76.57299037,38,3
Calhoun,Iowa,42.38521079,-94.64046046,39,0
Charles City,Virginia,37.35358063,-77.05634116,39,3
Crawford,Georgia,32.71391813,-83.98061238,39,0
Franklin,Maine,44.97330019,-70.44381045,39,1
Hart,Kentucky,37.29943898,-85.88461055,39,0
Jackson,Texas,28.95472367,-96.57749563,39,1
Jerauld,South Dakota,44.06637798,-98.62965972,39,1
Pulaski,Virginia,37.06474963,-80.71229738,39,2
Taos,New Mexico,36.58006022,-105.6310198,39,1
Washakie,Wyoming,43.90451606,-107.680187,39,0
Christian,Missouri,36.9711783,-93.18537118,40,0
Coos,Oregon,43.17406868,-124.0594514,40,0
Custer,Nebraska,41.39374521,-99.72805369,40,4
Delaware,Iowa,42.47104597,-91.3664492,40,1
Hampshire,West Virginia,39.32103553,-78.60826476,40,1
Henry,Tennessee,36.33160906,-88.30121797,40,0
Jo Daviess,Illinois,42.36542373,-90.21094405,40,1
King William,Virginia,37.70965316,-77.09384941,40,0
Mono,California,37.93899289,-118.8872409,40,1
Roberts,South Dakota,45.62975048,-96.94672673,40,0
Russell,Kentucky,36.99308373,-85.06070117,40,4
Sibley,Minnesota,44.5796592,-94.23164924,40,2
Warren,Missouri,38.76529479,-91.16124662,40,0
Webster,Kentucky,37.52168356,-87.67989953,40,0
Butler,Iowa,42.73172833,-92.79015971,41,2
Campbell,Virginia,37.20553386,-79.09678609,41,1
Franklin,Texas,33.17653242,-95.21917243,41,0
Logan,Oklahoma,35.91899576,-97.44352845,41,1
Montgomery,Illinois,39.23198845,-89.47809254,41,1
Patrick,Virginia,36.6801638,-80.2865648,41,1
Rabun,Georgia,34.88389445,-83.40304637,41,3
Richland,North Dakota,46.26440649,-96.94852979,41,0
Teller,Colorado,38.88133511,-105.1614893,41,2
Torrance,New Mexico,34.64048375,-105.8508949,41,1
Washington,Vermont,44.27343241,-72.61604978,41,1
York,Nebraska,40.87272618,-97.59710186,41,0
Amelia,Virginia,37.34081025,-77.98584649,42,1
Bradley,Arkansas,33.46755808,-92.15980837,42,2
Buchanan,Iowa,42.4709188,-91.83510825,42,1
Dare,North Carolina,35.66520691,-75.71767334,42,1
Desha,Arkansas,33.83011025,-91.25500948,42,0
Essex,New York,44.11630765,-73.77297842,42,0
Grand Traverse,Michigan,44.69565625,-85.55585247,42,5
Kleberg,Texas,27.42435506,-97.69894948,42,1
Livingston,Illinois,40.89188292,-88.55784752,42,2
Owen,Indiana,39.31145587,-86.83900724,42,1
Wood,Wisconsin,44.45537896,-90.04158336,42,1
Adams,Indiana,40.7457653,-84.93671406,43,1
Baker,Georgia,31.32669878,-84.44218806,43,3
Barry,Missouri,36.70978521,-93.82919888,43,0
Bee,Texas,28.41761668,-97.74215593,43,0
Charlton,Georgia,30.78371028,-82.13951596,43,2
Christian,Illinois,39.54581621,-89.27780482,43,4
Door,Wisconsin,44.95856458,-87.30002707,43,3
Geary,Kansas,38.99871131,-96.7577178,43,1
Hancock,Iowa,43.08178477,-93.73454884,43,0
Hardy,West Virginia,39.00683177,-78.85855301,43,0
Highland,Ohio,39.1839264,-83.60331456,43,1
Jasper,Texas,30.74685667,-94.02667579,43,1
Juneau,Alaska,58.45031811,-134.200436,43,2
Madison,Virginia,38.41531222,-78.28220331,43,1
Marshall,West Virginia,39.86064362,-80.66591062,43,0
Polk,Wisconsin,45.46130348,-92.44182875,43,1
Roane,Tennessee,35.84923189,-84.52458689,43,0
Wheeler,Georgia,32.12009104,-82.72574721,43,0
Benton,Indiana,40.60626947,-87.31093999,44,0
Callaway,Missouri,38.83674754,-91.92186505,44,1
Conway,Arkansas,35.26205537,-92.70506566,44,3
Cortland,New York,42.59509207,-76.07048931,44,0
Defiance,Ohio,41.32398837,-84.49076944,44,3
Gloucester,Virginia,37.40809042,-76.53524337,44,1
Mountrail,North Dakota,48.20197971,-102.3555315,44,0
Ottawa,Oklahoma,36.83532655,-94.81011909,44,2
Sanilac,Michigan,43.42406072,-82.82055898,44,6
Washington,Colorado,39.97015535,-103.202587,44,0
Yancey,North Carolina,35.90079156,-82.31237181,44,0
Zapata,Texas,27.00156391,-99.16987152,44,0
Ashland,Ohio,40.84772277,-82.27280781,45,1
Dawson,Texas,32.74255572,-101.9477242,45,1
Faribault,Minnesota,43.67381499,-93.94787458,45,0
Fayette,Ohio,39.56021306,-83.4562016,45,0
Giles,Tennessee,35.20222469,-87.03992678,45,0
Hawkins,Tennessee,36.44355426,-82.94885298,45,2
Humboldt,Iowa,42.7764426,-94.20722537,45,1
Jefferson,Florida,30.43669112,-83.89442308,45,4
Lake,California,39.10124298,-122.7536244,45,0
Lee,Iowa,40.64181461,-91.48183025,45,1
Limestone,Texas,31.5454767,-96.58095444,45,1
Mason,Michigan,43.99509218,-86.24988902,45,0
Sullivan,Indiana,39.08952258,-87.41414469,45,1
Yates,New York,42.63505484,-77.10369919,45,6
Dixon,Nebraska,42.49188363,-96.86782408,46,2
Hidalgo,New Mexico,31.91383467,-108.7151824,46,0
Howard,Nebraska,41.2200529,-98.5166499,46,4
Jasper,Illinois,39.01054275,-88.15437049,46,7
Logan,Arkansas,35.21413234,-93.71951016,46,0
Mason,Washington,47.35007586,-123.1863685,46,1
Morgan,Georgia,33.59232073,-83.49129491,46,0
Randolph,Arkansas,36.3415714,-91.02455531,46,1
TriCounty,Utah,40.12491499,-109.5174415,46,0
Upshur,Texas,32.73706798,-94.93999853,46,0
Washington,Nebraska,41.52815707,-96.22019892,46,1
Carroll,Ohio,40.5789686,-81.09178213,47,3
DeKalb,Tennessee,35.97616272,-85.83689361,47,0
Douglas,Illinois,39.76768052,-88.21854195,47,0
Franklin City,Virginia,36.6831435,-76.93859681,47,2
Grant,Kansas,37.56227336,-101.3079758,47,1
Hempstead,Arkansas,33.73325583,-93.66935133,47,1
Iowa,Iowa,41.68630265,-92.0643373,47,0
Meade,South Dakota,44.56676791,-102.7162741,47,1
Miller,Georgia,31.16568912,-84.73151117,47,0
Montgomery,Kentucky,38.03253032,-83.9145241,47,0
Raleigh,West Virginia,37.76936795,-81.2456041,47,0
Wakulla,Florida,30.16548905,-84.39895211,47,1
Wythe,Virginia,36.91582035,-81.07834059,47,1
Allendale,South Carolina,32.98837386,-81.35321066,48,3
Clatsop,Oregon,45.99712889,-123.660711,48,0
Cocke,Tennessee,35.9278914,-83.11828725,48,0
Heard,Georgia,33.29686567,-85.12886832,48,3
Kearny,Kansas,38.00017981,-101.321681,48,1
Murray,Minnesota,44.02216709,-95.76328482,48,0
Taney,Missouri,36.65465345,-93.04075153,48,2
Andrew,Missouri,39.98492163,-94.80163024,49,0
Carter,Tennessee,36.28969086,-82.12588974,49,1
Clarke,Virginia,39.11271747,-77.99199425,49,0
Halifax,Virginia,36.76654925,-78.93512622,49,1
Harrison,Iowa,41.68330137,-95.81558439,49,0
Hughes,South Dakota,44.39091534,-99.99661148,49,0
Marion,Kentucky,37.55218078,-85.26898542,49,0
McIntosh,Oklahoma,35.37235506,-95.66599306,49,1
Moniteau,Missouri,38.63571781,-92.57976951,49,1
Perry,Illinois,38.08510853,-89.36856219,49,0
Pulaski,Georgia,32.23334561,-83.4754996,49,2
Stone,Mississippi,30.79187949,-89.11547539,49,1
Weakley,Tennessee,36.29896232,-88.71990865,49,1
Crane,Texas,31.43052248,-102.5143314,50,8
Cumberland,Virginia,37.51328851,-78.24398086,50,0
Del Norte,California,41.74228275,-123.8974063,50,1
Gage,Nebraska,40.26186809,-96.68946704,50,4
Irwin,Georgia,31.60213036,-83.27501387,50,1
Jefferson,Iowa,41.03192394,-91.94849466,50,0
Lake,Colorado,39.20278823,-106.3555697,50,0
Marinette,Wisconsin,45.38553432,-88.033246,50,3
Monroe,Iowa,41.02988815,-92.8690667,50,6
Osceola,Iowa,43.37824276,-95.62422844,50,0
Pennington,Minnesota,48.06642577,-96.0370814,50,0
Seminole,Georgia,30.93464824,-84.86823924,50,2
Baker,Florida,30.33060121,-82.28467476,51,4
Butler,Kansas,37.78134351,-96.83878537,51,0
Butler,Nebraska,41.22703692,-97.13106306,51,0
Guernsey,Ohio,40.05026529,-81.49248905,51,3
Independence,Arkansas,35.74242707,-91.57001641,51,0
Jones,Iowa,42.12118609,-91.13139641,51,0
Macoupin,Illinois,39.26119767,-89.92424028,51,3
Overton,Tennessee,36.34117832,-85.28989535,51,0
Pawnee,Oklahoma,36.31743373,-96.7033176,51,2
Putnam,West Virginia,38.50782345,-81.9082131,51,0
Salem,Virginia,37.2836193,-80.06219455,51,3
Swain,North Carolina,35.48665845,-83.48748932,51,0
Yuma,Colorado,40.00346839,-102.4258673,51,0
Ashe,North Carolina,36.43296207,-81.49862729,52,1
Brown,Ohio,38.93416837,-83.86788395,52,1
Clay,Arkansas,36.36826212,-90.4148172,52,3
Elmore,Idaho,43.3507101,-115.4701578,52,2
Lincoln,Tennessee,35.13738622,-86.58910106,52,0
McNairy,Tennessee,35.17468549,-88.5647812,52,0
Waseca,Minnesota,44.02211116,-93.58720034,52,0
Wilkes,Georgia,33.78290391,-82.74286107,52,1
Alcorn,Mississippi,34.88084463,-88.57996173,53,1
Carroll,New Hampshire,43.87498583,-71.20430216,53,0
Clay,Kentucky,37.16451126,-83.712575,53,3
Codington,South Dakota,44.97788119,-97.18827677,53,0
Coffey,Kansas,38.2365018,-95.73379515,53,8
Crawford,Pennsylvania,41.68447709,-80.10760592,53,0
Drew,Arkansas,33.59035001,-91.71777921,53,1
Flathead,Montana,48.29575866,-114.0520569,53,2
Jackson,Minnesota,43.67423373,-95.15398258,53,0
Morrow,Oregon,45.41846568,-119.584546,53,1
Ochiltree,Texas,36.27829105,-100.8158184,53,2
Oconto,Wisconsin,45.02715345,-88.26807503,53,0
Rush,Indiana,39.62002287,-85.4655599,53,3
Sharp,Arkansas,36.16258158,-91.47819342,53,4
Unicoi,Tennessee,36.10890856,-82.43709629,53,0
Becker,Minnesota,46.93479392,-95.67158144,54,0
Custer,Oklahoma,35.63853802,-99.00170785,54,0
Hopkins,Texas,33.14875072,-95.56351139,54,1
Kewaunee,Wisconsin,44.51727459,-87.61468386,54,1
Lincoln,Nebraska,41.04658298,-100.7475374,54,2
Logan,Ohio,40.38996525,-83.76784341,54,0
Marshall,Kentucky,36.8800707,-88.32803576,54,2
Okmulgee,Oklahoma,35.64661916,-95.96432828,54,0
Barton,Kansas,38.47889676,-98.75636726,55,2
Benton,Iowa,42.08011739,-92.06463573,55,1
Bleckley,Georgia,32.43829035,-83.33035166,55,1
Campbell,Wyoming,44.24886082,-105.5474404,55,0
Clark,Arkansas,34.04613432,-93.17484713,55,0
Coosa,Alabama,32.93690146,-86.24847739,55,1
Hart,Georgia,34.34626973,-82.96567682,55,0
Labette,Kansas,37.19113093,-95.29849679,55,0
Mineral,West Virginia,39.41561583,-78.94104895,55,3
Pulaski,Indiana,41.04166107,-86.69890683,55,1
Roosevelt,New Mexico,34.02097406,-103.4799493,55,1
Shelby,Ohio,40.33163494,-84.20258189,55,4
Stephens,Oklahoma,34.48556989,-97.85141892,55,1
Waldo,Maine,44.4858305,-69.12061935,55,14
Warren,Tennessee,35.6728299,-85.77969117,55,0
Wayne,Georgia,31.5521809,-81.91894878,55,0
Williamsburg,Virginia,37.28131268,-76.70905141,55,6
Bradford,Pennsylvania,41.78869215,-76.51570822,56,3
Chattooga,Georgia,34.47197698,-85.34535662,56,2
Clinton,Ohio,39.41485808,-83.80852286,56,0
DeWitt,Texas,29.08101855,-97.3568117,56,1
Elbert,Colorado,39.28656773,-104.1358721,56,2
Essex,Virginia,37.93357639,-76.94230311,56,0
Falls Church,Virginia,38.88485255,-77.17560759,56,7
Fulton,Ohio,41.60213491,-84.12571393,56,0
Knox,Indiana,38.68861576,-87.4194665,56,0
Lee,Texas,30.31120597,-96.97045773,56,3
Marion,West Virginia,39.50984542,-80.24244659,56,2
Perry,Mississippi,31.17161885,-88.99281835,56,4
Pittsburg,Oklahoma,34.92065823,-95.7513432,56,3
Poinsett,Arkansas,35.57433534,-90.66268713,56,3
Red River,Louisiana,32.09530039,-93.34213308,56,8
Todd,South Dakota,43.19338568,-100.7195503,56,1
Clay,Georgia,31.62221166,-84.97713865,57,2
Gentry,Missouri,40.21097916,-94.40944419,57,9
Grant,Kentucky,38.64962758,-84.62415957,57,4
Hood,Texas,32.42990927,-97.83242024,57,4
Hutchinson,Texas,35.84006574,-101.3546643,57,0
Klickitat,Washington,45.87325839,-120.7913598,57,3
Lawrence,Ohio,38.59743452,-82.53466552,57,0
Lyman,South Dakota,43.89522709,-99.85201878,57,0
Marion,Tennessee,35.12997174,-85.62265895,57,4
Meeker,Minnesota,45.12328869,-94.52839455,57,1
Morrison,Minnesota,46.01265363,-94.27341528,57,1
New Kent,Virginia,37.50694406,-76.99828634,57,1
Perry,Kentucky,37.25023553,-83.22922731,57,1
Preble,Ohio,39.7420247,-84.64787018,57,1
Schoharie,New York,42.58831742,-74.4433903,57,0
Somerset,Pennsylvania,39.97172723,-79.02699593,57,1
Wyandot,Ohio,40.84339621,-83.30734173,57,4
Allegany,New York,42.25748406,-78.02750466,58,0
Brookings,South Dakota,44.36974375,-96.79079945,58,0
Douglas,Minnesota,45.93348491,-95.45335469,58,0
Greenbrier,West Virginia,37.9463652,-80.45335881,58,1
Hamilton,Nebraska,40.87349452,-98.02099117,58,11
Hill,Texas,31.99045053,-97.13423143,58,1
Isanti,Minnesota,45.56181234,-93.29487636,58,0
Marion,Iowa,41.33445101,-93.09934783,58,0
Pottawatomie,Kansas,39.37925655,-96.34564657,58,0
Sac,Iowa,42.38624071,-95.10547892,58,0
Union,Florida,30.04412971,-82.37497443,58,2
Vermilion,Illinois,40.18417171,-87.73384359,58,2
Watauga,North Carolina,36.23103603,-81.70033724,58,0
Windsor,Vermont,43.58010937,-72.58595157,58,2
Clay,Indiana,39.39561833,-87.11723506,59,4
Grundy,Tennessee,35.38433717,-85.72142731,59,1
Socorro,New Mexico,34.00715494,-106.9298354,59,5
Ward,North Dakota,48.22390169,-101.5436763,59,1
Boyd,Kentucky,38.36176608,-82.68652187,60,3
Camden,Missouri,38.02199522,-92.76083747,60,1
Franklin,Virginia,36.99536167,-79.88023649,60,1
Geneva,Alabama,31.09389027,-85.83572839,60,0
Greene,Virginia,38.29545894,-78.46525378,60,1
Harrison,West Virginia,39.2853852,-80.37919577,60,1
Lewis,Washington,46.57756476,-122.3925769,60,3
Marshall,Tennessee,35.45798777,-86.76420988,60,1
McPherson,Kansas,38.39184858,-97.64769869,60,0
Reno,Kansas,37.95230263,-98.08607292,60,0
Tishomingo,Mississippi,34.74023475,-88.23917219,60,1
Wasco,Oregon,45.16292781,-121.1670954,60,1
Austin,Texas,29.88548725,-96.27736949,61,0
Floyd,Iowa,43.0600053,-92.78940097,61,2
Gallatin,Kentucky,38.75398691,-84.8558382,61,7
Hardin,Iowa,42.38353877,-93.23654611,61,0
Jones,Georgia,33.02512137,-83.56019163,61,0
Kendall,Texas,29.94414155,-98.7113588,61,0
Monroe,Wisconsin,43.94641218,-90.618819,61,1
White,Tennessee,35.92929884,-85.45591799,61,3
Yuba,California,39.26255932,-121.3535644,61,1
Douglas,Nevada,38.912862,-119.6171333,62,0
Garvin,Oklahoma,34.70418038,-97.30811132,62,1
Gooding,Idaho,42.96927962,-114.8108306,62,1
Haywood,Tennessee,35.58332824,-89.28536625,62,2
Jefferson,Indiana,38.78576239,-85.43633383,62,1
Mifflin,Pennsylvania,40.61116939,-77.61070738,62,1
Tehama,California,40.12570935,-122.2370171,62,1
Uvalde,Texas,29.35739637,-99.76229172,62,1
Andrews,Texas,32.30468633,-102.6376548,63,0
Dade,Georgia,34.8549167,-85.50490424,63,1
Dukes and Nantucket,Massachusetts,41.40674725,-70.68763497,63,0
Hampton,South Carolina,32.77419582,-81.13845571,63,2
Knox,Kentucky,36.89225732,-83.85403396,63,0
Quitman,Mississippi,34.25157572,-90.28908,63,0
Snyder,Pennsylvania,40.77129231,-77.06840691,63,2
Stutsman,North Dakota,46.97962541,-98.95637318,63,1
Washington,Indiana,38.60219804,-86.1049363,63,1
Washington,Virginia,36.72341572,-81.95666289,63,4
Williams,Ohio,41.56052014,-84.58429552,63,1
Fayette,West Virginia,38.02974928,-81.08286634,64,4
Garfield,Oklahoma,36.3791334,-97.78265517,64,2
Guthrie,Iowa,41.68378965,-94.50111014,64,4
Itasca,Minnesota,47.51009045,-93.63092229,64,12
Lamar,Alabama,33.77995024,-88.09668032,64,1
Marquette,Michigan,46.4338914,-87.64043701,64,11
Cass,Nebraska,40.90899107,-96.13971217,65,1
Dixie,Florida,29.60631086,-83.15724673,65,4
Fayette,Alabama,33.72076938,-87.73886638,65,1
Fulton,Indiana,41.0469907,-86.26252745,65,1
Huron,Michigan,43.83353985,-83.04078453,65,3
Jay,Indiana,40.43781032,-85.00576229,65,0
Marion,Illinois,38.64963204,-88.91899208,65,0
Pierce,Wisconsin,44.71850291,-92.4224416,65,0
Pocahontas,Iowa,42.73420133,-94.67862564,65,1
Starke,Indiana,41.27890281,-86.64686895,65,3
Woodford,Kentucky,38.04178222,-84.7417556,65,0
Cherokee,Alabama,34.17805983,-85.60638968,66,7
Cowley,Kansas,37.23781842,-96.83776647,66,1
Eddy,New Mexico,32.47167456,-104.3053527,66,1
George,Mississippi,30.86259065,-88.64436789,66,3
Greer,Oklahoma,34.93535801,-99.5605612,66,7
Huntington,Indiana,40.82907273,-85.48822092,66,2
Missoula,Montana,47.03728583,-113.9213508,66,1
Wells,Indiana,40.72934187,-85.22132966,66,1
Cheshire,New Hampshire,42.92015988,-72.25311043,67,2
Coshocton,Ohio,40.30096166,-81.91729018,67,0
Franklin,Kansas,38.56443815,-95.28644341,67,0
Jasper,Georgia,33.31535543,-83.68844964,67,1
Luna,New Mexico,32.18179341,-107.7508826,67,2
Monona,Iowa,42.05220391,-95.95743843,67,0
Okanogan,Washington,48.54855019,-119.7387224,67,2
Smith,Tennessee,36.25359775,-85.95411046,67,1
Union,Georgia,34.82995757,-83.98967069,67,3
Addison,Vermont,44.03217337,-73.14130877,68,2
Ashley,Arkansas,33.19153461,-91.7698471,68,1
Brown,Texas,31.77430356,-98.99907113,68,10
Charles Mix,South Dakota,43.20660134,-98.58856175,68,0
Crawford,Michigan,44.68255561,-84.61006219,68,5
Haralson,Georgia,33.79602175,-85.21005667,68,5
Harrison,Kentucky,38.44188174,-84.32869741,68,0
Lafayette,Wisconsin,42.66005229,-90.1317729,68,0
Polk,North Carolina,35.27820615,-82.16812354,68,4
Staunton,Virginia,38.15965544,-79.05979937,68,0
Talbot,Georgia,32.69642758,-84.53351366,68,2
Botetourt,Virginia,37.55531756,-79.80982182,69,4
Cherokee,Iowa,42.73538914,-95.62389402,69,0
Clark,Wisconsin,44.73483377,-90.61207486,69,6
Hickman,Tennessee,35.80609681,-87.47643507,69,0
Nelson,Kentucky,37.80335779,-85.4657193,69,1
Seneca,New York,42.78081007,-76.82497064,69,0
Burleson,Texas,30.49273808,-96.62158484,70,0
Cedar,Iowa,41.77233777,-91.13246684,70,1
Choctaw,Mississippi,33.34598242,-89.24809382,70,4
Crowley,Colorado,38.32608609,-103.7844965,70,1
Fairfax City,Virginia,38.85157547,-77.2977964,70,7
Martinsville,Virginia,36.68212094,-79.86352771,70,1
Montezuma,Colorado,37.33859579,-108.5958857,70,3
Montour,Pennsylvania,41.03023987,-76.66345939,70,0
Polk,Arkansas,34.48254879,-94.22728802,70,0
Bennington,Vermont,43.03519828,-73.09048868,71,1
Blair,Pennsylvania,40.47961444,-78.34917412,71,1
Buffalo,South Dakota,44.07657829,-99.20814467,71,1
Franklin,Iowa,42.73270384,-93.26256925,71,0
Hancock,Ohio,41.00250487,-83.66838948,71,1
Matanuska-Susitna,Alaska,62.31305045,-149.5741743,71,1
Pike,Kentucky,37.47088263,-82.39487445,71,2
Routt,Colorado,40.48596505,-106.9905548,71,6
Stark,North Dakota,46.80851182,-102.6576326,71,2
Van Zandt,Texas,32.56483801,-95.83766469,71,3
Big Horn,Montana,45.42335905,-107.492347,72,3
Calhoun,Florida,30.40666734,-85.19394153,72,6
Calhoun,Texas,28.47048236,-96.61633945,72,3
Clearfield,Pennsylvania,41.00110782,-78.47592663,72,0
Cole,Missouri,38.50455671,-92.27860244,72,2
Kerr,Texas,30.06040006,-99.34930144,72,1
Armstrong,Pennsylvania,40.81665618,-79.46290811,73,6
Barnwell,South Carolina,33.26679302,-81.43584352,73,1
Cambria,Pennsylvania,40.49527404,-78.71377428,73,3
Edgefield,South Carolina,33.77221995,-81.96231108,73,2
Franklin,Tennessee,35.15634626,-86.09201039,73,3
Muskingum,Ohio,39.96575964,-81.94363275,73,1
Rio Grande,Colorado,37.5836865,-106.3847838,73,2
Rutland,Vermont,43.57723578,-73.03741676,73,1
Saunders,Nebraska,41.2278103,-96.63773905,73,2
Simpson,Kentucky,36.74058474,-86.58047435,73,3
Taylor,Florida,30.04848048,-83.60445406,73,0
Union,South Carolina,34.68835752,-81.61730349,73,0
Beaufort,North Carolina,35.48531943,-76.84325809,74,0
Castro,Texas,34.53016752,-102.2617243,74,1
Cherokee,Oklahoma,35.90692775,-94.99980896,74,1
Chippewa,Minnesota,45.02343421,-95.56403693,74,1
Columbia,Arkansas,33.21230701,-93.22642793,74,3
Dodge,Minnesota,44.02238415,-92.86244324,74,0
Edmonson,Kentucky,37.21218923,-86.23955613,74,11
Emmet,Iowa,43.37782951,-94.67858943,74,0
Greene,Tennessee,36.17470125,-82.84691273,74,2
Preston,West Virginia,39.46770987,-79.66712803,74,2
Pulaski,Illinois,37.22631423,-89.13085001,74,0
Wayne,Tennessee,35.23868267,-87.78644456,74,0
Waynesboro,Virginia,38.06451466,-78.90293905,74,0
Wood,West Virginia,39.20967886,-81.5162836,74,2
Butler,Missouri,36.71462476,-90.40421163,75,0
Clinton,Pennsylvania,41.23255967,-77.63785995,75,4
Fayette,Texas,29.87788372,-96.92076062,75,2
Le Sueur,Minnesota,44.37136597,-93.72844721,75,1
Randolph,Indiana,40.15734772,-85.01139319,75,4
Shawano,Wisconsin,44.78902246,-88.76443896,75,0
Wilkinson,Georgia,32.80291082,-83.17140684,75,8
Carroll,Iowa,42.03617207,-94.86032705,76,1
Hocking,Ohio,39.49537927,-82.47991446,76,7
Howard,Arkansas,34.09007427,-93.9934871,76,1
Jefferson,Ohio,40.38614126,-80.76259514,76,2
Mayes,Oklahoma,36.30179091,-95.23175116,76,4
Mendocino,California,39.4381191,-123.3911313,76,0
Sabine,Louisiana,31.56388699,-93.55433981,76,1
Union,Ohio,40.30016061,-83.37239023,76,1
Adams,Illinois,39.98815591,-91.18786813,77,1
Bedford,Pennsylvania,40.00522157,-78.48998442,77,3
Carteret,North Carolina,34.8932941,-76.54120135,77,3
Chaffee,Colorado,38.74745778,-106.1926573,77,19
Polk,Minnesota,47.77372465,-96.40134647,77,2
Powhatan,Virginia,37.55016038,-77.91267882,77,2
Taylor,Iowa,40.73710579,-94.69778563,77,0
Whitley,Indiana,41.13863784,-85.50791236,77,4
Yankton,South Dakota,43.00924485,-97.39467635,77,0
Calhoun,South Carolina,33.66926881,-80.77722168,78,1
Greene,Mississippi,31.21444233,-88.63922281,78,7
Jefferson,Mississippi,31.73397872,-91.03764977,78,3
Marion,Georgia,32.3483402,-84.52733571,78,2
Morton,North Dakota,46.71681782,-101.2822377,78,2
Wood,Texas,32.78722382,-95.38236368,78,5
Calloway,Kentucky,36.62093411,-88.2731593,79,1
Chaves,New Mexico,33.36406072,-104.4665365,79,2
Columbia,Wisconsin,43.46492199,-89.33589004,79,1
Danville,Virginia,36.58022376,-79.40395668,79,2
Henry,Illinois,41.3533994,-90.13296166,79,1
Jeff Davis,Georgia,31.80405727,-82.6372487,79,2
Amite,Mississippi,31.17467303,-90.80501621,80,2
Bradford,Florida,29.95079741,-82.16611613,80,2
Clay,South Dakota,42.91296147,-96.97656917,80,0
Henry,Iowa,40.98767962,-91.54436349,80,3
McLeod,Minnesota,44.82367677,-94.27287017,80,0
Milam,Texas,30.7858183,-96.97718698,80,1
O'Brien,Iowa,43.08310673,-95.62474482,80,1
Belknap,New Hampshire,43.51637314,-71.41684235,81,1
Carlton,Minnesota,46.59180601,-92.67601019,81,0
Humboldt,Nevada,41.40692186,-118.1109427,81,4
Jim Wells,Texas,27.73103938,-98.0904705,81,0
Sweetwater,Wyoming,41.65943896,-108.8827882,81,0
Benton,Oregon,44.49167306,-123.4316987,82,5
Carter,Oklahoma,34.25103751,-97.28552485,82,1
Chippewa,Wisconsin,45.06939744,-91.28068855,82,0
Colorado,Texas,29.622098,-96.5273805,82,0
Delta,Colorado,38.86246243,-107.8631342,82,1
Des Moines,Iowa,40.92012606,-91.18326592,82,2
Fannin,Texas,33.59564294,-96.10751083,82,7
Graham,Arizona,32.93166885,-109.8882178,82,1
Grant,Louisiana,31.59882456,-92.56124347,82,1
Payette,Idaho,44.00545243,-116.7647695,82,2
Scott,Kentucky,38.29622293,-84.5816631,82,0
Tunica,Mississippi,34.64967704,-90.37481167,82,3
White,Arkansas,35.25688493,-91.74908296,82,1
Cleburne,Arkansas,35.53864922,-92.02640019,83,4
Grafton,New Hampshire,43.93779815,-71.82057197,83,1
Oglala Lakota,South Dakota,43.33749164,-102.5555498,83,0
Sullivan,Tennessee,36.51240691,-82.30412917,83,2
Bamberg,South Carolina,33.21927586,-81.05659969,84,1
Barren,Kentucky,36.96469836,-85.93338945,84,2
Dallam,Texas,36.27787176,-102.6020725,84,1
Grayson,Virginia,36.65677234,-81.23215889,84,2
Laurel,Kentucky,37.10975748,-84.11321779,84,3
Ohio,West Virginia,40.0955451,-80.62203992,84,1
Otsego,New York,42.63492579,-75.03151402,84,5
Thurston,Nebraska,42.15725356,-96.54157099,84,1
Brantley,Georgia,31.19576557,-81.97743999,85,2
Bremer,Iowa,42.77461496,-92.31795937,85,6
Brewster,Texas,29.81008251,-103.2520326,85,0
Bryan,Oklahoma,33.96472458,-96.25903472,85,1
Cerro Gordo,Iowa,43.08177563,-93.2612239,85,1
Cross,Arkansas,35.29631396,-90.77185818,85,1
Green,Wisconsin,42.6794956,-89.60243287,85,1
Jefferson,New York,44.04200959,-75.94653457,85,0
Johnson,Georgia,32.70211082,-82.66166794,85,2
Malheur,Oregon,43.1937027,-117.6227395,85,1
Monroe,Ohio,39.72984936,-81.08464734,85,17
Hawaii,Hawaii,19.60121157,-155.5210167,86,0
Haywood,North Carolina,35.55269063,-82.98196486,86,0
Jefferson,Georgia,33.05867328,-82.41609057,86,1
Montcalm,Michigan,43.31082541,-85.15252824,86,1
Perry,Pennsylvania,40.40206612,-77.26297447,86,5
Somerset,Maryland,38.1163542,-75.75118623,86,3
Atascosa,Texas,28.89333001,-98.52730485,87,2
Clinton,Iowa,41.89981633,-90.53275096,87,1
Glenn,California,39.59875897,-122.3938452,87,0
Lafayette,Missouri,39.06986886,-93.78076396,87,2
Madison,Georgia,34.12920917,-83.21218732,87,4
Manitowoc,Wisconsin,44.11946801,-87.80928853,87,1
Obion,Tennessee,36.35732446,-89.14921589,87,2
Otter Tail,Minnesota,46.40846929,-95.70835255,87,1
Pike,Georgia,33.09310242,-84.38790389,87,3
Alexander,North Carolina,35.9223796,-81.17751948,88,0
Dodge,Georgia,32.17265114,-83.16948926,88,2
Hood River,Oregon,45.51872811,-121.6552036,88,0
Mississippi,Missouri,36.82516239,-89.29505753,88,0
Oglethorpe,Georgia,33.8786296,-83.08278123,88,7
Pickens,Georgia,34.46589159,-84.46406611,88,5
Wilson,Texas,29.1732598,-98.08693082,88,5
Hardin,Tennessee,35.19732531,-88.18593755,89,5
McDuffie,Georgia,33.47851918,-82.48252774,89,6
Mesa,Colorado,39.01787888,-108.469799,89,0
Pulaski,Kentucky,37.10466131,-84.57629079,89,2
Screven,Georgia,32.74976524,-81.60779441,89,6
St. Helena,Louisiana,30.82210324,-90.71013176,89,1
Telfair,Georgia,31.92829517,-82.93491155,89,3
Wilkinson,Mississippi,31.16078225,-91.31018819,89,9
Adair,Missouri,40.19058551,-92.60078167,90,0
Anderson,Tennessee,36.12684348,-84.19965764,90,2
Chisago,Minnesota,45.5021011,-92.90861945,90,1
Gibson,Tennessee,35.99438059,-88.93358327,90,1
LaSalle,Louisiana,31.67884782,-92.15907765,90,0
Lawrence,Alabama,34.52041498,-87.31069453,90,0
Nye,Nevada,38.04264256,-116.4722702,90,3
Out of MI,Michigan,,,90,0
Union,Pennsylvania,40.96188846,-77.05996014,90,2
Wise,Texas,33.21570665,-97.65460265,90,5
Delaware,New York,42.19837623,-74.96709306,91,4
Jackson,North Carolina,35.28814273,-83.14093385,91,1
Jefferson,Tennessee,36.04818632,-83.45148924,91,0
Kay,Oklahoma,36.81799745,-97.14421435,91,7
Newton,Indiana,40.95610449,-87.39635768,91,10
Prentiss,Mississippi,34.61810501,-88.51986294,91,3
Tallahatchie,Mississippi,33.95339918,-90.1729398,91,1
Washington,Georgia,32.96711864,-82.79357039,91,1
Dunklin,Missouri,36.27167174,-90.09122243,92,3
Gratiot,Michigan,43.29265605,-84.60505416,92,13
Pitkin,Colorado,39.21720112,-106.9310027,92,2
Bailey,Texas,34.06854817,-102.8299707,93,1
Nez Perce,Idaho,46.32638236,-116.7500975,93,19
Rio Arriba,New Mexico,36.51072137,-106.6931674,93,1
Saline,Kansas,38.78369175,-97.65185177,93,2
Fannin,Georgia,34.86430205,-84.316964,94,1
Fayette,Indiana,39.63684962,-85.17797541,94,7
Gilchrist,Florida,29.72856978,-82.79880657,94,0
Jefferson,Oregon,44.62806839,-121.17832,94,0
Jenkins,Georgia,32.79248718,-81.96040187,94,11
La Plata,Colorado,37.28632032,-107.8429014,94,1
Windham,Vermont,42.986982,-72.71268875,94,3
Bannock,Idaho,42.67002716,-112.2233311,95,1
Wyoming,New York,42.70145109,-78.22199579,95,5
Auglaize,Ohio,40.55998859,-84.2242143,96,3
Barry,Michigan,42.59513984,-85.30834519,96,2
Lincoln,Missouri,39.05345619,-90.95588181,96,1
Calumet,Wisconsin,44.0816316,-88.21780273,97,2
Elbert,Georgia,34.11302332,-82.83936148,97,0
Greene,Georgia,33.5769205,-83.17139104,97,9
Jackson,Oregon,42.43201126,-122.7289309,97,0
King George,Virginia,38.26818502,-77.15852768,97,4
Lee,Illinois,41.74583951,-89.29977132,97,2
Pottawatomie,Oklahoma,35.20614018,-96.94923008,97,4
Ross,Ohio,39.33705391,-83.06000914,97,2
Clark,Kentucky,37.9689263,-84.14615986,98,5
Peach,Georgia,32.56934316,-83.82937,98,9
Pine,Minnesota,46.12105238,-92.74070188,98,0
Washington,Alabama,31.4092794,-88.20689944,98,6
Washington,Idaho,44.45275475,-116.7847688,98,0
Brunswick,Virginia,36.76366949,-77.8593436,99,1
Lauderdale,Tennessee,35.75893438,-89.6301591,99,2
Lawrence,Arkansas,36.04188196,-91.10867198,99,9
Clinch,Georgia,30.91395822,-82.70432472,100,3
Jefferson Davis,Mississippi,31.56884708,-89.8267099,100,4
Lea,New Mexico,32.79215361,-103.4123733,100,0
McDonough,Illinois,40.45674722,-90.67775541,100,15
Saguache,Colorado,38.08054629,-106.282466,100,2
Sauk,Wisconsin,43.42574087,-89.94966132,100,3
Westmoreland,Virginia,38.11021557,-76.80213247,100,2
Clinton,New York,44.74530905,-73.67875352,101,4
Crow Wing,Minnesota,46.48096553,-94.06755609,101,11
Emanuel,Georgia,32.59221302,-82.30239915,101,3
Indiana,Pennsylvania,40.65241041,-79.08963285,101,6
Lawrence,Pennsylvania,40.99206278,-80.33393706,101,9
Nevada,Arkansas,33.66340119,-93.30632432,101,2
Shasta,California,40.76391419,-122.0396884,101,4
Jasper,Indiana,41.02078733,-87.11553319,102,2
Shelby,Iowa,41.6850066,-95.31015553,102,0
Abbeville,South Carolina,34.22333378,-82.46170658,103,0
Caldwell,Louisiana,32.0902519,-92.11752148,103,1
Coffee,Tennessee,35.49090731,-86.07311784,103,0
Person,North Carolina,36.38989032,-78.97217358,103,1
Poweshiek,Iowa,41.68625425,-92.53155731,103,8
San Augustine,Texas,31.39457611,-94.17000399,103,7
Franklin,Vermont,44.85627605,-72.91249563,104,6
Jackson,Kentucky,37.41866422,-83.99825483,104,13
Jessamine,Kentucky,37.87119786,-84.58252003,104,0
Valencia,New Mexico,34.71669834,-106.8103733,104,2
Cherokee,Texas,31.837258,-95.16559897,105,2
Elko,Nevada,41.14531606,-115.3577619,105,1
Jackson,Kansas,39.41673394,-95.79356799,105,1
Muskogee,Oklahoma,35.61318461,-95.37802952,105,11
Penobscot,Maine,45.40194593,-68.65020455,105,2
Red River,Texas,33.61886692,-95.04841765,105,10
Wabash,Indiana,40.84704239,-85.79328272,105,2
Concordia,Louisiana,31.44817835,-91.63814433,106,5
Jefferson,Illinois,38.29980057,-88.9240025,106,17
Polk,Texas,30.79472531,-94.8276624,106,0
Washington,Florida,30.61359259,-85.66002461,106,12
Waupaca,Wisconsin,44.47068056,-88.96534501,106,6
Williamson,Illinois,37.73033511,-88.92994027,106,4
Bedford,Virginia,37.3080028,-79.5281964,107,3
Bonneville,Idaho,43.38713372,-111.6161537,107,1
Carroll,Indiana,40.5807832,-86.56198812,107,2
Miller,Arkansas,33.31403423,-93.89285258,107,2
Pittsylvania,Virginia,36.81980341,-79.39731264,107,1
Vernon,Louisiana,31.10884837,-93.18153838,107,7
Lyon,Nevada,39.01777974,-119.1870479,108,2
Nevada,California,39.30394768,-120.7627281,108,1
Sullivan,Missouri,40.2099105,-93.11150106,108,0
Fluvanna,Virginia,37.84157909,-78.27715475,109,6
Nottoway,Virginia,37.1435975,-78.05065922,109,2
San Patricio,Texas,28.00880118,-97.51763891,109,0
Berrien,Georgia,31.27590016,-83.2252992,110,0
Calhoun,Mississippi,33.93683395,-89.33686647,110,4
Choctaw,Oklahoma,34.02807439,-95.54771129,110,1
Fayette,Pennsylvania,39.92041012,-79.64291195,110,4
Jasper,South Carolina,32.43171982,-81.02487495,110,3
Lamar,Georgia,33.07841647,-84.14263877,110,6
Pemiscot,Missouri,36.2130572,-89.78742322,110,6
Perry,Alabama,32.64048341,-87.29770589,110,0
Putnam,Ohio,41.02094889,-84.1336111,110,15
Wayne,West Virginia,38.14901357,-82.42287994,110,9
Winona,Minnesota,43.98772283,-91.78081305,110,15
York,Virginia,37.24374789,-76.54412815,110,3
Adair,Kentucky,37.10459774,-85.28129668,111,19
Adair,Oklahoma,35.88494195,-94.65859267,111,4
Cayuga,New York,42.91261714,-76.55731592,111,2
Hardin,Ohio,40.66015414,-83.65929931,111,12
Humphreys,Mississippi,33.12825718,-90.52252707,111,9
Iosco,Michigan,44.35486835,-83.63484895,111,10
Juniata,Pennsylvania,40.53358749,-77.3997513,111,5
Klamath,Oregon,42.68762984,-121.6496461,111,0
Montgomery,Mississippi,33.49419589,-89.61729103,111,2
Stewart,Georgia,32.07996777,-84.83208037,111,3
Trempealeau,Wisconsin,44.30360275,-91.35893614,111,0
Greene,Arkansas,36.1173546,-90.55832668,112,0
Johnson,Missouri,38.74719601,-93.80691168,112,0
Madison,Kentucky,37.71659336,-84.27220275,112,1
Ripley,Indiana,39.10235626,-85.26212744,112,7
Adams,Washington,46.98299757,-118.5601734,113,0
Goodhue,Minnesota,44.40849741,-92.7234195,113,8
Itawamba,Mississippi,34.27993475,-88.3606733,113,8
Lawrence,Tennessee,35.21675201,-87.39787695,113,4
Macon,Georgia,32.35207048,-84.04234127,113,9
Morrow,Ohio,40.5236356,-82.7892599,113,1
Yamhill,Oregon,45.23330449,-123.3086963,113,8
Camden,Georgia,30.92951916,-81.66601818,114,2
Claiborne,Louisiana,32.82308512,-92.99526883,114,11
Gray,Texas,35.40081878,-100.8129222,114,4
Liberty,Georgia,31.82588896,-81.49251135,114,1
Natrona,Wyoming,42.96180148,-106.797885,114,0
Platte,Missouri,39.38154439,-94.77068479,114,6
Sandusky,Ohio,41.35624126,-83.137872,114,13
West Carroll,Louisiana,32.78550125,-91.461201,114,5
Bryan,Georgia,32.00979311,-81.44002948,116,5
Burnet,Texas,30.78801353,-98.181887,116,3
Cabell,West Virginia,38.42424062,-82.23855912,116,0
Clay,Iowa,43.08247182,-95.15096481,116,0
Hancock,Mississippi,30.41830223,-89.48851033,116,13
Henderson,Texas,32.21128872,-95.85846587,116,4
Montgomery,New York,42.90123494,-74.44011632,116,4
Pettis,Missouri,38.72798918,-93.28471706,116,1
Tippah,Mississippi,34.76872156,-88.90988194,116,11
Alpena,Michigan,45.03477666,-83.62212411,117,11
Camp,Texas,32.97195142,-94.97790104,117,1
Kittitas,Washington,47.12521214,-120.679439,117,0
Louisa,Virginia,37.97850256,-77.96274807,117,1
Mahaska,Iowa,41.33521503,-92.64083907,117,16
Tazewell,Illinois,40.50716185,-89.51404662,117,7
Goochland,Virginia,37.71714806,-77.90381514,118,6
Monroe,Tennessee,35.44550387,-84.24902965,118,4
Perry,Indiana,38.07809328,-86.63741946,118,6
Atkinson,Georgia,31.29633502,-82.87545866,119,2
Tattnall,Georgia,32.04785085,-82.05539188,119,0
Teton,Wyoming,43.93522482,-110.5890801,119,0
Union,South Dakota,42.83112163,-96.6557828,119,1
Chicot,Arkansas,33.26458973,-91.29539209,120,3
Clarke,Iowa,41.02868181,-93.78499767,120,2
Erath,Texas,32.23602653,-98.21773417,120,1
Pecos,Texas,30.78097267,-102.7241261,120,0
Pulaski,Missouri,37.82462075,-92.20783203,120,1
Steuben,Indiana,41.64423868,-85.00101094,120,2
Wayne,Indiana,39.8633444,-85.01044989,120,6
Anson,North Carolina,34.97403241,-80.09953279,121,2
Crenshaw,Alabama,31.72941803,-86.31593104,121,3
Isabella,Michigan,43.64060976,-84.84664923,121,8
Washington,Tennessee,36.29472368,-82.4945472,121,0
Allamakee,Iowa,43.28383218,-91.37860922,122,4
Lavaca,Texas,29.38508402,-96.93186692,122,1
Maui,Hawaii,20.86399628,-156.5689097,122,6
Otsego,Michigan,45.02085831,-84.59898295,122,10
Washington,Ohio,39.45690571,-81.49121382,122,20
Cattaraugus,New York,42.24778241,-78.67923096,123,6
Chautauqua,New York,42.2276921,-79.36691763,123,7
Effingham,Georgia,32.36616021,-81.34280942,123,1
Martin,North Carolina,35.84326734,-77.10860251,123,4
Monroe,Illinois,38.27594376,-90.17761038,123,13
Nicollet,Minnesota,44.35291112,-94.24710352,123,12
Perry,Missouri,37.70660776,-89.82741088,123,0
Val Verde,Texas,29.89149232,-101.1525205,123,0
Webster,Mississippi,33.61300486,-89.28392912,123,10
Douglas,Kansas,38.88503636,-95.2925121,124,0
Franklin,Indiana,39.4142482,-85.06062647,124,8
Knox,Illinois,40.93148779,-90.2133034,124,0
Stokes,North Carolina,36.4017975,-80.23893369,124,1
Cass,Missouri,38.64789422,-94.353399,125,8
Cook,Georgia,31.16068491,-83.42947229,126,1
Livingston,New York,42.72596275,-77.77966158,126,8
Montgomery,Virginia,37.17746986,-80.37868691,126,2
Morgan,Illinois,39.71654544,-90.20255104,126,3
Wilcox,Georgia,31.97496928,-83.43438555,126,15
Cass,Illinois,39.96991073,-90.24734436,127,1
Delaware,Oklahoma,36.40823634,-94.80325046,127,16
Lanier,Georgia,31.0382857,-83.06472457,127,3
Lonoke,Arkansas,34.75392199,-91.88742357,127,1
Ottawa,Ohio,41.53781826,-83.0940185,127,23
Phillips,Arkansas,34.43268455,-90.84800154,127,3
Caroline,Virginia,38.02679129,-77.34901405,128,4
Franklin,Kentucky,38.2379395,-84.87962551,128,3
Portage,Wisconsin,44.47558711,-89.50152965,128,0
Banks,Georgia,34.35607081,-83.49644388,129,0
Crawford,Ohio,40.85065156,-82.91989099,129,5
Humboldt,California,40.69923009,-123.876044,129,4
Oldham,Kentucky,38.39791089,-85.448222,129,6
Willacy,Texas,26.47411727,-97.61535848,129,3
Grady,Oklahoma,35.0167709,-97.88339847,130,5
Kenai Peninsula,Alaska,60.24429722,-151.5388884,130,2
Talbot,Maryland,38.76618159,-76.10882561,130,4
Boone,Iowa,42.03657094,-93.9313999,131,1
Cottonwood,Minnesota,44.00715262,-95.18138802,131,0
Dawson,Georgia,34.44244079,-84.16964071,131,3
Henry,Alabama,31.51148016,-85.24267944,132,4
Lynchburg,Virginia,37.40021399,-79.19888138,132,1
Mercer,Pennsylvania,41.30248872,-80.25816981,132,6
Daviess,Indiana,38.70186039,-87.07185406,133,16
Emporia,Virginia,36.69455571,-77.53406129,133,10
Orange,Indiana,38.5411892,-86.49523093,133,23
Scotland,North Carolina,34.8386299,-79.4757978,133,2
Waller,Texas,30.01058447,-95.99011759,133,0
Warren,Illinois,40.84925021,-90.6147432,133,0
Cass,Michigan,41.91522292,-85.99405727,134,4
Caswell,North Carolina,36.39312665,-79.33353281,134,1
Central Utah,Utah,39.37231946,-111.5758676,134,0
Fairbanks North Star,Alaska,64.80726247,-146.5692662,134,2
Lumpkin,Georgia,34.57286511,-84.00425681,134,3
Stoddard,Missouri,36.85571651,-89.9444155,134,8
Crawford,Arkansas,35.58928601,-94.2446814,135,0
Cherokee,South Carolina,35.05122251,-81.61828622,136,7
Curry,New Mexico,34.57421077,-103.3468876,136,0
Lane,Oregon,43.93727035,-122.847753,136,3
Polk,Oregon,44.90322804,-123.4128888,136,12
Putnam,Georgia,33.32056115,-83.37552891,136,12
Grayson,Kentucky,37.46231118,-86.34248968,137,10
Wayne,Pennsylvania,41.64938475,-75.29956506,137,9
Audrain,Missouri,39.215877,-91.84242683,138,1
Burke,Georgia,33.05917989,-81.99928721,138,6
St. Francois,Missouri,37.81214171,-90.47598685,138,2
Chemung,New York,42.13891056,-76.7638805,139,2
Creek,Oklahoma,35.90230551,-96.37086028,139,7
White,Georgia,34.64624278,-83.74905525,139,4
Linn,Oregon,44.48899494,-122.5373154,140,9
Bertie,North Carolina,36.0688473,-76.96545943,141,4
Brooks,Georgia,30.83922642,-83.58303423,141,11
Cape Girardeau,Missouri,37.38489388,-89.6843587,141,3
Dinwiddie,Virginia,37.07544585,-77.63451754,141,0
Jackson,West Virginia,38.84263974,-81.68148753,142,18
McClain,Oklahoma,35.01123903,-97.44572302,142,4
Tioga,New York,42.16852837,-76.30835812,142,24
Butte,California,39.66727762,-121.6005252,143,2
Colonial Heights,Virginia,37.26420587,-77.39609676,143,17
Kennebec,Maine,44.40759555,-69.76738544,143,9
Webster,Iowa,42.42853483,-94.17987389,143,1
Grant,Wisconsin,42.8671731,-90.7063218,145,13
Hardin,Kentucky,37.6976111,-85.96319251,145,5
Orange,Virginia,38.24530219,-78.015604,145,3
Chenango,New York,42.49430041,-75.60887553,146,5
Oconee,Georgia,33.83749973,-83.43679568,146,10
Carroll,Mississippi,33.44834567,-89.91994479,147,11
Carson City,Nevada,39.15509045,-119.7480219,147,5
Lawrence,Mississippi,31.55147224,-90.10841127,147,1
Bullitt,Kentucky,37.97162523,-85.68955617,148,4
Marathon,Wisconsin,44.89792533,-89.75863384,148,1
Yalobusha,Mississippi,34.02824175,-89.7076205,148,7
Matagorda,Texas,28.81955746,-96.01230294,149,5
Mississippi,Arkansas,35.76271485,-90.0519437,149,3
Yellowstone,Montana,45.93955949,-108.2691486,149,4
Ben Hill,Georgia,31.76095874,-83.22145359,150,1
DeKalb,Indiana,41.39804622,-84.99906934,151,4
Laurens,Georgia,32.46325233,-82.92221316,151,1
Martin,Minnesota,43.67429718,-94.55099908,152,5
St. Louis,Minnesota,47.6048407,-92.46879855,152,14
Sutter,California,39.03417539,-121.6945899,152,3
Walla Walla,Washington,46.23040051,-118.4775539,152,3
Huron,Ohio,41.14651175,-82.59867951,153,1
Minidoka,Idaho,42.85518524,-113.6357257,153,0
Herkimer,New York,43.42034246,-74.96145307,154,3
Monroe,Georgia,33.014289,-83.92097166,154,16
Randolph,Alabama,33.29526734,-85.45708831,154,9
Scott,Indiana,38.68672078,-85.74627859,154,6
McCracken,Kentucky,37.05350953,-88.70445755,155,3
Randolph,West Virginia,38.769899,-79.87919615,155,0
Southampton,Virginia,36.72231125,-77.10642712,155,2
St. Croix,Wisconsin,45.03437474,-92.45000068,155,1
Blount,Tennessee,35.68938198,-83.92847788,156,3
Henderson,Kentucky,37.79344553,-87.57392021,156,3
Iroquois,Illinois,40.74717633,-87.82466784,156,5
Osage,Oklahoma,36.62888819,-96.39635704,156,8
Warren,North Carolina,36.39728256,-78.10652228,157,5
Bibb,Alabama,32.99642064,-87.1251146,158,1
Coles,Illinois,39.51949084,-88.22358557,158,17
El Dorado,California,38.77965956,-120.5233166,158,0
Glades,Florida,26.95635849,-81.18996211,158,1
Nassau,Florida,30.61037141,-81.80297522,158,1
Pierce,Georgia,31.35928155,-82.21598442,158,4
Cumberland,Tennessee,35.95271721,-84.99840585,159,3
Dickson,Tennessee,36.14669837,-87.35891709,159,0
Catahoula,Louisiana,31.66778967,-91.84526385,160,3
Grundy,Illinois,41.28569601,-88.41905692,160,4
Hertford,North Carolina,36.3607755,-76.98104134,160,10
Houston,Texas,31.31925973,-95.42226208,160,0
Macon,Alabama,32.38759944,-85.69267724,160,7
Midland,Michigan,43.64330771,-84.38804374,160,9
Union,Mississippi,34.49162015,-89.00776006,160,8
Calhoun,Georgia,31.53169785,-84.62725131,161,5
Carroll,Arkansas,36.3403856,-93.54270261,161,5
Holmes,Florida,30.86747479,-85.81319222,161,0
Rogers,Oklahoma,36.37004357,-95.60406759,161,5
Scott,Missouri,37.05588075,-89.56474493,161,11
Wayne,New York,43.15494365,-77.02976528,161,3
Chester,South Carolina,34.69249168,-81.1583216,162,1
Deschutes,Oregon,43.91570171,-121.2289121,162,0
Putnam,Indiana,39.66437981,-86.84517605,162,8
Conecuh,Alabama,31.43401703,-86.99320044,163,3
Newaygo,Michigan,43.554374,-85.80070107,163,0
Greene,Alabama,32.85504247,-87.95684022,164,7
Allen,Kentucky,36.75197631,-86.19457544,165,5
Walthall,Mississippi,31.14971548,-90.10446654,165,3
Monongalia,West Virginia,39.63218457,-80.04766838,166,5
Uinta,Wyoming,41.2878183,-110.5475782,167,0
Evangeline,Louisiana,30.72985248,-92.39915924,168,1
Jennings,Indiana,38.99588883,-85.62710784,168,9
Levy,Florida,29.31829741,-82.74007147,168,1
Richland,Louisiana,32.41391005,-91.76634876,168,4
Hopewell,Virginia,37.29186313,-77.29754684,169,2
Cowlitz,Washington,46.19074721,-122.6782231,170,0
Kemper,Mississippi,32.75462946,-88.64105766,171,13
Marshall,Mississippi,34.76216286,-89.50299462,171,3
Greene,North Carolina,35.48544173,-77.67578087,172,2
Madison,Arkansas,36.01038185,-93.72524943,175,0
Meriwether,Georgia,33.04163534,-84.68859732,175,2
Tompkins,New York,42.44945765,-76.47229843,175,0
Turner,Georgia,31.71612656,-83.62069378,175,16
Lycoming,Pennsylvania,41.34310539,-77.06629984,176,19
Marion,South Carolina,34.07859748,-79.36400756,176,7
Coahoma,Mississippi,34.22772299,-90.60415045,177,6
Isle of Wight,Virginia,36.90579348,-76.70842863,177,8
Miami,Indiana,40.76940965,-86.04525048,178,2
Augusta,Virginia,38.16404586,-79.12461614,179,2
Madison,Florida,30.44396917,-83.47398594,179,3
Echols,Georgia,30.71101099,-82.89687287,181,0
Federal Correctional Institution (FCI),Michigan,,,181,5
Franklin,Georgia,34.37525597,-83.23159927,181,1
Frio,Texas,28.86751206,-99.10804207,181,0
Gilmer,Georgia,34.69316688,-84.45802506,181,2
Grady,Georgia,30.87454847,-84.23418364,181,4
Hamblen,Tennessee,36.21990035,-83.26586179,181,4
Susquehanna,Pennsylvania,41.82147784,-75.80071959,181,22
Wharton,Texas,29.27765923,-96.22319248,181,1
Hamilton,Iowa,42.38382428,-93.70197703,182,0
Madison,Ohio,39.89381073,-83.40178317,182,8
Prince Edward,Virginia,37.22554789,-78.43597949,182,3
Buffalo,Nebraska,40.85486962,-99.07500296,183,1
Dorchester,Maryland,38.45413522,-76.02752426,183,5
Greene,Indiana,39.03630547,-86.96223202,183,31
Ohio,Kentucky,37.47751843,-86.85368087,183,0
Union,Illinois,37.47119609,-89.25548938,183,19
Whiteside,Illinois,41.75509713,-89.91556058,183,15
Alamosa,Colorado,37.57250606,-105.7885451,184,3
Beauregard,Louisiana,30.64836518,-93.34173616,184,8
Caddo,Oklahoma,35.17364557,-98.37534464,184,11
Holmes,Ohio,40.56163713,-81.92635677,184,3
Riley,Kansas,39.28935726,-96.73420026,184,3
Blount,Alabama,33.98210918,-86.56790593,185,1
Navarro,Texas,32.04620681,-96.47428766,185,6
Warrick,Indiana,38.08922676,-87.2716085,185,29
Gunnison,Colorado,38.66611652,-107.0320729,186,6
Kootenai,Idaho,47.67282258,-116.7020872,187,1
Monroe,Alabama,31.56729412,-87.36995001,187,2
Choctaw,Alabama,32.02227341,-88.2656443,188,12
Christian,Kentucky,36.89267803,-87.49055367,188,4
Marion,Alabama,34.13697363,-87.88704173,188,12
Parmer,Texas,34.52993409,-102.7844668,188,8
Davie,North Carolina,35.93099927,-80.54496571,190,4
Newberry,South Carolina,34.28629098,-81.59935761,190,4
Pickens,Alabama,33.28094866,-88.08818103,190,6
Watonwan,Minnesota,43.97823903,-94.61413846,190,0
Murray,Georgia,34.78897608,-84.74993177,191,2
Dyer,Tennessee,36.05931946,-89.41542855,192,0
Hillsdale,Michigan,41.88753639,-84.59312019,192,25
Island,Washington,48.14713305,-122.5216407,192,12
Chilton,Alabama,32.85044126,-86.7173256,193,2
Greene,Ohio,39.69116283,-83.89032084,193,9
Ionia,Michigan,42.94502238,-85.07413319,193,4
Northampton,North Carolina,36.41736238,-77.39769443,193,15
Cheatham,Tennessee,36.26136216,-87.08903581,194,0
Clarke,Mississippi,32.04158545,-88.6889622,194,22
Eau Claire,Wisconsin,44.726614,-91.28609183,194,1
Jackson,Alabama,34.78144169,-85.99750489,194,2
Oswego,New York,43.42778894,-76.14635194,194,3
Pontotoc,Mississippi,34.226046,-89.03636807,194,3
Sheboygan,Wisconsin,43.72099677,-87.94579284,195,4
Simpson,Mississippi,31.91282117,-89.91716179,195,3
Stephens,Georgia,34.55151201,-83.29405315,195,6
Sussex,Virginia,36.92432914,-77.25791182,195,2
Graves,Kentucky,36.72292505,-88.65143315,196,21
Kent,Maryland,39.24976208,-76.04741541,196,23
Dearborn,Indiana,39.14647946,-84.97333539,197,22
Randolph,Georgia,31.76622818,-84.75732369,197,25
Washington,Pennsylvania,40.19208869,-80.24582867,197,6
Orange,Texas,30.11879481,-93.89412775,198,3
Pasquotank,North Carolina,36.26723798,-76.25134778,198,15
Centre,Pennsylvania,40.92058903,-77.82200624,200,7
Charlottesville,Virginia,38.03527919,-78.48569588,200,3
Dooly,Georgia,32.15630737,-83.79746561,200,12
Roanoke,Virginia,37.26865804,-80.06396753,200,5
Saluda,South Carolina,34.00795823,-81.72713237,200,1
Carroll,Virginia,36.73066666,-80.73455942,203,8
Harrison,Indiana,38.19467379,-86.10948271,203,22
McMinn,Tennessee,35.42812616,-84.61520715,203,17
Montrose,Colorado,38.40214114,-108.2639022,203,12
Polk,Georgia,34.00267074,-85.18677781,203,1
Allegany,Maryland,39.62357628,-78.69280486,204,17
Franklin,Missouri,38.41127108,-91.07522826,204,18
Monroe,Florida,25.20904673,-81.07812416,204,4
Smith,Mississippi,32.01744532,-89.50644846,204,11
LaSalle,Illinois,41.3442613,-88.88633881,205,17
San Benito,California,36.60308176,-121.069975,205,2
Jackson,Louisiana,32.30251776,-92.55692092,206,16
Benton,Minnesota,45.69804958,-93.99514135,207,3
Cibola,New Mexico,34.91131525,-107.998876,207,14
Johnson,Arkansas,35.56759135,-93.46036368,207,0
Cassia,Idaho,42.28347888,-113.6012409,209,1
Lenawee,Michigan,41.89475156,-84.06603727,209,6
Panola,Texas,32.1639596,-94.30552481,209,25
Scotts Bluff,Nebraska,41.85070896,-103.7080986,209,3
Hancock,Georgia,33.2721566,-82.99766919,210,32
Rockingham,North Carolina,36.39593137,-79.77504841,210,2
Walton,Florida,30.64204028,-86.16935664,210,9
Bienville,Louisiana,32.34569994,-93.05398492,211,26
Claiborne,Mississippi,31.97061673,-90.90702196,211,10
Kitsap,Washington,47.63479026,-122.6436061,211,2
Logan,Kentucky,36.85949479,-86.877635,211,11
Steele,Minnesota,44.02240351,-93.22627088,212,0
Lawrence,Indiana,38.84112637,-86.48361629,213,24
Garland,Arkansas,34.57692074,-93.14921604,214,1
Clinton,Michigan,42.94400871,-84.60145248,215,12
Escambia,Alabama,31.1256789,-87.15918694,215,6
Henry,Indiana,39.93029017,-85.39625719,216,15
Winston,Alabama,34.15030532,-87.37325922,216,3
Hardin,Texas,30.33364686,-94.38931817,217,5
Ozaukee,Wisconsin,43.38352225,-87.94625009,217,15
Santa Fe,New Mexico,35.50708973,-105.9774716,218,3
St. Lawrence,New York,44.4976179,-75.06550039,218,2
Vigo,Indiana,39.42944561,-87.39169027,219,8
Lassen,California,40.67311306,-120.5935099,220,0
McDowell,North Carolina,35.67736232,-82.0482425,220,2
Talladega,Alabama,33.37823223,-86.16886178,220,5
Vermilion,Louisiana,29.83517605,-92.30292538,220,5
Washington,Iowa,41.33577126,-91.71725711,220,9
Liberty,Florida,30.23766008,-84.8829258,221,1
Petersburg,Virginia,37.20530399,-77.39368102,221,3
Jefferson,West Virginia,39.30776166,-77.86014147,222,4
Jefferson,Wisconsin,43.02054068,-88.77529134,222,4
Pender,North Carolina,34.52265624,-77.90352133,222,1
Douglas,Washington,47.7361335,-119.692937,223,3
Oconee,South Carolina,34.75225169,-83.06742317,224,1
Queen Anne's,Maryland,39.06198912,-76.03530977,224,17
Terrell,Georgia,31.77527543,-84.44069698,224,27
Van Buren,Michigan,42.25190229,-86.01939087,224,7
Erie,Ohio,41.36796058,-82.62904521,225,22
Marion,Mississippi,31.23132643,-89.8209217,225,11
Tooele,Utah,40.44862644,-113.1295715,225,0
Toombs,Georgia,32.12059861,-82.32957247,225,5
Bacon,Georgia,31.55456473,-82.45936528,226,4
Macon,Illinois,39.86064913,-88.96342505,227,22
Monroe,Indiana,39.16130004,-86.52414358,227,28
Morehouse,Louisiana,32.81686191,-91.80421614,227,8
Madison,Tennessee,35.61181957,-88.84076036,228,2
Prince George,Virginia,37.18497668,-77.22922187,228,1
Warren,Iowa,41.33559454,-93.56007641,228,2
Winston,Mississippi,33.08747908,-89.03391385,228,4
Jasper,Mississippi,32.01922104,-89.11786866,229,6
Dale,Alabama,31.43037123,-85.61095742,230,0
Thurston,Washington,46.9291895,-122.8290656,230,7
Clinton,Illinois,38.60704876,-89.42385254,231,17
Natchitoches,Louisiana,31.72321584,-93.09816516,231,14
Pointe Coupee,Louisiana,30.71409502,-91.60209535,231,27
Chickasaw,Mississippi,33.91983202,-88.9481545,232,18
Jerome,Idaho,42.68891267,-114.2655033,232,4
Lincoln,North Carolina,35.48508185,-81.21740317,232,2
Sunflower,Mississippi,33.60192578,-90.58882684,232,6
Darke,Ohio,40.13412966,-84.6194517,233,25
Noxubee,Mississippi,33.11009499,-88.56949061,233,7
Tate,Mississippi,34.65133709,-89.94485778,233,6
